timestamp,TimeUS,I,GyrX,GyrY,GyrZ,AccX,AccY,AccZ,EG,EA,T,GH,AH,GHz,AHz
1778515987.14002419,105322854,0,0.0014667361974716187,0.001466857036575675,0.0014603324234485626,-0.0008013601182028651,-0.0008991873473860323,-9.817270278930664,0,0,30.831249237060547,1,1,1000,1000
1778515987.14002419,105322854,1,0.0013482221402227879,0.0014539798721671104,0.0017638916615396738,-0.0010450207628309727,-0.00043738866224884987,-9.819269180297852,0,0,30.831249237060547,1,1,760,800
1778515987.18000817,105362838,0,0.0014319932088255882,0.0014803026570007205,0.0015562475891783834,-0.0010501426877453923,-0.0007705307798460126,-9.81717586517334,0,0,30.83313751220703,1,1,1000,1000
1778515987.18000817,105362838,1,0.001966440351679921,0.0015707493294030428,0.0014695444842800498,0.0018143500201404095,-0.0036653405986726284,-9.819522857666016,0,0,30.83313751220703,1,1,760,800
1778515987.21999216,105402822,0,0.0014877533540129662,0.0015581785701215267,0.0014922471018508077,-1.282468201679876e-05,-0.0007609014865010977,-9.816383361816406,0,0,30.835025787353516,1,1,1000,1000
1778515987.21999216,105402822,1,0.0016910717822611332,0.0015546508366242051,0.0017173518426716328,6.090754322940484e-05,0.002552418503910303,-9.815526962280273,0,0,30.834980010986328,1,1,760,800
1778515987.25997615,105442806,0,0.0016357488930225372,0.001595923793502152,0.0014643481699749827,-0.0004916856996715069,-0.0004997825599275529,-9.817642211914062,0,0,30.836915969848633,1,1,1000,1000
1778515987.25997615,105442806,1,0.0011346596293151379,0.001738672610372305,0.001626045792363584,0.0012304350966587663,-0.00250042462721467,-9.820337295532227,0,0,30.836868286132812,1,1,760,800
1778515987.29996014,105482790,0,0.0014257412403821945,0.001466042478568852,0.0014942961279302835,-0.0009868437191471457,-0.001324932207353413,-9.8165283203125,0,0,30.838804244995117,1,1,1000,1000
1778515987.29996014,105482790,1,0.0016635223291814327,0.0015838881954550743,0.0013636312214657664,-0.002427703235298395,-4.14797686971724e-05,-9.819385528564453,0,0,30.838756561279297,1,1,760,800
1778515987.33994412,105522774,0,0.0015231964644044638,0.00143242662306875,0.001479506492614746,-0.0009238415514118969,-0.00135560252238065,-9.81701946258545,0,0,30.84069061279297,1,1,1000,1000
1778515987.33994412,105522774,1,0.0013590503949671984,0.0015663907397538424,0.0013873715652152896,-0.002052553929388523,-0.0004871601995546371,-9.81665325164795,0,0,30.84064483642578,1,1,760,800
1778515987.37992811,105562758,0,0.0014919016975909472,0.001474336488172412,0.001585514866746962,-0.0013970093568786979,-0.0017784645315259695,-9.817559242248535,0,0,30.842578887939453,1,1,1000,1000
1778515987.37992811,105562758,1,0.0013919728808104992,0.0015598763711750507,0.0016024375800043344,-0.0013831988908350468,-0.0007480346830561757,-9.819204330444336,0,0,30.842533111572266,1,1,760,800
1778515987.41991210,105602742,0,0.0014943787828087807,0.0014529322506859899,0.0015266743721440434,-0.0018240486970171332,-0.000696670264005661,-9.817256927490234,0,0,30.844467163085938,1,1,1000,1000
1778515987.41991210,105602742,1,0.001722696702927351,0.00152020703535527,0.001413180259987712,-0.0004108748980797827,-0.0010253851069137454,-9.816410064697266,0,0,30.844419479370117,1,1,760,800
1778515987.45989609,105642726,0,0.0014759706100448966,0.00147076731082052,0.001436711521819234,-0.0018528442597016692,-0.0012684999965131283,-9.816584587097168,0,0,30.84635353088379,1,1,1000,1000
1778515987.45989609,105642726,1,0.0014222104800865054,0.0015852057840675116,0.001718460232950747,-0.0032795052975416183,-0.004357757046818733,-9.819055557250977,0,0,30.8463077545166,1,1,760,800
1778515987.49988008,105682710,0,0.0014966956805437803,0.001485345303080976,0.0015703692333772779,-0.000998428906314075,-0.0018224453087896109,-9.816960334777832,0,0,30.84823989868164,1,1,1000,1000
1778515987.49988008,105682710,1,0.0015619772020727396,0.0013195613864809275,0.0016138057690113783,-0.00011339861521264538,-0.0006441618897952139,-9.818891525268555,0,0,30.848194122314453,1,1,760,800
1778515987.53986406,105722694,0,0.0014574903761968017,0.0015188077231869102,0.001442840090021491,-0.0012687258422374725,-0.0012969551607966423,-9.818570137023926,0,0,30.850128173828125,1,1,1000,1000
1778515987.53986406,105722694,1,0.001426745904609561,0.001462451065890491,0.00122944510076195,0.0010106888366863132,-0.0006493193795904517,-9.817583084106445,0,0,30.850080490112305,1,1,760,800
1778515987.57984805,105762678,0,0.001475792028941214,0.0014858701033517718,0.0015547496732324362,-0.0010052535217255354,-0.00043376325629651546,-9.817103385925293,0,0,30.852014541625977,1,1,1000,1000
1778515987.57984805,105762678,1,0.0013356581330299377,0.0012715435586869717,0.001359417219646275,-0.0007905153324827552,-0.0017018899088725448,-9.818120002746582,0,0,30.851966857910156,1,1,760,800
1778515987.61983204,105802662,0,0.0014833611203357577,0.0015937748830765486,0.0015550043899565935,-0.001589049119502306,-0.0017402383964508772,-9.817100524902344,0,0,30.853900909423828,1,1,1000,1000
1778515987.61983204,105802662,1,0.0014114417135715485,0.0015722992829978466,0.0013647251762449741,0.0010560015216469765,-0.002319938037544489,-9.815580368041992,0,0,30.853853225708008,1,1,760,800
1778515987.65981603,105842646,0,0.001506708562374115,0.0015793037600815296,0.0014958996325731277,-0.000955918978434056,-0.0008181199664250016,-9.817523956298828,0,0,30.85578727722168,1,1,1000,1000
1778515987.65981603,105842646,1,0.001431903219781816,0.001779666868969798,0.0014901311369612813,-0.0017732111737132072,0.0012520019663497806,-9.81886100769043,0,0,30.85573959350586,1,1,760,800
1778515987.69980025,105882630,0,0.0014685755595564842,0.0015586453955620527,0.001481708139181137,-0.0009581510676071048,-0.0002699622418731451,-9.81656265258789,0,0,30.85767364501953,1,1,1000,1000
1778515987.69980025,105882630,1,0.001572178560309112,0.001589854247868061,0.0015565329231321812,-0.0002921113627962768,0.00011445276322774589,-9.815866470336914,0,0,30.857624053955078,1,1,760,800
1778515987.73978424,105922614,0,0.0015543453628197312,0.0014541472773998976,0.0014879321679472923,-0.0008337732870131731,-0.000964141683652997,-9.816640853881836,0,0,30.85955810546875,1,1,1000,1000
1778515987.73978424,105922614,1,0.0014201694866642356,0.0016076992033049464,0.00157271814532578,-0.0010466126259416342,-0.0026692375540733337,-9.81573486328125,0,0,30.85951042175293,1,1,760,800
1778515987.77976823,105962598,0,0.0014861448435112834,0.0015691525768488646,0.0014467198634520173,-0.0014313471037894487,-0.0007852467824704945,-9.817218780517578,0,0,30.86144256591797,1,1,1000,1000
1778515987.77976823,105962598,1,0.0015323814004659653,0.0015171230770647526,0.00174034689553082,0.0002903783170040697,-0.0008845148840919137,-9.81710433959961,0,0,30.86139678955078,1,1,760,800
1778515987.81975222,106002582,0,0.001580697251483798,0.001479877158999443,0.001594413653947413,-0.00014252822438720614,-0.0011136753018945456,-9.816927909851074,0,0,30.863327026367188,1,1,1000,1000
1778515987.81975222,106002582,1,0.0017614199314266443,0.0014673853293061256,0.0015922863967716694,-0.0012372267665341496,-0.0015099374577403069,-9.816604614257812,0,0,30.86328125,1,1,760,800
1778515987.85973620,106042566,0,0.001537324977107346,0.0014887831639498472,0.0015167189994826913,-0.001562740420922637,-0.0012575570726767182,-9.816722869873047,0,0,30.865211486816406,1,1,1000,1000
1778515987.85973620,106042566,1,0.0016541926888749003,0.0012537557631731033,0.0014476282522082329,-0.003408335614949465,-0.0027971488889306784,-9.819662094116211,0,0,30.865211486816406,1,1,760,800
1778515987.89972019,106082550,0,0.0014996507670730352,0.0015254814643412828,0.0015105224447324872,-0.0009415666572749615,-0.0012614430161193013,-9.817584037780762,0,0,30.867097854614258,1,1,1000,1000
1778515987.89972019,106082550,1,0.0015465936157852411,0.0015657463809475303,0.0014032690087333322,-0.002213283907622099,-0.0020570321939885616,-9.814367294311523,0,0,30.867097854614258,1,1,760,800
1778515987.93970418,106122534,0,0.0015500194858759642,0.0015049106441438198,0.001463249558582902,-0.0009975576540455222,-0.0009283190011046827,-9.817194938659668,0,0,30.868982315063477,1,1,1000,1000
1778515987.93970418,106122534,1,0.001388763776049018,0.0017572748474776745,0.0017681512981653214,1.019548926706193e-05,0.0012965034693479538,-9.818726539611816,0,0,30.868982315063477,1,1,760,800
1778515987.97968817,106162518,0,0.0014555355301126838,0.0014843756798654795,0.0015000078128650784,-0.0008185189799405634,-0.0004426907398737967,-9.818599700927734,0,0,30.870864868164062,1,1,1000,1000
1778515987.97968817,106162518,1,0.0014494656352326274,0.0014106063172221184,0.0014795073075219989,0.002114477101713419,-0.0030840022955089808,-9.818249702453613,0,0,30.870864868164062,1,1,760,800
1778515988.01967216,106202502,0,0.001598994480445981,0.0014328609686344862,0.001560764852911234,-0.0011987644247710705,-0.0004414553986862302,-9.817607879638672,0,0,30.87274932861328,1,1,1000,1000
1778515988.01967216,106202502,1,0.001454545883461833,0.001479288563132286,0.0015049471985548735,-0.002344016917049885,-0.0007981775561347604,-9.817713737487793,0,0,30.87274932861328,1,1,760,800
1778515988.05965614,106242486,0,0.0015721585368737578,0.0015775375068187714,0.001540011027827859,-7.713371451245621e-05,-0.0006344248540699482,-9.81730842590332,0,0,30.8746337890625,1,1,1000,1000
1778515988.05965614,106242486,1,0.001496187411248684,0.0013529220595955849,0.0016249477630481124,-0.001278542447835207,-0.001898239366710186,-9.816240310668945,0,0,30.8746337890625,1,1,760,800
1778515988.09964013,106282470,0,0.0015347129665315151,0.0015426756581291556,0.0015462125884369016,-0.001281508943066001,-0.0010499227792024612,-9.818613052368164,0,0,30.876516342163086,1,1,1000,1000
1778515988.09964013,106282470,1,0.0014938653912395239,0.0015906539047136903,0.0015632414724677801,-0.0009032328380271792,0.0009782288689166307,-9.820615768432617,0,0,30.876516342163086,1,1,760,800
1778515988.13962412,106322454,0,0.0015473092207685113,0.0014815950999036431,0.0015642923535779119,-0.0006347779417410493,-0.0021735187619924545,-9.817582130432129,0,0,30.878398895263672,1,1,1000,1000
1778515988.13962412,106322454,1,0.001685220981016755,0.0016797012649476528,0.0014129031915217638,-0.0012121719773858786,0.0008312335703521967,-9.815520286560059,0,0,30.878398895263672,1,1,760,800
1778515988.17960811,106362438,0,0.0014773147413507104,0.0015287062851712108,0.001477397046983242,-0.00026585778687149286,-0.0013108900748193264,-9.81734848022461,0,0,30.880281448364258,1,1,1000,1000
1778515988.17960811,106362438,1,0.0012781720142811537,0.001630774000659585,0.0013181351823732257,-0.0019498958718031645,-0.0008895579376257956,-9.819647789001465,0,0,30.880281448364258,1,1,760,800
1778515988.21959209,106402422,0,0.001509038032963872,0.0015030482318252325,0.0015287826536223292,-0.0007368761580437422,-0.0009284927509725094,-9.81751823425293,0,0,30.882164001464844,1,1,1000,1000
1778515988.21959209,106402422,1,0.0014445108827203512,0.0016678273677825928,0.0014549179468303919,-0.0013977554626762867,-0.0030893313232809305,-9.817408561706543,0,0,30.882164001464844,1,1,760,800
1778515988.25957608,106442406,0,0.0014718319289386272,0.001493226969614625,0.0015780029352754354,-0.0016611795872449875,-0.0010130133014172316,-9.81716537475586,0,0,30.88404655456543,1,1,1000,1000
1778515988.25957608,106442406,1,0.001606940757483244,0.001445837551727891,0.0012171214912086725,-0.001784671563655138,-0.00012034681276418269,-9.816049575805664,0,0,30.88404655456543,1,1,760,800
1778515988.29956007,106482390,0,0.0013689433690160513,0.0015717491041868925,0.0015378004172816873,-0.002124824794009328,-0.0005641102907247841,-9.817134857177734,0,0,30.885929107666016,1,1,1000,1000
1778515988.29956007,106482390,1,0.001351852435618639,0.0013944953680038452,0.001555158756673336,0.00025087641552090645,-0.0007392141269519925,-9.818281173706055,0,0,30.885929107666016,1,1,760,800
1778515988.33954406,106522374,0,0.0015324077103286982,0.0015396431554108858,0.0015253146411851048,-0.0015041872393339872,-0.0002863880945369601,-9.816580772399902,0,0,30.88780975341797,1,1,1000,1000
1778515988.33954406,106522374,1,0.0013749513309448957,0.001562539953738451,0.0013708113692700863,-0.0005298262694850564,-0.0018348225858062506,-9.817514419555664,0,0,30.88780975341797,1,1,760,800
1778515988.37952805,106562358,0,0.0014910893514752388,0.001558080199174583,0.0015631490387022495,-0.001850722823292017,-0.0008199685835279524,-9.817704200744629,0,0,30.889692306518555,1,1,1000,1000
1778515988.37952805,106562358,1,0.001608475111424923,0.001319634960964322,0.0013172775506973267,-0.005205297842621803,-0.0013024620711803436,-9.815195083618164,0,0,30.889692306518555,1,1,760,800
1778515988.41951203,106602342,0,0.001533254748210311,0.0014893256593495607,0.0014534479705616832,-0.00029289055964909494,-0.000847275834530592,-9.818344116210938,0,0,30.891572952270508,1,1,1000,1000
1778515988.41951203,106602342,1,0.0015978027367964387,0.0014232707908377051,0.001589432591572404,0.00017301765910815448,-0.0008803713135421276,-9.818709373474121,0,0,30.891572952270508,1,1,760,800
1778515988.45949626,106642326,0,0.00152702780906111,0.0015441941795870662,0.0015233911108225584,-0.00022520753554999828,-0.0008891559555195272,-9.818065643310547,0,0,30.893455505371094,1,1,1000,1000
1778515988.45949626,106642326,1,0.0018438150873407722,0.001402946305461228,0.0015424954472109675,-0.002618157770484686,0.0012276212219148874,-9.816478729248047,0,0,30.893455505371094,1,1,760,800
1778515988.49948025,106682310,0,0.0014729863032698631,0.0015268501592800021,0.0015216005267575383,-0.0007106003467924893,-0.0016727142501622438,-9.816730499267578,0,0,30.895334243774414,1,1,1000,1000
1778515988.49948025,106682310,1,0.0017393542220816016,0.0016398552106693387,0.0016093712765723467,-0.00016430325922556221,-0.0007476650644093752,-9.815220832824707,0,0,30.895334243774414,1,1,760,800
1778515988.53946424,106722294,0,0.0015159652102738619,0.0014701582258567214,0.0015203150687739253,-0.001274624839425087,-0.0011249646777287126,-9.817111015319824,0,0,30.897216796875,1,1,1000,1000
1778515988.53946424,106722294,1,0.0014544277219101787,0.0013824873603880405,0.0016682244604453444,0.0011986270546913147,-0.0011936723021790385,-9.817296981811523,0,0,30.897216796875,1,1,760,800
1778515988.57944822,106762278,0,0.0015917506534606218,0.001566015649586916,0.0015270605217665434,-0.0010236742673441768,-0.0003106424701400101,-9.817163467407227,0,0,30.89909553527832,1,1,1000,1000
1778515988.57944822,106762278,1,0.0014061440015211701,0.0015903946477919817,0.0014552529901266098,-0.00041859448538161814,-0.0013659644173458219,-9.815950393676758,0,0,30.89909553527832,1,1,760,800
1778515988.61943221,106802262,0,0.0015274147735908628,0.0015134857967495918,0.0014786807587370276,-0.0007282243459485471,-0.000590028939768672,-9.817955017089844,0,0,30.90097427368164,1,1,1000,1000
1778515988.61943221,106802262,1,0.001432259799912572,0.0013813299592584372,0.0016206067521125078,-0.002689693821594119,0.0005581544828601182,-9.818164825439453,0,0,30.90097427368164,1,1,760,800
1778515988.65941620,106842246,0,0.001535849180072546,0.0015211519785225391,0.0015398781979456544,-0.0006761120166629553,-0.0010348204523324966,-9.81764030456543,0,0,30.902854919433594,1,1,1000,1000
1778515988.65941620,106842246,1,0.001464668894186616,0.0013016490265727043,0.0017753278370946646,-0.00016580690862610936,-0.00019086874090135098,-9.819361686706543,0,0,30.902854919433594,1,1,760,800
1778515988.69940019,106882230,0,0.0014610859798267484,0.0015007206238806248,0.0015440389979630709,-0.0005846555577591062,-0.00045352819142863154,-9.816607475280762,0,0,30.904687881469727,1,1,1000,1000
1778515988.69940019,106882230,1,0.001568468869663775,0.0015221736393868923,0.0016937641194090247,-0.0018400715198367834,-0.0005110301426611841,-9.813552856445312,0,0,30.904735565185547,1,1,760,800
1778515988.73938417,106922214,0,0.001534006092697382,0.0015348638407886028,0.0015099504962563515,-0.0012289996957406402,-0.00029599256231449544,-9.817830085754395,0,0,30.906566619873047,1,1,1000,1000
1778515988.73938417,106922214,1,0.0012665019603446126,0.001445111003704369,0.0015677993651479483,2.0042993128299713e-05,0.0004694871895480901,-9.817070960998535,0,0,30.906614303588867,1,1,760,800
1778515988.77936816,106962198,0,0.001552726374939084,0.0015454923268407583,0.001513578579761088,-0.0008664739434607327,-0.00144597003236413,-9.81740951538086,0,0,30.908447265625,1,1,1000,1000
1778515988.77936816,106962198,1,0.0015621607890352607,0.0013328351778909564,0.0013211986515671015,-0.0040815784595906734,-0.0014236094430088997,-9.818775177001953,0,0,30.908493041992188,1,1,760,800
1778515988.81935215,107002182,0,0.0015323762781918049,0.001553955371491611,0.0016061171190813184,0.00022318473202176392,-0.0022178390063345432,-9.81674861907959,0,0,30.910324096679688,1,1,1000,1000
1778515988.81935215,107002182,1,0.00140382198151201,0.0015779288951307535,0.001704720314592123,-0.0011917739175260067,-0.0011619459837675095,-9.816792488098145,0,0,30.910371780395508,1,1,760,800
1778515988.85933614,107042166,0,0.0015483159804716706,0.0015301051316782832,0.0014809384010732174,-0.0002763599914032966,-0.000925262167584151,-9.816405296325684,0,0,30.91220474243164,1,1,1000,1000
1778515988.85933614,107042166,1,0.0013998734066262841,0.0014498629607260227,0.0018598348833620548,0.0005390309961512685,-0.0023321667686104774,-9.81736946105957,0,0,30.912250518798828,1,1,760,800
1778515988.89932013,107082150,0,0.0015030722133815289,0.0015631061978638172,0.0015468352939933538,-0.000678973039612174,-0.0015244345413520932,-9.817713737487793,0,0,30.914081573486328,1,1,1000,1000
1778515988.89932013,107082150,1,0.0014537988463416696,0.001437474857084453,0.0015020231949165463,-0.0006175961461849511,-0.0011203560279682279,-9.816954612731934,0,0,30.91412925720215,1,1,760,800
1778515988.93930411,107122134,0,0.001556389150209725,0.001492199138738215,0.0015516686253249645,-0.0010941067012026906,-0.0014822515659034252,-9.816947937011719,0,0,30.91596031188965,1,1,1000,1000
1778515988.93930411,107122134,1,0.0014693294651806355,0.0014812700683251023,0.0014721041079610586,-0.0015155263245105743,0.002125280210748315,-9.817745208740234,0,0,30.916006088256836,1,1,760,800
1778515988.97928810,107162118,0,0.0015422870637848973,0.0015114854322746396,0.001552460715174675,-0.0013883885694667697,-0.001566780498251319,-9.817649841308594,0,0,30.917837142944336,1,1,1000,1000
1778515988.97928810,107162118,1,0.00162699690554291,0.0015169314574450254,0.0016756789991632104,-0.0023714867420494556,-0.002838196698576212,-9.818740844726562,0,0,30.917884826660156,1,1,760,800
1778515989.01927209,107202102,0,0.00144698447547853,0.0015975467395037413,0.001528708846308291,-0.00010702652798499912,-0.0007291861111298203,-9.816995620727539,0,0,30.919715881347656,1,1,1000,1000
1778515989.01927209,107202102,1,0.0013468405231833458,0.0014944137074053288,0.0015674763126298785,-0.00316827860660851,-0.0031619358342140913,-9.818008422851562,0,0,30.919761657714844,1,1,760,800
1778515989.05925608,107242086,0,0.0014412598684430122,0.0015133459819480777,0.0014992717187851667,-0.0009370879270136356,-0.0024089105427265167,-9.818534851074219,0,0,30.921592712402344,1,1,1000,1000
1778515989.05925608,107242086,1,0.0015666421968489885,0.001334590371698141,0.0014127320609986782,-0.000905620981939137,-0.0015545869246125221,-9.817559242248535,0,0,30.92163848876953,1,1,760,800
1778515989.09924006,107282070,0,0.0015502918977290392,0.001560003962367773,0.0015490374062210321,-0.001303351134993136,-0.0021015109959989786,-9.816934585571289,0,0,30.92346954345703,1,1,1000,1000
1778515989.09924006,107282070,1,0.0011928846361115575,0.0017196981934830546,0.0014245285419747233,-0.000575002864934504,0.002167961560189724,-9.819392204284668,0,0,30.92351722717285,1,1,760,800
1778515989.13922405,107322054,0,0.0015134266577661037,0.0014613289386034012,0.0015977676957845688,-0.000870749237947166,-0.0015003513544797897,-9.818353652954102,0,0,30.925392150878906,1,1,1000,1000
1778515989.13922405,107322054,1,0.0014205537736415863,0.0016314913518726826,0.001498890109360218,-4.2612969991751015e-05,-0.002576611703261733,-9.817501068115234,0,0,30.925392150878906,1,1,760,800
1778515989.17920804,107362038,0,0.0014454819029197097,0.0014903276460245252,0.001607778831385076,-0.00033357052598148584,-0.00020648547797463834,-9.817127227783203,0,0,30.927268981933594,1,1,1000,1000
1778515989.17920804,107362038,1,0.0016052209539338946,0.0015606029191985726,0.0016183070838451385,0.0003506222565192729,-0.0010509483981877565,-9.817371368408203,0,0,30.927268981933594,1,1,760,800
1778515989.22002506,107402855,0,0.001459553837776184,0.0014979419065639377,0.0015921449521556497,-0.0007075669127516448,-0.000826322240754962,-9.816865921020508,0,0,30.92914581298828,1,1,1000,1000
1778515989.22002506,107402855,1,0.0014191988157108426,0.0015410706400871277,0.0016077009495347738,-0.001268915832042694,-0.00039473167271353304,-9.816812515258789,0,0,30.92914581298828,1,1,760,800
1778515989.26000905,107442839,0,0.0015371630433946848,0.001547235413454473,0.0015194868901744485,-0.0014359643682837486,-0.0005399511428549886,-9.81808090209961,0,0,30.93102264404297,1,1,1000,1000
1778515989.26000905,107442839,1,0.0014855219051241875,0.0013683483703061938,0.0015839962288737297,-0.0009567412198521197,-0.0016502742655575275,-9.819608688354492,0,0,30.93102264404297,1,1,760,800
1778515989.29999304,107482823,0,0.0015928667271509767,0.0015208566328510642,0.0015187362441793084,-4.856351006310433e-05,-0.0011496697552502155,-9.81769847869873,0,0,30.932897567749023,1,1,1000,1000
1778515989.29999304,107482823,1,0.0015834833029657602,0.0013931224821135402,0.0014155908720567822,-0.0014862566022202373,-0.0014706050278618932,-9.815706253051758,0,0,30.932849884033203,1,1,760,800
1778515989.33997703,107522807,0,0.001529891393147409,0.0015263597015291452,0.0015847450122237206,-0.0013277602847665548,-0.0004498968773987144,-9.816920280456543,0,0,30.934772491455078,1,1,1000,1000
1778515989.33997703,107522807,1,0.0012614381266757846,0.00148905033711344,0.0015529347583651543,-0.00010424273204989731,5.389000216382556e-05,-9.816878318786621,0,0,30.93472671508789,1,1,760,800
1778515989.37996125,107562791,0,0.001445756759494543,0.0015251663280650973,0.001495466334745288,-0.0005875761271454394,-0.0010160573292523623,-9.816615104675293,0,0,30.936647415161133,1,1,1000,1000
1778515989.37996125,107562791,1,0.0014285290380939841,0.0016241124831140041,0.0014448640868067741,0.0004226542660035193,0.0009351465268991888,-9.817573547363281,0,0,30.936601638793945,1,1,760,800
1778515989.41994524,107602775,0,0.0015017075929790735,0.0015465948963537812,0.0015391013585031033,-0.002063895808532834,-0.0012868862831965089,-9.817913055419922,0,0,30.938522338867188,1,1,1000,1000
1778515989.41994524,107602775,1,0.0014296728186309338,0.001200246624648571,0.0013846284709870815,0.00012481956218834966,-0.0009139195317402482,-9.816482543945312,0,0,30.9384765625,1,1,760,800
1778515989.45992923,107642759,0,0.0015100223245099187,0.0015865087043493986,0.0015034273965284228,-0.00036969868233427405,-0.0006618155748583376,-9.817434310913086,0,0,30.940399169921875,1,1,1000,1000
1778515989.45992923,107642759,1,0.0017468935111537576,0.0015192083083093166,0.0015990652609616518,-0.00017960218247026205,-0.002180902287364006,-9.818050384521484,0,0,30.940349578857422,1,1,760,800
1778515989.49991322,107682743,0,0.001494482159614563,0.001480132807046175,0.0015632417052984238,-0.000797373941168189,-0.0002712002897169441,-9.817113876342773,0,0,30.942272186279297,1,1,1000,1000
1778515989.49991322,107682743,1,0.0013800477609038353,0.0016618141671642661,0.0012408590409904718,-0.0012381512206047773,-0.002504002535715699,-9.81756591796875,0,0,30.94222640991211,1,1,760,800
1778515989.53989720,107722727,0,0.0015986984362825751,0.0015410424675792456,0.0015676659531891346,-0.0006411243230104446,-0.0011132488725706935,-9.816523551940918,0,0,30.94414710998535,1,1,1000,1000
1778515989.53989720,107722727,1,0.0014529852196574211,0.0015230957651510835,0.001458074664697051,-0.001554636750370264,-0.0008948813192546368,-9.818319320678711,0,0,30.94409942626953,1,1,760,800
1778515989.57988119,107762711,0,0.0015636238967999816,0.0015883580781519413,0.0014857134083285928,-0.001002199947834015,-0.0007286450127139688,-9.818604469299316,0,0,30.946022033691406,1,1,1000,1000
1778515989.57988119,107762711,1,0.0014220376033335924,0.0014230958186089993,0.0015016724355518818,-0.0012838398106396198,-0.003332555992528796,-9.81905746459961,0,0,30.945972442626953,1,1,760,800
1778515989.61986518,107802695,0,0.001581043703481555,0.0015936610288918018,0.0014900264795869589,-0.001360878930427134,-0.00022201919637154788,-9.817790985107422,0,0,30.947895050048828,1,1,1000,1000
1778515989.61986518,107802695,1,0.001367602963000536,0.0014684003544971347,0.0018216334283351898,-0.0028660050593316555,-0.0013930428540334105,-9.818941116333008,0,0,30.947847366333008,1,1,760,800
1778515989.65984917,107842679,0,0.0016293023945763707,0.0015403854195028543,0.001490087597630918,-0.001092930673621595,-0.0002485250006429851,-9.81761646270752,0,0,30.94976806640625,1,1,1000,1000
1778515989.65984917,107842679,1,0.001510084723122418,0.0015198864275589585,0.0019108648411929607,-0.002860432956367731,0.0011473934864625335,-9.820168495178223,0,0,30.949722290039062,1,1,760,800
1778515989.69983315,107882663,0,0.0015759088564664125,0.0014762382488697767,0.0015226247487589717,-0.0003675036714412272,-0.0007715469691902399,-9.81694507598877,0,0,30.951641082763672,1,1,1000,1000
1778515989.69983315,107882663,1,0.0016131337033584714,0.0012467268388718367,0.0017274252604693174,-0.00041222007712349296,-0.0016032166313380003,-9.819052696228027,0,0,30.951595306396484,1,1,760,800
1778515989.73981714,107922647,0,0.0014926170697435737,0.001574355992488563,0.0015341946855187416,-0.0008326184470206499,-0.0017236347775906324,-9.816529273986816,0,0,30.953514099121094,1,1,1000,1000
1778515989.73981714,107922647,1,0.0013299320125952363,0.0015224214876070619,0.0013093834277242422,-0.0036349110305309296,-0.00033535665716044605,-9.815462112426758,0,0,30.953466415405273,1,1,760,800
1778515989.77980113,107962631,0,0.001524306833744049,0.0015152653213590384,0.001578959752805531,-0.0019635541830211878,-0.0008209972875192761,-9.817788124084473,0,0,30.955387115478516,1,1,1000,1000
1778515989.77980113,107962631,1,0.0014648234937340021,0.0013438258320093155,0.0016885558143258095,-0.0010515027679502964,-0.0024689706042408943,-9.815938949584961,0,0,30.955339431762695,1,1,760,800
1778515989.81978512,108002615,0,0.0015902386512607336,0.001572690438479185,0.0014993565855547786,0.00031298206886276603,-0.0010349451331421733,-9.817828178405762,0,0,30.957260131835938,1,1,1000,1000
1778515989.81978512,108002615,1,0.001282944343984127,0.0016463598003610969,0.0015305180568248034,-0.002791952108964324,-0.0009511982789263129,-9.817333221435547,0,0,30.957212448120117,1,1,760,800
1778515989.85976911,108042599,0,0.0016422393964603543,0.0014916801592335105,0.0015203988878056407,-0.0009113912237808108,-0.0017792443977668881,-9.817760467529297,0,0,30.959131240844727,1,1,1000,1000
1778515989.85976911,108042599,1,0.001561047276481986,0.0016561623197048903,0.0014415534678846598,-0.00042082922300323844,-0.0020515979267656803,-9.81839656829834,0,0,30.95908546447754,1,1,760,800
1778515989.89975309,108082583,0,0.0015419293195009232,0.001582380966283381,0.0014771881978958845,-0.0015096795978024602,-0.0008566533215343952,-9.817611694335938,0,0,30.961002349853516,1,1,1000,1000
1778515989.89975309,108082583,1,0.0013538257917389274,0.001300400821492076,0.001672261510975659,-0.0021852299105376005,-0.0008734414586797357,-9.815801620483398,0,0,30.960956573486328,1,1,760,800
1778515989.93973708,108122567,0,0.001587125938385725,0.0015519887674599886,0.0015720054507255554,-0.0010627883020788431,-0.0010843584313988686,-9.817062377929688,0,0,30.962875366210938,1,1,1000,1000
1778515989.93973708,108122567,1,0.0015311773167923093,0.0016992406453937292,0.0013005777727812529,-0.0005576062249019742,-0.0015707449056208134,-9.816020011901855,0,0,30.96282958984375,1,1,760,800
1778515989.97972107,108162551,0,0.001522348029538989,0.001558766351081431,0.0015075206756591797,-0.001009365078061819,-0.0006935527198947966,-9.818209648132324,0,0,30.964746475219727,1,1,1000,1000
1778515989.97972107,108162551,1,0.0018035959219560027,0.001873177825473249,0.0015969385858625174,-0.0007991649326868355,0.0023579970002174377,-9.817305564880371,0,0,30.964746475219727,1,1,760,800
1778515990.01970506,108202535,0,0.0015888905618339777,0.0015167455421760678,0.0014854990877211094,-0.0010777267161756754,-0.00015822998830117285,-9.817298889160156,0,0,30.966617584228516,1,1,1000,1000
1778515990.01970506,108202535,1,0.0016486182576045394,0.001288720523007214,0.0014864086406305432,-0.0032246303744614124,-0.0013739856658503413,-9.81692123413086,0,0,30.966617584228516,1,1,760,800
1778515990.05968904,108242519,0,0.0015338303055614233,0.001524412538856268,0.0014909645542502403,-0.0010064011439681053,-0.0010417578741908073,-9.817971229553223,0,0,30.968488693237305,1,1,1000,1000
1778515990.05968904,108242519,1,0.001685870811343193,0.001696455292403698,0.0015215992461889982,5.6133394537027925e-05,-0.00118068209849298,-9.818613052368164,0,0,30.968488693237305,1,1,760,800
1778515990.09967303,108282503,0,0.0015801466070115566,0.0015865882160142064,0.0015144627541303635,-0.0010172150796279311,-0.0016589388251304626,-9.817184448242188,0,0,30.970359802246094,1,1,1000,1000
1778515990.09967303,108282503,1,0.0012212959118187428,0.0014319102047011256,0.0015064518665894866,0.0006040867883712053,-0.004090595990419388,-9.817716598510742,0,0,30.970359802246094,1,1,760,800
1778515990.13965726,108322487,0,0.0015735810156911612,0.0015853340737521648,0.0015754204941913486,-0.0011076577939093113,-0.0005606663762591779,-9.817483901977539,0,0,30.972230911254883,1,1,1000,1000
1778515990.13965726,108322487,1,0.0015335320495069027,0.001605962635949254,0.0016992174787446856,0.0016180963721126318,0.00030783776310272515,-9.81666374206543,0,0,30.972230911254883,1,1,760,800
1778515990.17964125,108362471,0,0.0014919620007276535,0.0015710816951468587,0.0016230824403464794,-0.0010986330453306437,-0.0009811320342123508,-9.818225860595703,0,0,30.974102020263672,1,1,1000,1000
1778515990.17964125,108362471,1,0.0015466129407286644,0.0017269115196540952,0.001457668375223875,-6.707508873660117e-05,0.0006689868168905377,-9.816612243652344,0,0,30.974102020263672,1,1,760,800
1778515990.21962523,108402455,0,0.001574843656271696,0.0015322566032409668,0.0015415672678500414,-0.001287439838051796,-0.002424560720100999,-9.816742897033691,0,0,30.975971221923828,1,1,1000,1000
1778515990.21962523,108402455,1,0.0014687441289424896,0.0015499633736908436,0.0015810065669938922,0.000566361821256578,0.001126788672991097,-9.817831039428711,0,0,30.975971221923828,1,1,760,800
1778515990.25960922,108442439,0,0.0015381461707875133,0.0015250607393682003,0.0015153903514146805,-0.0008990222122520208,-0.0012021437287330627,-9.817285537719727,0,0,30.977840423583984,1,1,1000,1000
1778515990.25960922,108442439,1,0.0017801288049668074,0.001713523524813354,0.0012308605946600437,-0.0012971247779205441,-0.001988726668059826,-9.818777084350586,0,0,30.977840423583984,1,1,760,800
1778515990.29959321,108482423,0,0.0015155491419136524,0.0015505108749493957,0.0015411897329613566,-0.0006028258358128369,-0.0007495499448850751,-9.816658020019531,0,0,30.97970962524414,1,1,1000,1000
1778515990.29959321,108482423,1,0.001449446426704526,0.001507580396719277,0.0014400393702089787,-0.0032264108303934336,-0.0018896807450801134,-9.816204071044922,0,0,30.97970962524414,1,1,760,800
1778515990.33957720,108522407,0,0.0015539067098870873,0.001487484434619546,0.0016326159238815308,-0.0014579491689801216,-0.0010756260016933084,-9.817870140075684,0,0,30.981578826904297,1,1,1000,1000
1778515990.33957720,108522407,1,0.0014636609703302383,0.0016054784646257758,0.001646459917537868,-0.0014598558191210032,-0.001012696884572506,-9.820243835449219,0,0,30.981578826904297,1,1,760,800
1778515990.37956119,108562391,0,0.0014871853636577725,0.001603981014341116,0.001506571308709681,-0.0017269134987145662,-0.0011191427474841475,-9.81782341003418,0,0,30.983448028564453,1,1,1000,1000
1778515990.37956119,108562391,1,0.0014744957443326712,0.001573403482325375,0.0016303008887916803,-0.0004982373211532831,-0.00011476063809823245,-9.81766128540039,0,0,30.983448028564453,1,1,760,800
1778515990.41954517,108602375,0,0.0016208344604820013,0.001530844485387206,0.0016193909104913473,-0.00033490313217043877,-0.0009599688928574324,-9.81736946105957,0,0,30.98531723022461,1,1,1000,1000
1778515990.41954517,108602375,1,0.0016538964118808508,0.0016122907400131226,0.0013492780271917582,0.00019405096827540547,0.00012462092854548246,-9.817706108093262,0,0,30.98531723022461,1,1,760,800
1778515990.45952916,108642359,0,0.0015138265443965793,0.0015201333444565535,0.0015447589103132486,-0.0012530023232102394,-0.00014600604481529444,-9.817039489746094,0,0,30.987186431884766,1,1,1000,1000
1778515990.45952916,108642359,1,0.0016304372111335397,0.0017592518124729395,0.0016159720253199339,-0.0003023537283297628,-0.000622242281679064,-9.81710147857666,0,0,30.987186431884766,1,1,760,800
1778515990.49951315,108682343,0,0.001557709532789886,0.001504856743849814,0.001596100046299398,-0.0013931832509115338,-0.0004938712227158248,-9.817930221557617,0,0,30.98905372619629,1,1,1000,1000
1778515990.49951315,108682343,1,0.001537575852125883,0.001451296964660287,0.0015300634549930692,0.0005951559287495911,0.0010874397121369839,-9.819032669067383,0,0,30.98905372619629,1,1,760,800
1778515990.53949714,108722327,0,0.0015888697234913707,0.0015804533613845706,0.001521941157989204,-0.0002505330485291779,-0.0018220015335828066,-9.81737232208252,0,0,30.990921020507812,1,1,1000,1000
1778515990.53949714,108722327,1,0.0014714435674250126,0.0016187138389796019,0.0016309862257912755,-0.0017610621871426702,0.0003640387440100312,-9.817893981933594,0,0,30.990921020507812,1,1,760,800
1778515990.57948112,108762311,0,0.0015471370425075293,0.0015676748007535934,0.0015379779506474733,7.712141814408824e-05,-0.00044804843491874635,-9.817501068115234,0,0,30.99279022216797,1,1,1000,1000
1778515990.57948112,108762311,1,0.0014361138455569744,0.0018774705240502954,0.0015062327729538083,0.000754467910155654,-0.003909809049218893,-9.816819190979004,0,0,30.99279022216797,1,1,760,800
1778515990.61946511,108802295,0,0.0015562342014163733,0.0015854787779971957,0.0015249318676069379,-0.00036706094397231936,-0.0016430006362497807,-9.817323684692383,0,0,30.99465560913086,1,1,1000,1000
1778515990.61946511,108802295,1,0.001636743312701583,0.0016626568976789713,0.0012147807283326983,-0.0016962746158242226,-0.0013628812739625573,-9.818305969238281,0,0,30.99465560913086,1,1,760,800
1778515990.65944910,108842279,0,0.0016942236106842756,0.0014122443972155452,0.001460247440263629,-0.001266801729798317,-0.0016617134679108858,-9.818023681640625,0,0,30.996524810791016,1,1,1000,1000
1778515990.65944910,108842279,1,0.001456468366086483,0.001371830701828003,0.0015894967364147305,-0.0008981815772131085,0.000524507078807801,-9.818387031555176,0,0,30.996524810791016,1,1,760,800
1778515990.69943309,108882263,0,0.001585401245392859,0.001571369357407093,0.001555964583531022,-0.0006398237310349941,-0.0014644362963736057,-9.816728591918945,0,0,30.998390197753906,1,1,1000,1000
1778515990.69943309,108882263,1,0.0013287218753248453,0.001642657327465713,0.0017946851439774036,0.00023954080825205892,-0.0021153532434254885,-9.817998886108398,0,0,30.998390197753906,1,1,760,800
1778515990.73941708,108922247,0,0.0015565188368782401,0.0015843968139961362,0.0015529933152720332,-0.001735373167321086,-0.0015621315687894821,-9.81696605682373,0,0,31.00025749206543,1,1,1000,1000
1778515990.73941708,108922247,1,0.0014769587432965636,0.0018244415987282991,0.001584207988344133,-0.0028411985840648413,0.00030511035583913326,-9.819829940795898,0,0,31.00025749206543,1,1,760,800
1778515990.77940106,108962231,0,0.0015077295247465372,0.0015875815879553556,0.0015500686131417751,-0.0015908540226519108,-0.0013754448154941201,-9.817764282226562,0,0,31.002079010009766,1,1,1000,1000
1778515990.77940106,108962231,1,0.0017242544563487172,0.0013921112986281514,0.0014957382809370756,-0.0009225907269865274,-0.002597495447844267,-9.816238403320312,0,0,31.002124786376953,1,1,760,800
1778515990.81938505,109002215,0,0.001540643977932632,0.0014684436609968543,0.0015104756457731128,-0.0016796073177829385,-0.0012152947019785643,-9.816749572753906,0,0,31.003944396972656,1,1,1000,1000
1778515990.81938505,109002215,1,0.001499772071838379,0.001690459786914289,0.0016938975313678384,-0.0026979292742908,0.001285454025492072,-9.819157600402832,0,0,31.003990173339844,1,1,760,800
1778515990.85936904,109042199,0,0.0015160472830757499,0.0015710226725786924,0.0015664056409150362,-0.0019749568309634924,-0.0010691409697756171,-9.817252159118652,0,0,31.005809783935547,1,1,1000,1000
1778515990.85936904,109042199,1,0.0016738055273890495,0.0014260192401707172,0.0014282852644100785,-0.005222516134381294,-0.0028960455674678087,-9.815876960754395,0,0,31.005857467651367,1,1,760,800
1778515990.89935303,109082183,0,0.0015025571919977665,0.001546097337268293,0.0014889050507918,-0.0013311676448211074,-0.0009588601533323526,-9.817144393920898,0,0,31.007675170898438,1,1,1000,1000
1778515990.89935303,109082183,1,0.0016160199884325266,0.0018192471470683813,0.0012985407374799252,-0.0008928623865358531,-0.0005333154113031924,-9.818269729614258,0,0,31.007722854614258,1,1,760,800
1778515990.93933725,109122167,0,0.001583949662744999,0.0015687907580286264,0.0016272143693640828,-0.0014762688660994172,-0.0017641448648646474,-9.816150665283203,0,0,31.009540557861328,1,1,1000,1000
1778515990.93933725,109122167,1,0.0014883826952427626,0.001570825814269483,0.0016286063473671675,3.2163763535209e-05,-0.002236113650724292,-9.816659927368164,0,0,31.00958824157715,1,1,760,800
1778515990.97932124,109162151,0,0.0015679469797760248,0.0015008080517873168,0.0015381819102913141,-0.0015592200215905905,-0.0021753052715212107,-9.818195343017578,0,0,31.01140594482422,1,1,1000,1000
1778515990.97932124,109162151,1,0.0015260428190231323,0.0015691296430304646,0.0013578042853623629,-0.0011532938806340098,-0.004653353244066238,-9.817191123962402,0,0,31.01145362854004,1,1,760,800
1778515991.01930523,109202135,0,0.0015221313806250691,0.0016076368046924472,0.0015406564343720675,-0.0009147563832812011,-0.0009100998868234456,-9.817490577697754,0,0,31.01327133178711,1,1,1000,1000
1778515991.01930523,109202135,1,0.0016248389147222042,0.0014975491212680936,0.0017336058663204312,0.0001327500503975898,-0.002314884914085269,-9.815610885620117,0,0,31.013317108154297,1,1,760,800
1778515991.05928922,109242119,0,0.0015051488298922777,0.0015637450851500034,0.0016067945398390293,-0.0011985533637925982,-0.0014070728793740273,-9.817646026611328,0,0,31.01513671875,1,1,1000,1000
1778515991.05928922,109242119,1,0.0015237231273204088,0.0015551401302218437,0.0014737513847649097,-0.002768891165032983,-0.003847168991342187,-9.817079544067383,0,0,31.015182495117188,1,1,760,800
1778515991.09927320,109282103,0,0.0016822380712255836,0.0015090364031493664,0.0014991515781730413,-0.0003767969901673496,-0.0019771670922636986,-9.818517684936523,0,0,31.017000198364258,1,1,1000,1000
1778515991.09927320,109282103,1,0.0017969857435673475,0.0013575144112110138,0.0017066429136320949,-0.0019304179586470127,-0.0007162628462538123,-9.815423011779785,0,0,31.017047882080078,1,1,760,800
1778515991.13925719,109322087,0,0.0016213265480473638,0.0015672671142965555,0.0016411556862294674,-0.0007451866986230016,-0.0009187338291667402,-9.8178129196167,0,0,31.01886558532715,1,1,1000,1000
1778515991.13925719,109322087,1,0.001598196104168892,0.0013878318713977933,0.0016877669841051102,-0.0012984558707103133,-1.4173092495184392e-05,-9.820212364196777,0,0,31.018911361694336,1,1,760,800
1778515991.17924118,109362071,0,0.0016039008041843772,0.0015631341375410557,0.0015097917057573795,-0.0012445582542568445,-0.0007116241613402963,-9.817856788635254,0,0,31.020729064941406,1,1,1000,1000
1778515991.17924118,109362071,1,0.0017352905124425888,0.0015644163358956575,0.0016037151217460632,-0.0005264620995149016,-0.0006124982028268278,-9.817041397094727,0,0,31.020774841308594,1,1,760,800
1778515991.21922517,109402055,0,0.0015581406187266111,0.0014955067308619618,0.001535999123007059,-0.0009342195698991418,-0.0007342184544540942,-9.817314147949219,0,0,31.022640228271484,1,1,1000,1000
1778515991.21922517,109402055,1,0.0014316783053800464,0.001526861684396863,0.0015575176803395152,-0.0021534892730414867,-0.0022477286402136087,-9.817483901977539,0,0,31.022640228271484,1,1,760,800
1778515991.25920916,109442039,0,0.0015829012263566256,0.0015407291939482093,0.0015873718075454235,-0.00011533165525179356,-0.0013778525171801448,-9.817817687988281,0,0,31.02450180053711,1,1,1000,1000
1778515991.25920916,109442039,1,0.0015335873467847705,0.001691740471869707,0.0017135333037003875,0.00032216671388596296,-0.0029661189764738083,-9.816500663757324,0,0,31.02450180053711,1,1,760,800
1778515991.30002618,109482856,0,0.0015688752755522728,0.0016154509503394365,0.0015745710115879774,-0.0023443137761205435,-0.000633358780760318,-9.817232131958008,0,0,31.026365280151367,1,1,1000,1000
1778515991.30002618,109482856,1,0.0013439205940812826,0.0015403151046484709,0.001636840170249343,-2.2321783035295084e-06,-0.0014109639450907707,-9.817039489746094,0,0,31.026365280151367,1,1,760,800
1778515991.34001017,109522840,0,0.0015332428738474846,0.001512606511823833,0.0015497609274461865,-0.0008357007172890007,-0.0006785027217119932,-9.81749153137207,0,0,31.028228759765625,1,1,1000,1000
1778515991.34001017,109522840,1,0.0015192996943369508,0.0015559513121843338,0.0016793448012322187,-0.0036247684620320797,-0.0001617849775357172,-9.815973281860352,0,0,31.028228759765625,1,1,760,800
1778515991.37999415,109562824,0,0.0015214844606816769,0.0016050504054874182,0.001483581610955298,-0.0017087621381506324,-0.0005362944793887436,-9.817547798156738,0,0,31.030092239379883,1,1,1000,1000
1778515991.37999415,109562824,1,0.0015564095228910446,0.0018218994373455644,0.0016357859130948782,-0.0015657370677217841,-0.0005425461567938328,-9.81894302368164,0,0,31.030044555664062,1,1,760,800
1778515991.41997814,109602808,0,0.00155130575876683,0.0015754875494167209,0.0016250631306320429,-0.0013792493846267462,-0.0012892162194475532,-9.817167282104492,0,0,31.031953811645508,1,1,1000,1000
1778515991.41997814,109602808,1,0.0016979514621198177,0.0016793045215308666,0.001429403549991548,-0.0013007941888645291,0.0002882902626879513,-9.820205688476562,0,0,31.03190803527832,1,1,760,800
1778515991.45996213,109642792,0,0.001539568416774273,0.0015534150879830122,0.001590788015164435,-0.0012241574004292488,-0.0007493178709410131,-9.817838668823242,0,0,31.033817291259766,1,1,1000,1000
1778515991.45996213,109642792,1,0.001492481678724289,0.0012409351766109467,0.001675814506597817,-0.00019244052236899734,0.0011616389965638518,-9.817508697509766,0,0,31.033769607543945,1,1,760,800
1778515991.49994612,109682776,0,0.0015180637128651142,0.001630819751881063,0.00151052325963974,-0.0016218252712860703,-0.0015381400007754564,-9.817743301391602,0,0,31.03567886352539,1,1,1000,1000
1778515991.49994612,109682776,1,0.0014628723729401827,0.0015406280290335417,0.0015110281528905034,-0.00018661748617887497,-0.0014477194054052234,-9.816691398620605,0,0,31.035633087158203,1,1,760,800
1778515991.53993011,109722760,0,0.001535132760182023,0.0015349340392276645,0.0015983694465830922,-0.0008058109087869525,-0.0021929768845438957,-9.817374229431152,0,0,31.037540435791016,1,1,1000,1000
1778515991.53993011,109722760,1,0.00185848877299577,0.0014670356176793575,0.001939592882990837,-0.0014689343515783548,-0.0018225982785224915,-9.81724739074707,0,0,31.037494659423828,1,1,760,800
1778515991.57991409,109762744,0,0.0015716770431026816,0.0015579038299620152,0.0015840587439015508,-0.0005530642229132354,-0.0014738294994458556,-9.817221641540527,0,0,31.03940200805664,1,1,1000,1000
1778515991.57991409,109762744,1,0.0016121729277074337,0.0014220309676602483,0.0017108606407418847,-0.003264541970565915,0.00018821794947143644,-9.818645477294922,0,0,31.039356231689453,1,1,760,800
1778515991.61989808,109802728,0,0.0015694781905040145,0.0015672044828534126,0.0015294585609808564,-0.0008551895152777433,-0.0007749709766358137,-9.816454887390137,0,0,31.041263580322266,1,1,1000,1000
1778515991.61989808,109802728,1,0.0016420723404735327,0.0016111694276332855,0.0013574812328442931,-0.0014150587376207113,-0.00022015334980096668,-9.816865921020508,0,0,31.041217803955078,1,1,760,800
1778515991.65988207,109842712,0,0.0015357602387666702,0.001605174271389842,0.0016081316862255335,-0.0019768562633544207,-0.0010098200291395187,-9.817469596862793,0,0,31.04312515258789,1,1,1000,1000
1778515991.65988207,109842712,1,0.0013737864792346954,0.0014651413075625896,0.0013012869749218225,-0.0019789133220911026,-0.0005876415525563061,-9.818891525268555,0,0,31.04307746887207,1,1,760,800
1778515991.69986606,109882696,0,0.0015040552243590355,0.0014933610800653696,0.0015106924111023545,-0.0015200095949694514,-0.0013213036581873894,-9.81747817993164,0,0,31.044984817504883,1,1,1000,1000
1778515991.69986606,109882696,1,0.00164614780806005,0.0017560890410095453,0.0016587574500590563,-0.002654725220054388,-0.001192294410429895,-9.818090438842773,0,0,31.044939041137695,1,1,760,800
1778515991.73985004,109922680,0,0.0016529078129678965,0.001514133531600237,0.0015987661899998784,-0.0008820114890113473,-0.0011953379726037383,-9.81700325012207,0,0,31.046846389770508,1,1,1000,1000
1778515991.73985004,109922680,1,0.0014588027261197567,0.0014172109076753259,0.001598553266376257,-8.693008567206562e-05,-0.002504813950508833,-9.816258430480957,0,0,31.046798706054688,1,1,760,800
1778515991.77983403,109962664,0,0.0016041863709688187,0.0015316379722207785,0.0015471756923943758,-0.001611500047147274,-0.0012768786400556564,-9.817776679992676,0,0,31.0487060546875,1,1,1000,1000
1778515991.77983403,109962664,1,0.0016606312710791826,0.0016159379156306386,0.0015720714582130313,6.447027408285066e-05,-0.00399805000051856,-9.816507339477539,0,0,31.048660278320312,1,1,760,800
1778515991.81981826,110002648,0,0.0015422124415636063,0.0015455343527719378,0.0015768632292747498,-0.0005659542512148619,-0.001423546695150435,-9.817028045654297,0,0,31.050567626953125,1,1,1000,1000
1778515991.81981826,110002648,1,0.0016863229684531689,0.001410844037309289,0.0017307439120486379,-0.0018612241838127375,-0.0008838719222694635,-9.817092895507812,0,0,31.050519943237305,1,1,760,800
1778515991.85980225,110042632,0,0.001560693490318954,0.0014887077268213034,0.0015740706585347652,-0.0013166113058105111,0.0005186866619624197,-9.818262100219727,0,0,31.052425384521484,1,1,1000,1000
1778515991.85980225,110042632,1,0.0015926208579912782,0.0015887664631009102,0.0015437155961990356,0.000739069189876318,-0.0027391763869673014,-9.8172607421875,0,0,31.052379608154297,1,1,760,800
1778515991.89978623,110082616,0,0.0016276692040264606,0.0015433187363669276,0.0015293606556952,-0.0007328889332711697,-0.001254085567779839,-9.818161964416504,0,0,31.05428695678711,1,1,1000,1000
1778515991.89978623,110082616,1,0.001590093830600381,0.0015502767637372017,0.0015542255714535713,-0.0006213783635757864,-0.0013124607503414154,-9.818193435668945,0,0,31.05423927307129,1,1,760,800
1778515991.93977022,110122600,0,0.001602695556357503,0.0015747657744213939,0.0016606583958491683,-0.0012998029123991728,-0.00048584811156615615,-9.81706714630127,0,0,31.05614471435547,1,1,1000,1000
1778515991.93977022,110122600,1,0.0017299677710980177,0.001536354306153953,0.0014287736266851425,-0.002601431915536523,-0.001839078264310956,-9.816397666931152,0,0,31.05609893798828,1,1,760,800
1778515991.97975421,110162584,0,0.0015535836573690176,0.0015614039730280638,0.0015602803323417902,-0.00045393657637760043,-0.0009844559244811535,-9.817399978637695,0,0,31.05800437927246,1,1,1000,1000
1778515991.97975421,110162584,1,0.0015751052414998412,0.0015410660998895764,0.0018055771943181753,0.0007274436065927148,0.0007521061925217509,-9.817487716674805,0,0,31.05795669555664,1,1,760,800
1778515992.01973820,110202568,0,0.0016780045116320252,0.0015023548621684313,0.0015531262615695596,-0.0009427027544006705,-0.001006805570796132,-9.818155288696289,0,0,31.05986213684082,1,1,1000,1000
1778515992.01973820,110202568,1,0.0014990934869274497,0.0016464033396914601,0.00156501738820225,0.00039676835876889527,0.00022039948089513928,-9.817405700683594,0,0,31.059816360473633,1,1,760,800
1778515992.05972219,110242552,0,0.0014886341523379087,0.0015270330477505922,0.0016265667509287596,-0.0020402236841619015,-0.0016981923254206777,-9.816607475280762,0,0,31.061721801757812,1,1,1000,1000
1778515992.05972219,110242552,1,0.001598927890881896,0.0013895019656047225,0.0016810991801321507,0.0010155622148886323,-0.0024479813873767853,-9.818283081054688,0,0,31.061721801757812,1,1,760,800
1778515992.09970617,110282536,0,0.001586530590429902,0.0015746327117085457,0.0014695408754050732,-0.001332625513896346,-0.0011324454098939896,-9.816800117492676,0,0,31.063579559326172,1,1,1000,1000
1778515992.09970617,110282536,1,0.0017398541094735265,0.0018101712921634316,0.0014646664494648576,-0.0023009683936834335,-0.0005557214608415961,-9.815925598144531,0,0,31.063579559326172,1,1,760,800
1778515992.13969016,110322520,0,0.0015307023422792554,0.0015830972697585821,0.0014938997337594628,-0.0006908529903739691,-0.0008194333640858531,-9.817523956298828,0,0,31.06543731689453,1,1,1000,1000
1778515992.13969016,110322520,1,0.0015603743959218264,0.0018789225723594427,0.001709104049950838,-0.0015088793588802218,-0.003914626315236092,-9.817480087280273,0,0,31.06543731689453,1,1,760,800
1778515992.17967415,110362504,0,0.0016151908785104752,0.001588186016306281,0.0016191148897632957,-0.0018723915563896298,-0.0006039671134203672,-9.81744384765625,0,0,31.06729507446289,1,1,1000,1000
1778515992.17967415,110362504,1,0.0015051908558234572,0.0013533438323065639,0.0017778610344976187,0.00016416303697042167,-0.0019568956922739744,-9.818222999572754,0,0,31.06729507446289,1,1,760,800
1778515992.21965814,110402488,0,0.0015571388648822904,0.0014663003385066986,0.0015889835776761174,-0.0015632890863344073,-0.001058856025338173,-9.817384719848633,0,0,31.06915283203125,1,1,1000,1000
1778515992.21965814,110402488,1,0.001440073479898274,0.001843794947490096,0.0013875252334401011,-0.0010024959919974208,-0.0018667991971597075,-9.816095352172852,0,0,31.06915283203125,1,1,760,800
1778515992.25964212,110442472,0,0.0015475294785574079,0.00155039899982512,0.001614052220247686,-0.001394602470099926,0.0001882701035356149,-9.81674575805664,0,0,31.07101058959961,1,1,1000,1000
1778515992.25964212,110442472,1,0.001670514466241002,0.0014608828350901604,0.0014691920951008797,-0.0021293391473591328,-0.0005762389628216624,-9.818471908569336,0,0,31.07101058959961,1,1,760,800
1778515992.29962611,110482456,0,0.001567554078064859,0.0015167451929301023,0.0015622635837644339,-0.000999867101199925,-0.002173145767301321,-9.81791877746582,0,0,31.072866439819336,1,1,1000,1000
1778515992.29962611,110482456,1,0.001641855575144291,0.0014507154701277614,0.0015492216916754842,0.0007196551887318492,-0.0027308627031743526,-9.817611694335938,0,0,31.072866439819336,1,1,760,800
1778515992.33961010,110522440,0,0.00162327301222831,0.0015754785854369402,0.0015877969563007355,-0.002721259370446205,-0.0009074828703887761,-9.817269325256348,0,0,31.074724197387695,1,1,1000,1000
1778515992.33961010,110522440,1,0.001305598416365683,0.0015031195944175124,0.0015276598278433084,-0.0006881495355628431,-0.0006030160584487021,-9.815549850463867,0,0,31.074724197387695,1,1,760,800
1778515992.37959409,110562424,0,0.0016079494962468743,0.0015221316134557128,0.0015992377884685993,-0.0012332295300439,-0.00048433089978061616,-9.81759262084961,0,0,31.076580047607422,1,1,1000,1000
1778515992.37959409,110562424,1,0.0015604221262037754,0.0015251210425049067,0.0016255276277661324,0.0009253633907064795,-0.0004577104700729251,-9.817842483520508,0,0,31.076580047607422,1,1,760,800
1778515992.41957808,110602408,0,0.0015908288769423962,0.0015931742964312434,0.0015639415942132473,9.396683890372515e-05,-0.0010962997330352664,-9.81775188446045,0,0,31.07843589782715,1,1,1000,1000
1778515992.41957808,110602408,1,0.001579333795234561,0.0017880132654681802,0.0016464445507153869,-0.000464532058686018,0.001229698653332889,-9.81808090209961,0,0,31.07843589782715,1,1,760,800
1778515992.45956206,110642392,0,0.0015439960407093167,0.0015962689649313688,0.0015818728134036064,-0.0017187398625537753,-0.0003490951785352081,-9.817079544067383,0,0,31.080291748046875,1,1,1000,1000
1778515992.45956206,110642392,1,0.0014004381373524666,0.0016086080577224493,0.0016560966614633799,0.0003704349510371685,-0.0006543698254972696,-9.816256523132324,0,0,31.080291748046875,1,1,760,800
1778515992.49954605,110682376,0,0.0015697296475991607,0.0015544892521575093,0.0016088646370917559,0.00039561663288623095,-0.0008728386601433158,-9.818449020385742,0,0,31.082149505615234,1,1,1000,1000
1778515992.49954605,110682376,1,0.0013303966261446476,0.0016658465610817075,0.0017055671196430922,-0.0006867281044833362,0.0011079638497903943,-9.818166732788086,0,0,31.082149505615234,1,1,760,800
1778515992.53953004,110722360,0,0.0015784577699378133,0.0015855580568313599,0.001571059226989746,3.885059413732961e-05,-0.0015509430086240172,-9.817809104919434,0,0,31.084003448486328,1,1,1000,1000
1778515992.53953004,110722360,1,0.0016456454759463668,0.0014373559970408678,0.0016398481093347073,-0.001544291852042079,-0.001311532687395811,-9.817571640014648,0,0,31.084003448486328,1,1,760,800
1778515992.57951403,110762344,0,0.0016059043118730187,0.0015628759283572435,0.0015715408371761441,-0.0019298618426546454,-0.0009285421692766249,-9.818470001220703,0,0,31.085861206054688,1,1,1000,1000
1778515992.57951403,110762344,1,0.0017743946518748999,0.001540721277706325,0.0016561979427933693,0.0017072407063096762,-0.0010955017060041428,-9.818619728088379,0,0,31.085861206054688,1,1,760,800
1778515992.61949825,110802328,0,0.0016096283216029406,0.0015910373767837882,0.0016361980233341455,-0.0014537757961079478,-0.0011363804806023836,-9.817218780517578,0,0,31.08771514892578,1,1,1000,1000
1778515992.61949825,110802328,1,0.0014889523154124618,0.0015543525805696845,0.0015700464136898518,-0.0007937767659313977,-0.003889132523909211,-9.81658935546875,0,0,31.08771514892578,1,1,760,800
1778515992.65948224,110842312,0,0.0015892456285655499,0.0015574297867715359,0.0015514773549512029,-0.0009539197781123221,-0.0010956083424389362,-9.816634178161621,0,0,31.089569091796875,1,1,1000,1000
1778515992.65948224,110842312,1,0.00167679856531322,0.0016902402276173234,0.0015447901096194983,-0.002331768861040473,-0.002165701473131776,-9.818052291870117,0,0,31.089569091796875,1,1,760,800
1778515992.69946623,110882296,0,0.0016093193553388119,0.0016055848682299256,0.00157482351642102,-0.0010405725333839655,-0.0016804239712655544,-9.817916870117188,0,0,31.09142303466797,1,1,1000,1000
1778515992.69946623,110882296,1,0.0015955147100612521,0.0016343058086931705,0.0015932753449305892,-8.85075714904815e-05,-0.0008358999621123075,-9.817365646362305,0,0,31.09142303466797,1,1,760,800
1778515992.73945022,110922280,0,0.0016074321465566754,0.0015494029503315687,0.001514837727881968,-0.0013785625342279673,-0.00017115619266405702,-9.818281173706055,0,0,31.093278884887695,1,1,1000,1000
1778515992.73945022,110922280,1,0.0013962947996333241,0.0015210321871563792,0.0014856039779260755,-0.002436228794977069,-0.00010678052785806358,-9.818710327148438,0,0,31.093278884887695,1,1,760,800
1778515992.77943420,110962264,0,0.0015611039707437158,0.0015754068735986948,0.0016014297725632787,-0.00041290518129244447,-0.00236487970687449,-9.817169189453125,0,0,31.09513282775879,1,1,1000,1000
1778515992.77943420,110962264,1,0.0015678557101637125,0.001638169283978641,0.0016586781712248921,-0.002563089830800891,-1.4762033970328048e-05,-9.818902015686035,0,0,31.09513282775879,1,1,760,800
1778515992.81941819,111002248,0,0.0016185290878638625,0.0016080864006653428,0.0016607766738161445,-0.0014555929228663445,-0.00039105041651055217,-9.817151069641113,0,0,31.096986770629883,1,1,1000,1000
1778515992.81941819,111002248,1,0.0015492266975343227,0.001658592140302062,0.0018224422819912434,0.001995466649532318,9.000266436487436e-05,-9.817575454711914,0,0,31.096986770629883,1,1,760,800
1778515992.85940218,111042232,0,0.001599754556082189,0.0015877127880230546,0.0015700918156653643,-0.0008189929067157209,-0.001398262451402843,-9.817752838134766,0,0,31.098793029785156,1,1,1000,1000
1778515992.85940218,111042232,1,0.0014186830958351493,0.001410793513059616,0.0015984425554051995,-0.0017973100766539574,0.00027622177731245756,-9.818333625793457,0,0,31.098840713500977,1,1,760,800
1778515992.89938617,111082216,0,0.0015646383399143815,0.001566555118188262,0.0015894691459834576,-0.0009308348526246846,-0.0007170512108132243,-9.81721019744873,0,0,31.10064697265625,1,1,1000,1000
1778515992.89938617,111082216,1,0.0016631420003250241,0.0017254790291190147,0.0016134229954332113,0.001136107137426734,-6.858106644358486e-05,-9.817357063293457,0,0,31.100692749023438,1,1,760,800
1778515992.93937016,111122200,0,0.0015368139138445258,0.0015563123160973191,0.0015104804188013077,-0.0014668199000880122,0.0003235906478948891,-9.81706428527832,0,0,31.102500915527344,1,1,1000,1000
1778515992.93937016,111122200,1,0.0015482432208955288,0.0015441194409504533,0.001603218843229115,-0.002927290042862296,-0.0032298420555889606,-9.816325187683105,0,0,31.10254669189453,1,1,760,800
1778515992.97935414,111162184,0,0.0016284271841868758,0.0015752019826322794,0.0015763257397338748,-0.0018065847689285874,-0.0006002577138133347,-9.817537307739258,0,0,31.104354858398438,1,1,1000,1000
1778515992.97935414,111162184,1,0.0015794211067259312,0.0015171890845522285,0.0014892261242493987,0.0001605022989679128,-0.0024916280526667833,-9.817660331726074,0,0,31.104400634765625,1,1,760,800
1778515993.01933813,111202168,0,0.001607992802746594,0.0015719454968348145,0.001576139242388308,-0.0008643673500046134,-0.001389367738738656,-9.817245483398438,0,0,31.106204986572266,1,1,1000,1000
1778515993.01933813,111202168,1,0.0016686419257894158,0.0015721293166279793,0.0016765441978350282,-0.000857210427056998,-0.0007370320963673294,-9.818014144897461,0,0,31.106252670288086,1,1,760,800
1778515993.05932212,111242152,0,0.0015835429076105356,0.0015630549751222134,0.0016249024774879217,-0.0005230808164924383,-0.0020002331584692,-9.81781005859375,0,0,31.10805892944336,1,1,1000,1000
1778515993.05932212,111242152,1,0.0017822438385337591,0.0016112461453303695,0.0016665973234921694,-0.0002839397347997874,-0.002601098269224167,-9.817346572875977,0,0,31.108104705810547,1,1,760,800
1778515993.09930611,111282136,0,0.0015803128480911255,0.0015857364051043987,0.0015904041938483715,-0.0015642608050256968,-0.0009629904525354505,-9.815766334533691,0,0,31.109909057617188,1,1,1000,1000
1778515993.09930611,111282136,1,0.0016357381828129292,0.0015472023515030742,0.001410079188644886,0.0008263766649179161,-0.0033832762856036425,-9.81483268737793,0,0,31.109956741333008,1,1,760,800
1778515993.13929009,111322120,0,0.00150877155829221,0.0015246291877701879,0.0016255881637334824,-0.000475142034702003,-0.0018951265374198556,-9.816507339477539,0,0,31.11176300048828,1,1,1000,1000
1778515993.13929009,111322120,1,0.0015709407161921263,0.001543491380289197,0.0016517575131729245,-0.0017707973020151258,-0.0008752179564908147,-9.817724227905273,0,0,31.11180877685547,1,1,760,800
1778515993.17927408,111362104,0,0.001560815842822194,0.0016035427106544375,0.0016047724056988955,-3.297566217952408e-05,0.00015795508807059377,-9.858839988708496,0,0,31.11361312866211,1,1,1000,1000
1778515993.17927408,111362104,1,0.0016269625630229712,0.00164566352032125,0.0015484706964343786,0.00043466518400236964,0.0011660442687571049,-9.854736328125,0,0,31.11366081237793,1,1,760,800
