timestamp,TimeUS,I,Status,GMS,GWk,NSats,HDop,Lat,Lng,Alt,Spd,GCrs,VZ,Yaw,U
1778515987.20000005,105382830,0,6,144805200,2418,10,1.21,-35.3632621,149.1652374,584.09,0.0,0.0,0.0,0.0,1
1778515987.39992023,105582750,0,6,144805400,2418,10,1.21,-35.3632621,149.1652374,584.09,0.0,0.0,0.0,0.0,1
1778515987.59984016,105782670,0,6,144805600,2418,10,1.21,-35.3632621,149.1652374,584.09,0.0,0.0,0.0,0.0,1
1778515987.79976010,105982590,0,6,144805800,2418,10,1.21,-35.3632621,149.1652374,584.09,0.0,0.0,0.0,0.0,1
1778515987.99968004,106182510,0,6,144806000,2418,10,1.21,-35.3632621,149.1652374,584.09,0.0,0.0,0.0,0.0,1
1778515988.19960022,106382430,0,6,144806200,2418,10,1.21,-35.3632621,149.1652374,584.09,0.0,0.0,0.0,0.0,1
1778515988.39952016,106582350,0,6,144806400,2418,10,1.21,-35.3632621,149.1652374,584.09,0.0,0.0,0.0,0.0,1
1778515988.59944010,106782270,0,6,144806600,2418,10,1.21,-35.3632621,149.1652374,584.09,0.0,0.0,0.0,0.0,1
1778515988.79936004,106982190,0,6,144806800,2418,10,1.21,-35.3632621,149.1652374,584.09,0.0,0.0,0.0,0.0,1
1778515988.99928021,107182110,0,6,144807000,2418,10,1.21,-35.3632621,149.1652374,584.09,0.0,0.0,0.0,0.0,1
1778515989.19920015,107382030,0,6,144807200,2418,10,1.21,-35.3632621,149.1652374,584.09,0.0,0.0,0.0,0.0,1
1778515989.39995313,107582783,0,6,144807400,2418,10,1.21,-35.3632621,149.1652374,584.09,0.0,0.0,0.0,0.0,1
1778515989.59987307,107782703,0,6,144807600,2418,10,1.21,-35.3632621,149.1652374,584.09,0.0,0.0,0.0,0.0,1
1778515989.79979324,107982623,0,6,144807800,2418,10,1.21,-35.3632621,149.1652374,584.09,0.0,0.0,0.0,0.0,1
1778515989.99971318,108182543,0,6,144808000,2418,10,1.21,-35.3632621,149.1652374,584.09,0.0,0.0,0.0,0.0,1
1778515990.19963312,108382463,0,6,144808200,2418,10,1.21,-35.3632621,149.1652374,584.09,0.0,0.0,0.0,0.0,1
1778515990.39955306,108582383,0,6,144808400,2418,10,1.21,-35.3632621,149.1652374,584.09,0.0,0.0,0.0,0.0,1
1778515990.59947324,108782303,0,6,144808600,2418,10,1.21,-35.3632621,149.1652374,584.09,0.0,0.0,0.0,0.0,1
1778515990.79939318,108982223,0,6,144808800,2418,10,1.21,-35.3632621,149.1652374,584.09,0.0,0.0,0.0,0.0,1
1778515990.99931312,109182143,0,6,144809000,2418,10,1.21,-35.3632621,149.1652374,584.09,0.0,0.0,0.0,0.0,1
1778515991.19923306,109382063,0,6,144809200,2418,10,1.21,-35.3632621,149.1652374,584.09,0.0,0.0,0.0,0.0,1
1778515991.39998603,109582816,0,6,144809400,2418,10,1.21,-35.3632621,149.1652374,584.09,0.0,0.0,0.0,0.0,1
1778515991.59990621,109782736,0,6,144809600,2418,10,1.21,-35.3632621,149.1652374,584.09,0.0,0.0,0.0,0.0,1
1778515991.79982615,109982656,0,6,144809800,2418,10,1.21,-35.3632621,149.1652374,584.09,0.0,0.0,0.0,0.0,1
1778515991.99974608,110182576,0,6,144810000,2418,10,1.21,-35.3632621,149.1652374,584.09,0.0,0.0,0.0,0.0,1
1778515992.19966626,110382496,0,6,144810200,2418,10,1.21,-35.3632621,149.1652374,584.09,0.0,0.0,0.0,0.0,1
1778515992.39958620,110582416,0,6,144810400,2418,10,1.21,-35.3632621,149.1652374,584.09,0.0,0.0,0.0,0.0,1
1778515992.59950614,110782336,0,6,144810600,2418,10,1.21,-35.3632621,149.1652374,584.09,0.0,122.78553771972656,0.0,0.0,1
1778515992.79942608,110982256,0,6,144810800,2418,10,1.21,-35.3632621,149.1652374,584.09,0.0,123.3831787109375,0.0,0.0,1
1778515992.99934626,111182176,0,6,144811000,2418,10,1.21,-35.3632621,149.1652374,584.09,0.0,304.5248107910156,0.0,0.0,1
1778515993.19926620,111382096,0,6,144811200,2418,10,1.21,-35.3632621,149.1652374,584.09,0.0,305.68853759765625,-0.003000000026077032,0.0,1
1778515993.40001917,111582849,0,6,144811400,2418,10,1.21,-35.3632621,149.1652374,584.1,0.0,304.7115783691406,-0.0650000050663948,0.0,1
1778515993.59993911,111782769,0,6,144811600,2418,10,1.21,-35.3632621,149.1652374,584.12,0.0,307.1557312011719,-0.1770000010728836,0.0,1
1778515993.79985905,111982689,0,6,144811800,2418,10,1.21,-35.3632621,149.1652374,584.17,0.0,306.80035400390625,-0.2880000174045563,0.0,1
1778515993.99977922,112182609,0,6,144812000,2418,10,1.21,-35.3632621,149.1652374,584.26,0.0020000000949949026,306.2454833984375,-0.7120000123977661,0.0,1
1778515994.19969916,112382529,0,6,144812200,2418,10,1.21,-35.3632621,149.1652374,584.45,0.01100000087171793,306.3905029296875,-1.1500000953674316,0.0,1
1778515994.39961910,112582449,0,6,144812400,2418,10,1.21,-35.3632621,149.1652374,584.69,0.02500000037252903,306.5312805175781,-1.193000078201294,0.0,1
1778515994.59953904,112782369,0,6,144812600,2418,10,1.21,-35.3632621,149.1652373,584.93,0.03800000250339508,306.6905212402344,-1.2370001077651978,0.0,1
1778515994.79945922,112982289,0,6,144812800,2418,10,1.21,-35.363262,149.1652372,585.2,0.0430000014603138,306.9865417480469,-1.4110000133514404,0.0,1
1778515994.99937916,113182209,0,6,144813000,2418,10,1.21,-35.363262,149.1652372,585.5,0.04100000113248825,307.49029541015625,-1.6090000867843628,0.0,1
1778515995.19929910,113382129,0,6,144813200,2418,10,1.21,-35.3632619,149.1652371,585.83,0.03500000014901161,308.35992431640625,-1.8090001344680786,0.0,1
1778515995.39921904,113582049,0,6,144813400,2418,10,1.21,-35.3632619,149.165237,586.22,0.027000000700354576,309.86688232421875,-2.0160000324249268,0.0,1
1778515995.59997225,113782802,0,6,144813600,2418,10,1.21,-35.3632619,149.165237,586.65,0.020000001415610313,312.3847351074219,-2.2220001220703125,0.0,1
1778515995.79989219,113982722,0,6,144813800,2418,10,1.21,-35.3632619,149.165237,587.11,0.013000000268220901,316.60345458984375,-2.390000104904175,0.0,1
1778515995.99981213,114182642,0,6,144814000,2418,10,1.21,-35.3632618,149.165237,587.6,0.007000000216066837,322.65545654296875,-2.4850001335144043,0.0,1
1778515996.19973207,114382562,0,6,144814200,2418,10,1.21,-35.3632617,149.165237,588.1,0.004000000189989805,332.901123046875,-2.5200002193450928,0.0,1
1778515996.39965224,114582482,0,6,144814400,2418,10,1.21,-35.3632617,149.165237,588.6,0.0010000000474974513,7.345860004425049,-2.5230000019073486,0.0,1
1778515996.59957218,114782402,0,6,144814600,2418,10,1.21,-35.3632617,149.165237,589.11,0.0010000000474974513,89.24039459228516,-2.510000228881836,0.0,1
1778515996.79949212,114982322,0,6,144814800,2418,10,1.21,-35.3632617,149.165237,589.61,0.0020000000949949026,125.25366973876953,-2.494000196456909,0.0,1
1778515996.99941206,115182242,0,6,144815000,2418,10,1.21,-35.3632617,149.165237,590.11,0.004000000189989805,144.99571228027344,-2.4790000915527344,0.0,1
1778515997.19933224,115382162,0,6,144815200,2418,10,1.21,-35.3632617,149.165237,590.6,0.007000000216066837,153.88101196289062,-2.4690001010894775,0.0,1
1778515997.39925218,115582082,0,6,144815400,2418,10,1.21,-35.3632617,149.165237,591.09,0.010000000707805157,156.1112823486328,-2.4640002250671387,0.0,1
1778515997.60000515,115782835,0,6,144815600,2418,10,1.21,-35.3632617,149.165237,591.58,0.014000000432133675,155.72154235839844,-2.4630000591278076,0.0,1
1778515997.79992509,115982755,0,6,144815800,2418,10,1.21,-35.3632617,149.165237,592.08,0.017000000923871994,154.84490966796875,-2.4640002250671387,0.0,1
1778515997.99984503,116182675,0,6,144816000,2418,10,1.21,-35.3632618,149.165237,592.57,0.020000001415610313,153.65811157226562,-2.4670000076293945,0.0,1
1778515998.19976521,116382595,0,6,144816200,2418,10,1.21,-35.3632619,149.165237,593.06,0.023000001907348633,151.08775329589844,-2.4710001945495605,0.0,1
1778515998.39968514,116582515,0,6,144816400,2418,10,1.21,-35.3632619,149.165237,593.56,0.024000000208616257,147.15109252929688,-2.4750001430511475,0.0,1
1778515998.59960508,116782435,0,6,144816600,2418,10,1.21,-35.3632619,149.165237,594.05,0.02500000037252903,142.66197204589844,-2.4770002365112305,0.0,1
1778515998.79952526,116982355,0,6,144816800,2418,10,1.21,-35.363262,149.165237,594.55,0.024000000208616257,137.75888061523438,-2.4790000915527344,0.0,1
1778515998.99944520,117182275,0,6,144817000,2418,10,1.21,-35.363262,149.165237,595.05,0.023000001907348633,132.5387420654297,-2.4790000915527344,0.0,1
1778515999.19936514,117382195,0,6,144817200,2418,10,1.21,-35.363262,149.1652371,595.54,0.02200000174343586,127.07564544677734,-2.4660000801086426,0.0,1
1778515999.39928508,117582115,0,6,144817400,2418,10,1.21,-35.3632621,149.1652372,596.03,0.020000001415610313,121.31730651855469,-2.3980000019073486,0.0,1
1778515999.59920526,117782035,0,6,144817600,2418,10,1.21,-35.3632621,149.1652372,596.5,0.01900000125169754,115.59855651855469,-2.257000207901001,0.0,1
1778515999.79995823,117982788,0,6,144817800,2418,10,1.21,-35.3632621,149.1652372,596.93,0.017000000923871994,110.45922088623047,-2.070000171661377,0.0,1
1778515999.99987817,118182708,0,6,144818000,2418,10,1.21,-35.3632621,149.1652373,597.32,0.015000000596046448,105.56217956542969,-1.8580000400543213,0.0,1
1778516000.19979811,118382628,0,6,144818200,2418,10,1.21,-35.3632621,149.1652373,597.67,0.013000000268220901,100.24150085449219,-1.6380001306533813,0.0,1
1778516000.39971805,118582548,0,6,144818400,2418,10,1.21,-35.3632621,149.1652374,597.98,0.01100000087171793,93.8005142211914,-1.4190000295639038,0.0,1
1778516000.59963822,118782468,0,6,144818600,2418,10,1.21,-35.3632621,149.1652374,598.24,0.009000000543892384,85.79573059082031,-1.2040001153945923,0.0,1
1778516000.79955816,118982388,0,6,144818800,2418,10,1.21,-35.3632621,149.1652374,598.45,0.007000000216066837,74.01517486572266,-0.9960000514984131,0.0,1
1778516000.99947810,119182308,0,6,144819000,2418,10,1.21,-35.3632621,149.1652374,598.64,0.005000000353902578,54.378177642822266,-0.7920000553131104,0.0,1
1778516001.19939804,119382228,0,6,144819200,2418,10,1.21,-35.3632621,149.1652374,598.78,0.004000000189989805,28.108638763427734,-0.593000054359436,0.0,1
1778516001.39931822,119582148,0,6,144819400,2418,10,1.21,-35.3632621,149.1652374,598.88,0.003000000026077032,357.6000061035156,-0.398000031709671,0.0,1
1778516001.59923816,119782068,0,6,144819600,2418,10,1.21,-35.3632621,149.1652374,598.94,0.004000000189989805,332.29742431640625,-0.20600001513957977,0.0,1
1778516001.79999113,119982821,0,6,144819800,2418,10,1.21,-35.3632621,149.1652374,598.96,0.006000000052154064,318.6407470703125,-0.05000000074505806,0.0,1
1778516001.99991107,120182741,0,6,144820000,2418,10,1.21,-35.3632621,149.1652374,598.96,0.00800000037997961,311.508544921875,0.03100000135600567,0.0,1
1778516002.19983125,120382661,0,6,144820200,2418,10,1.21,-35.3632621,149.1652374,598.95,0.010000000707805157,308.2124938964844,0.05300000309944153,0.0,1
1778516002.39975119,120582581,0,6,144820400,2418,10,1.21,-35.3632621,149.1652374,598.94,0.012000000104308128,306.77142333984375,0.0430000014603138,0.0,1
1778516002.59967113,120782501,0,6,144820600,2418,10,1.21,-35.3632621,149.1652374,598.94,0.014000000432133675,306.1651306152344,0.01900000125169754,0.0,1
1778516002.79959106,120982421,0,6,144820800,2418,10,1.21,-35.3632621,149.1652374,598.94,0.01600000075995922,306.49542236328125,-0.006000000052154064,0.0,1
1778516002.99951124,121182341,0,6,144821000,2418,10,1.21,-35.3632621,149.1652374,598.94,0.018000001087784767,307.7560119628906,-0.026000000536441803,0.0,1
1778516003.19943118,121382261,0,6,144821200,2418,10,1.21,-35.3632621,149.1652373,598.94,0.01900000125169754,308.7069091796875,-0.04000000283122063,0.0,1
1778516003.39935112,121582181,0,6,144821400,2418,10,1.21,-35.363262,149.1652373,598.95,0.021000001579523087,309.0020751953125,-0.04800000041723251,0.0,1
1778516003.59927106,121782101,0,6,144821600,2418,10,1.21,-35.363262,149.1652373,598.96,0.02200000174343586,309.3159484863281,-0.05000000074505806,0.0,1
1778516003.80002403,121982854,0,6,144821800,2418,10,1.21,-35.363262,149.1652372,598.97,0.02200000174343586,309.258544921875,-0.04800000041723251,0.0,1
1778516003.99994421,122182774,0,6,144822000,2418,10,1.21,-35.363262,149.1652372,598.98,0.021000001579523087,309.0970458984375,-0.0430000014603138,0.0,1
1778516004.19986415,122382694,0,6,144822200,2418,10,1.21,-35.3632619,149.1652372,598.99,0.020000001415610313,309.8272705078125,-0.036000002175569534,0.0,1
1778516004.39978409,122582614,0,6,144822400,2418,10,1.21,-35.3632619,149.1652371,599.0,0.018000001087784767,311.1558532714844,-0.030000001192092896,0.0,1
1778516004.59970403,122782534,0,6,144822600,2418,10,1.21,-35.3632619,149.165237,599.0,0.017000000923871994,312.0690612792969,-0.026000000536441803,0.0,1
1778516004.79962420,122982454,0,6,144822800,2418,10,1.21,-35.3632619,149.165237,599.01,0.015000000596046448,311.96551513671875,-0.024000000208616257,0.0,1
1778516004.99954414,123182374,0,6,144823000,2418,10,1.21,-35.3632619,149.165237,599.01,0.013000000268220901,311.1138610839844,-0.023000001907348633,0.0,1
1778516005.19946408,123382294,0,6,144823200,2418,10,1.21,-35.3632619,149.165237,599.02,0.01100000087171793,310.1304016113281,-0.021000001579523087,0.0,1
1778516005.39938426,123582214,0,6,144823400,2418,10,1.21,-35.3632618,149.165237,599.02,0.00800000037997961,310.58148193359375,-0.020000001415610313,0.0,1
1778516005.59930420,123782134,0,6,144823600,2418,10,1.21,-35.3632617,149.165237,599.03,0.006000000052154064,314.6251220703125,-0.018000001087784767,0.0,1
1778516005.79922414,123982054,0,6,144823800,2418,10,1.21,-35.3632617,149.165237,599.03,0.005000000353902578,322.5482177734375,-0.01600000075995922,0.0,1
1778516005.99997711,124182807,0,6,144824000,2418,10,1.21,-35.3632617,149.165237,599.03,0.003000000026077032,332.1257019042969,-0.015000000596046448,0.0,1
1778516006.19989705,124382727,0,6,144824200,2418,10,1.21,-35.3632617,149.165237,599.04,0.0010000000474974513,339.5673522949219,-0.015000000596046448,0.0,1
1778516006.39981723,124582647,0,6,144824400,2418,10,1.21,-35.3632617,149.165237,599.04,0.0,184.40467834472656,-0.015000000596046448,0.0,1
1778516006.59973717,124782567,0,6,144824600,2418,10,1.21,-35.3632617,149.165237,599.04,0.0020000000949949026,173.6318817138672,-0.015000000596046448,0.0,1
1778516006.79965711,124982487,0,6,144824800,2418,10,1.21,-35.3632617,149.165237,599.05,0.005000000353902578,171.38726806640625,-0.014000000432133675,0.0,1
1778516006.99957705,125182407,0,6,144825000,2418,10,1.21,-35.3632617,149.165237,599.05,0.00800000037997961,171.0358428955078,-0.013000000268220901,0.0,1
1778516007.19949722,125382327,0,6,144825200,2418,10,1.21,-35.3632617,149.165237,599.05,0.009000000543892384,170.9386749267578,-0.012000000104308128,0.0,1
1778516007.39941716,125582247,0,6,144825400,2418,10,1.21,-35.3632617,149.165237,599.05,0.010000000707805157,170.24964904785156,-0.01100000087171793,0.0,1
1778516007.59933710,125782167,0,6,144825600,2418,10,1.21,-35.3632617,149.165237,599.06,0.01100000087171793,169.76718139648438,-0.010000000707805157,0.0,1
1778516007.79925704,125982087,0,6,144825800,2418,10,1.21,-35.3632617,149.165237,599.06,0.01100000087171793,169.37796020507812,-0.010000000707805157,0.0,1
1778516008.00001025,126182840,0,6,144826000,2418,10,1.21,-35.3632618,149.165237,599.06,0.01100000087171793,167.6453399658203,-0.010000000707805157,0.0,1
1778516008.19993019,126382760,0,6,144826200,2418,10,1.21,-35.3632619,149.165237,599.06,0.01100000087171793,164.58724975585938,-0.010000000707805157,0.0,1
1778516008.39985013,126582680,0,6,144826400,2418,10,1.21,-35.3632619,149.165237,599.06,0.01100000087171793,161.25624084472656,-0.009000000543892384,0.0,1
1778516008.59977007,126782600,0,6,144826600,2418,10,1.21,-35.3632619,149.165237,599.07,0.010000000707805157,157.67764282226562,-0.00800000037997961,0.0,1
1778516008.79969025,126982520,0,6,144826800,2418,10,1.21,-35.3632619,149.165237,599.07,0.010000000707805157,153.45433044433594,-0.007000000216066837,0.0,1
1778516008.99961019,127182440,0,6,144827000,2418,10,1.21,-35.3632619,149.165237,599.07,0.009000000543892384,148.5814208984375,-0.007000000216066837,0.0,1
1778516009.19953012,127382360,0,6,144827200,2418,10,1.21,-35.3632619,149.165237,599.07,0.007000000216066837,141.82150268554688,-0.007000000216066837,0.0,1
1778516009.39945006,127582280,0,6,144827400,2418,10,1.21,-35.363262,149.165237,599.07,0.006000000052154064,127.77952575683594,-0.007000000216066837,0.0,1
1778516009.59937024,127782200,0,6,144827600,2418,10,1.21,-35.363262,149.165237,599.07,0.005000000353902578,108.97456359863281,-0.007000000216066837,0.0,1
1778516009.79929018,127982120,0,6,144827800,2418,10,1.21,-35.363262,149.165237,599.08,0.006000000052154064,96.82383728027344,-0.006000000052154064,0.0,1
1778516009.99921012,128182040,0,6,144828000,2418,10,1.21,-35.363262,149.165237,599.08,0.006000000052154064,89.06939697265625,-0.006000000052154064,0.0,1
1778516010.19996309,128382793,0,6,144828200,2418,10,1.21,-35.363262,149.165237,599.08,0.006000000052154064,80.71783447265625,-0.005000000353902578,0.0,1
1778516010.39988303,128582713,0,6,144828400,2418,10,1.21,-35.363262,149.165237,599.08,0.007000000216066837,72.75740051269531,-0.005000000353902578,0.0,1
1778516010.59980321,128782633,0,6,144828600,2418,10,1.21,-35.363262,149.165237,599.08,0.007000000216066837,67.9221420288086,-0.004000000189989805,0.0,1
1778516010.79972315,128982553,0,6,144828800,2418,10,1.21,-35.363262,149.165237,599.08,0.00800000037997961,66.07290649414062,-0.004000000189989805,0.0,1
1778516010.99964309,129182473,0,6,144829000,2418,10,1.21,-35.363262,149.165237,599.08,0.00800000037997961,66.26091766357422,-0.004000000189989805,0.0,1
1778516011.19956303,129382393,0,6,144829200,2418,10,1.21,-35.363262,149.165237,599.08,0.009000000543892384,66.63743591308594,-0.004000000189989805,0.0,1
1778516011.39948320,129582313,0,6,144829400,2418,10,1.21,-35.363262,149.165237,599.08,0.009000000543892384,66.16925811767578,-0.004000000189989805,0.0,1
1778516011.59940314,129782233,0,6,144829600,2418,10,1.21,-35.363262,149.1652371,599.09,0.009000000543892384,65.24578094482422,-0.004000000189989805,0.0,1
1778516011.79932308,129982153,0,6,144829800,2418,10,1.21,-35.363262,149.1652372,599.09,0.010000000707805157,64.58724212646484,-0.003000000026077032,0.0,1
1778516011.99924326,130182073,0,6,144830000,2418,10,1.21,-35.363262,149.1652372,599.09,0.010000000707805157,63.12873840332031,-0.003000000026077032,0.0,1
1778516012.19999623,130382826,0,6,144830200,2418,10,1.21,-35.363262,149.1652372,599.09,0.009000000543892384,60.47889709472656,-0.0020000000949949026,0.0,1
1778516012.39991617,130582746,0,6,144830400,2418,10,1.21,-35.363262,149.1652372,599.09,0.009000000543892384,58.0295295715332,-0.0020000000949949026,0.0,1
1778516012.59983611,130782666,0,6,144830600,2418,10,1.21,-35.363262,149.1652372,599.09,0.007000000216066837,55.10730743408203,-0.0010000000474974513,0.0,1
1778516012.79975605,130982586,0,6,144830800,2418,10,1.21,-35.363262,149.1652373,599.09,0.006000000052154064,50.78785705566406,-0.0010000000474974513,0.0,1
1778516012.99967623,131182506,0,6,144831000,2418,10,1.21,-35.363262,149.1652373,599.09,0.004000000189989805,43.49126052856445,-0.0010000000474974513,0.0,1
1778516013.19959617,131382426,0,6,144831200,2418,10,1.21,-35.363262,149.1652373,599.09,0.003000000026077032,27.803619384765625,-0.0010000000474974513,0.0,1
1778516013.39951611,131582346,0,6,144831400,2418,10,1.21,-35.363262,149.1652373,599.09,0.003000000026077032,3.63349986076355,-0.0010000000474974513,0.0,1
1778516013.59943604,131782266,0,6,144831600,2418,10,1.21,-35.3632619,149.1652373,599.09,0.004000000189989805,344.5924072265625,-0.0010000000474974513,0.0,1
1778516013.79935622,131982186,0,6,144831800,2418,10,1.21,-35.3632619,149.1652373,599.09,0.004000000189989805,332.0670166015625,0.0,0.0,1
1778516013.99927616,132182106,0,6,144832000,2418,10,1.21,-35.3632619,149.1652373,599.09,0.005000000353902578,320.99169921875,0.0,0.0,1
1778516014.20002913,132382859,0,6,144832200,2418,10,1.21,-35.3632619,149.1652373,599.09,0.004000000189989805,307.941650390625,0.0,0.0,1
1778516014.39994907,132582779,0,6,144832400,2418,10,1.21,-35.3632619,149.1652373,599.09,0.004000000189989805,292.1643981933594,0.0,0.0,1
1778516014.59986925,132782699,0,6,144832600,2418,10,1.21,-35.3632619,149.1652373,599.09,0.004000000189989805,277.5721740722656,0.0,0.0,1
1778516014.79978919,132982619,0,6,144832800,2418,10,1.21,-35.3632619,149.1652373,599.09,0.004000000189989805,267.37738037109375,0.0,0.0,1
1778516014.99970913,133182539,0,6,144833000,2418,10,1.21,-35.3632619,149.1652373,599.09,0.004000000189989805,259.1033630371094,0.0,0.0,1
1778516015.19962907,133382459,0,6,144833200,2418,10,1.21,-35.3632619,149.1652373,599.09,0.005000000353902578,250.32998657226562,0.0,0.0,1
1778516015.39954925,133582379,0,6,144833400,2418,10,1.21,-35.3632619,149.1652373,599.09,0.005000000353902578,240.0010528564453,0.0,0.0,1
1778516015.59946918,133782299,0,6,144833600,2418,10,1.21,-35.3632619,149.1652373,599.09,0.005000000353902578,231.34437561035156,0.009000000543892384,0.0,1
1778516015.79938912,133982219,0,6,144833800,2418,10,1.21,-35.3632619,149.1652373,599.08,0.005000000353902578,226.19195556640625,0.09300000220537186,0.0,1
1778516015.99930906,134182139,0,6,144834000,2418,10,1.21,-35.3632619,149.1652373,599.04,0.004000000189989805,223.35067749023438,0.26600000262260437,0.0,1
1778516016.19922924,134382059,0,6,144834200,2418,10,1.21,-35.3632619,149.1652373,598.97,0.004000000189989805,222.48504638671875,0.4790000319480896,0.0,1
1778516016.39998221,134582812,0,6,144834400,2418,10,1.21,-35.3632619,149.1652373,598.85,0.004000000189989805,220.1045379638672,0.703000009059906,0.0,1
1778516016.59990215,134782732,0,6,144834600,2418,10,1.21,-35.3632619,149.1652372,598.69,0.004000000189989805,213.0206756591797,0.9280000329017639,0.0,1
1778516016.79982209,134982652,0,6,144834800,2418,10,1.21,-35.3632619,149.1652372,598.48,0.005000000353902578,205.3097381591797,1.1480000019073486,0.0,1
1778516016.99974203,135182572,0,6,144835000,2418,10,1.21,-35.3632619,149.1652372,598.23,0.005000000353902578,198.3168182373047,1.352000117301941,0.0,1
1778516017.19966221,135382492,0,6,144835200,2418,10,1.21,-35.3632619,149.1652372,597.94,0.005000000353902578,190.3365478515625,1.4970000982284546,0.0,1
1778516017.39958215,135582412,0,6,144835400,2418,10,1.21,-35.3632619,149.1652372,597.64,0.005000000353902578,181.42184448242188,1.561000108718872,0.0,1
1778516017.59950209,135782332,0,6,144835600,2418,10,1.21,-35.3632619,149.1652372,597.32,0.005000000353902578,173.287109375,1.5720000267028809,0.0,1
1778516017.79942203,135982252,0,6,144835800,2418,10,1.21,-35.3632619,149.1652372,597.01,0.005000000353902578,168.53732299804688,1.5560001134872437,0.0,1
1778516017.99934220,136182172,0,6,144836000,2418,10,1.21,-35.3632619,149.1652372,596.7,0.005000000353902578,167.16873168945312,1.531000018119812,0.0,1
1778516018.19926214,136382092,0,6,144836200,2418,10,1.21,-35.3632619,149.1652372,596.4,0.004000000189989805,165.42404174804688,1.50600004196167,0.0,1
1778516018.40001512,136582845,0,6,144836400,2418,10,1.21,-35.3632619,149.1652372,596.1,0.004000000189989805,160.86758422851562,1.4870001077651978,0.0,1
1778516018.59993505,136782765,0,6,144836600,2418,10,1.21,-35.3632619,149.1652372,595.8,0.004000000189989805,154.76852416992188,1.4730000495910645,0.0,1
1778516018.79985523,136982685,0,6,144836800,2418,10,1.21,-35.363262,149.1652372,595.51,0.004000000189989805,151.32861328125,1.4310001134872437,0.0,1
1778516018.99977517,137182605,0,6,144837000,2418,10,1.21,-35.363262,149.1652372,595.24,0.004000000189989805,152.92648315429688,1.3130000829696655,0.0,1
1778516019.19969511,137382525,0,6,144837200,2418,10,1.21,-35.363262,149.1652372,594.99,0.004000000189989805,157.85028076171875,1.13100004196167,0.0,1
1778516019.39961505,137582445,0,6,144837400,2418,10,1.21,-35.363262,149.1652372,594.78,0.003000000026077032,163.32260131835938,0.9180000424385071,0.0,1
1778516019.59953523,137782365,0,6,144837600,2418,10,1.21,-35.363262,149.1652372,594.62,0.0020000000949949026,170.96249389648438,0.7020000219345093,0.0,1
1778516019.79945517,137982285,0,6,144837800,2418,10,1.21,-35.363262,149.1652372,594.5,0.0,200.4842071533203,0.5300000309944153,0.0,1
1778516019.99937510,138182205,0,6,144838000,2418,10,1.21,-35.363262,149.1652372,594.4,0.0,317.8209533691406,0.4390000104904175,0.0,1
1778516020.19929504,138382125,0,6,144838200,2418,10,1.21,-35.363262,149.1652372,594.32,0.0010000000474974513,343.56890869140625,0.4090000092983246,0.0,1
1778516020.39921522,138582045,0,6,144838400,2418,10,1.21,-35.363262,149.1652372,594.24,0.0020000000949949026,359.4237365722656,0.4130000174045563,0.0,1
1778516020.59996819,138782798,0,6,144838600,2418,10,1.21,-35.363262,149.1652372,594.15,0.0020000000949949026,15.909489631652832,0.43300002813339233,0.0,1
1778516020.79988813,138982718,0,6,144838800,2418,10,1.21,-35.363262,149.1652372,594.06,0.003000000026077032,33.88969802856445,0.4570000171661377,0.0,1
1778516020.99980807,139182638,0,6,144839000,2418,10,1.21,-35.363262,149.1652372,593.97,0.003000000026077032,47.30215835571289,0.4780000150203705,0.0,1
1778516021.19972825,139382558,0,6,144839200,2418,10,1.21,-35.363262,149.1652372,593.88,0.003000000026077032,55.97945785522461,0.49500003457069397,0.0,1
1778516021.39964819,139582478,0,6,144839400,2418,10,1.21,-35.363262,149.1652372,593.78,0.003000000026077032,64.36181640625,0.5049999952316284,0.0,1
1778516021.59956813,139782398,0,6,144839600,2418,10,1.21,-35.363262,149.1652372,593.67,0.003000000026077032,68.31486511230469,0.5100000500679016,0.0,1
1778516021.79948807,139982318,0,6,144839800,2418,10,1.21,-35.363262,149.1652372,593.57,0.004000000189989805,67.42803192138672,0.5120000243186951,0.0,1
1778516021.99940825,140182238,0,6,144840000,2418,10,1.21,-35.363262,149.1652372,593.47,0.004000000189989805,65.20587921142578,0.5110000371932983,0.0,1
1778516022.19932818,140382158,0,6,144840200,2418,10,1.21,-35.363262,149.1652372,593.37,0.004000000189989805,66.64080047607422,0.5090000033378601,0.0,1
1778516022.39924812,140582078,0,6,144840400,2418,10,1.21,-35.363262,149.1652372,593.26,0.004000000189989805,75.64693450927734,0.5080000162124634,0.0,1
1778516022.60000110,140782831,0,6,144840600,2418,10,1.21,-35.363262,149.1652372,593.16,0.005000000353902578,87.42971801757812,0.5060000419616699,0.0,1
1778516022.79992104,140982751,0,6,144840800,2418,10,1.21,-35.363262,149.1652372,593.06,0.005000000353902578,93.78569030761719,0.5049999952316284,0.0,1
1778516022.99984121,141182671,0,6,144841000,2418,10,1.21,-35.363262,149.1652373,592.95,0.004000000189989805,91.84431457519531,0.5040000081062317,0.0,1
1778516023.19976115,141382591,0,6,144841200,2418,10,1.21,-35.363262,149.1652373,592.86,0.004000000189989805,79.89939880371094,0.503000020980835,0.0,1
1778516023.39968109,141582511,0,6,144841400,2418,10,1.21,-35.363262,149.1652373,592.76,0.003000000026077032,54.90176773071289,0.503000020980835,0.0,1
1778516023.59960103,141782431,0,6,144841600,2418,10,1.21,-35.363262,149.1652373,592.66,0.004000000189989805,31.075899124145508,0.503000020980835,0.0,1
1778516023.79952121,141982351,0,6,144841800,2418,10,1.21,-35.363262,149.1652373,592.56,0.005000000353902578,19.99156951904297,0.503000020980835,0.0,1
1778516023.99944115,142182271,0,6,144842000,2418,10,1.21,-35.363262,149.1652373,592.45,0.005000000353902578,14.555259704589844,0.503000020980835,0.0,1
1778516024.19936109,142382191,0,6,144842200,2418,10,1.21,-35.363262,149.1652373,592.36,0.004000000189989805,11.22033977508545,0.503000020980835,0.0,1
1778516024.39928102,142582111,0,6,144842400,2418,10,1.21,-35.363262,149.1652373,592.26,0.003000000026077032,8.718400001525879,0.503000020980835,0.0,1
1778516024.59920120,142782031,0,6,144842600,2418,10,1.21,-35.363262,149.1652373,592.16,0.0020000000949949026,3.4061098098754883,0.5040000081062317,0.0,1
1778516024.79995418,142982784,0,6,144842800,2418,10,1.21,-35.363262,149.1652373,592.05,0.0010000000474974513,357.92071533203125,0.5040000081062317,0.0,1
1778516024.99987411,143182704,0,6,144843000,2418,10,1.21,-35.363262,149.1652373,591.95,0.0010000000474974513,358.9873352050781,0.5040000081062317,0.0,1
1778516025.19979405,143382624,0,6,144843200,2418,10,1.21,-35.363262,149.1652373,591.85,0.0010000000474974513,4.091929912567139,0.5040000081062317,0.0,1
1778516025.39971423,143582544,0,6,144843400,2418,10,1.21,-35.363262,149.1652373,591.75,0.0010000000474974513,2.952929973602295,0.5040000081062317,0.0,1
1778516025.59963417,143782464,0,6,144843600,2418,10,1.21,-35.363262,149.1652373,591.65,0.0010000000474974513,346.6726379394531,0.503000020980835,0.0,1
1778516025.79955411,143982384,0,6,144843800,2418,10,1.21,-35.363262,149.1652373,591.55,0.0010000000474974513,328.8861999511719,0.503000020980835,0.0,1
1778516025.99947405,144182304,0,6,144844000,2418,10,1.21,-35.363262,149.1652373,591.45,0.0010000000474974513,318.51336669921875,0.5020000338554382,0.0,1
1778516026.19939423,144382224,0,6,144844200,2418,10,1.21,-35.363262,149.1652373,591.35,0.0010000000474974513,311.7893981933594,0.5020000338554382,0.0,1
1778516026.39931417,144582144,0,6,144844400,2418,10,1.21,-35.363262,149.1652373,591.25,0.0020000000949949026,311.93365478515625,0.5020000338554382,0.0,1
1778516026.59923410,144782064,0,6,144844600,2418,10,1.21,-35.363262,149.1652373,591.15,0.0020000000949949026,319.6584777832031,0.5020000338554382,0.0,1
1778516026.79998708,144982817,0,6,144844800,2418,10,1.21,-35.363262,149.1652373,591.05,0.0020000000949949026,329.67535400390625,0.5020000338554382,0.0,1
1778516026.99990726,145182737,0,6,144845000,2418,10,1.21,-35.363262,149.1652373,590.95,0.0020000000949949026,337.9788818359375,0.5020000338554382,0.0,1
1778516027.19982719,145382657,0,6,144845200,2418,10,1.21,-35.363262,149.1652373,590.85,0.0020000000949949026,345.64630126953125,0.5010000467300415,0.0,1
1778516027.39974713,145582577,0,6,144845400,2418,10,1.21,-35.363262,149.1652373,590.75,0.0020000000949949026,351.6025390625,0.5020000338554382,0.0,1
1778516027.59966707,145782497,0,6,144845600,2418,10,1.21,-35.3632619,149.1652373,590.65,0.0020000000949949026,352.5603332519531,0.5020000338554382,0.0,1
1778516027.79958725,145982417,0,6,144845800,2418,10,1.21,-35.3632619,149.1652373,590.55,0.0020000000949949026,347.9029846191406,0.5020000338554382,0.0,1
1778516027.99950719,146182337,0,6,144846000,2418,10,1.21,-35.3632619,149.1652373,590.45,0.0020000000949949026,338.958984375,0.5020000338554382,0.0,1
1778516028.19942713,146382257,0,6,144846200,2418,10,1.21,-35.3632619,149.1652373,590.34,0.0010000000474974513,323.3516845703125,0.503000020980835,0.0,1
1778516028.39934707,146582177,0,6,144846400,2418,10,1.21,-35.3632619,149.1652373,590.24,0.0010000000474974513,288.880126953125,0.503000020980835,0.0,1
1778516028.59926724,146782097,0,6,144846600,2418,10,1.21,-35.3632619,149.1652373,590.14,0.0010000000474974513,242.3318328857422,0.503000020980835,0.0,1
1778516028.80002022,146982850,0,6,144846800,2418,10,1.21,-35.3632619,149.1652373,590.04,0.0020000000949949026,217.3447265625,0.503000020980835,0.0,1
1778516028.99994016,147182770,0,6,144847000,2418,10,1.21,-35.3632619,149.1652373,589.94,0.003000000026077032,204.82131958007812,0.5020000338554382,0.0,1
1778516029.19986010,147382690,0,6,144847200,2418,10,1.21,-35.3632619,149.1652373,589.83,0.003000000026077032,196.14984130859375,0.5020000338554382,0.0,1
1778516029.39978004,147582610,0,6,144847400,2418,10,1.21,-35.3632619,149.1652373,589.74,0.004000000189989805,191.24620056152344,0.5020000338554382,0.0,1
1778516029.59970021,147782530,0,6,144847600,2418,10,1.21,-35.3632619,149.1652373,589.64,0.005000000353902578,191.1186981201172,0.5020000338554382,0.0,1
1778516029.79962015,147982450,0,6,144847800,2418,10,1.21,-35.3632619,149.1652373,589.54,0.005000000353902578,193.3716583251953,0.5020000338554382,0.0,1
1778516029.99954009,148182370,0,6,144848000,2418,10,1.21,-35.3632619,149.1652373,589.44,0.005000000353902578,195.29052734375,0.5020000338554382,0.0,1
1778516030.19946003,148382290,0,6,144848200,2418,10,1.21,-35.3632619,149.1652373,589.33,0.006000000052154064,196.286376953125,0.5010000467300415,0.0,1
1778516030.39938021,148582210,0,6,144848400,2418,10,1.21,-35.3632619,149.1652373,589.24,0.006000000052154064,196.368896484375,0.5010000467300415,0.0,1
1778516030.59930015,148782130,0,6,144848600,2418,10,1.21,-35.3632619,149.1652373,589.14,0.006000000052154064,195.99395751953125,0.5020000338554382,0.0,1
1778516030.79922009,148982050,0,6,144848800,2418,10,1.21,-35.3632619,149.1652373,589.04,0.005000000353902578,195.83680725097656,0.5020000338554382,0.0,1
1778516030.99997306,149182803,0,6,144849000,2418,10,1.21,-35.3632619,149.1652373,588.94,0.005000000353902578,195.9076385498047,0.5020000338554382,0.0,1
1778516031.19989324,149382723,0,6,144849200,2418,10,1.21,-35.3632619,149.1652373,588.83,0.005000000353902578,196.3184356689453,0.5010000467300415,0.0,1
1778516031.39981318,149582643,0,6,144849400,2418,10,1.21,-35.3632619,149.1652373,588.74,0.004000000189989805,196.89414978027344,0.5010000467300415,0.0,1
1778516031.59973311,149782563,0,6,144849600,2418,10,1.21,-35.363262,149.1652373,588.64,0.005000000353902578,196.23583984375,0.5010000467300415,0.0,1
1778516031.79965305,149982483,0,6,144849800,2418,10,1.21,-35.363262,149.1652373,588.54,0.005000000353902578,194.91903686523438,0.5010000467300415,0.0,1
1778516031.99957323,150182403,0,6,144850000,2418,10,1.21,-35.363262,149.1652373,588.44,0.005000000353902578,194.3498992919922,0.5010000467300415,0.0,1
1778516032.19949317,150382323,0,6,144850200,2418,10,1.21,-35.363262,149.1652373,588.33,0.005000000353902578,194.7337188720703,0.5010000467300415,0.0,1
1778516032.39941311,150582243,0,6,144850400,2418,10,1.21,-35.363262,149.1652373,588.24,0.004000000189989805,196.8610076904297,0.5010000467300415,0.0,1
1778516032.59933305,150782163,0,6,144850600,2418,10,1.21,-35.363262,149.1652373,588.13,0.003000000026077032,201.86448669433594,0.5010000467300415,0.0,1
1778516032.79925323,150982083,0,6,144850800,2418,10,1.21,-35.363262,149.1652373,588.03,0.0020000000949949026,211.637939453125,0.5020000338554382,0.0,1
1778516033.00000620,151182836,0,6,144851000,2418,10,1.21,-35.363262,149.1652373,587.93,0.0010000000474974513,231.7794189453125,0.5020000338554382,0.0,1
1778516033.19992614,151382756,0,6,144851200,2418,10,1.21,-35.363262,149.1652373,587.83,0.0010000000474974513,266.89984130859375,0.5010000467300415,0.0,1
1778516033.39984608,151582676,0,6,144851400,2418,10,1.21,-35.363262,149.1652373,587.73,0.0010000000474974513,296.1086120605469,0.5010000467300415,0.0,1
1778516033.59976625,151782596,0,6,144851600,2418,10,1.21,-35.363262,149.1652373,587.63,0.0010000000474974513,306.900634765625,0.5010000467300415,0.0,1
1778516033.79968619,151982516,0,6,144851800,2418,10,1.21,-35.363262,149.1652373,587.53,0.0010000000474974513,309.1061706542969,0.5010000467300415,0.0,1
1778516033.99960613,152182436,0,6,144852000,2418,10,1.21,-35.363262,149.1652373,587.43,0.0010000000474974513,309.3582763671875,0.5010000467300415,0.0,1
1778516034.19952607,152382356,0,6,144852200,2418,10,1.21,-35.363262,149.1652373,587.33,0.0010000000474974513,307.6244201660156,0.5010000467300415,0.0,1
1778516034.39944625,152582276,0,6,144852400,2418,10,1.21,-35.363262,149.1652373,587.23,0.0010000000474974513,305.5530700683594,0.5,0.0,1
1778516034.59936619,152782196,0,6,144852600,2418,10,1.21,-35.363262,149.1652373,587.13,0.0010000000474974513,305.4346923828125,0.5,0.0,1
1778516034.79928613,152982116,0,6,144852800,2418,10,1.21,-35.363262,149.1652373,587.03,0.0020000000949949026,306.8937683105469,0.5,0.0,1
1778516034.99920607,153182036,0,6,144853000,2418,10,1.21,-35.363262,149.1652373,586.93,0.0020000000949949026,309.0705261230469,0.5,0.0,1
1778516035.19995904,153382789,0,6,144853200,2418,10,1.21,-35.363262,149.1652373,586.83,0.0010000000474974513,312.3149108886719,0.5,0.0,1
1778516035.39987922,153582709,0,6,144853400,2418,10,1.21,-35.363262,149.1652373,586.73,0.0010000000474974513,319.51397705078125,0.5,0.0,1
1778516035.59979916,153782629,0,6,144853600,2418,10,1.21,-35.363262,149.1652373,586.63,0.0010000000474974513,329.73828125,0.5,0.0,1
1778516035.79971910,153982549,0,6,144853800,2418,10,1.21,-35.363262,149.1652373,586.53,0.0010000000474974513,335.6853942871094,0.5,0.0,1
1778516035.99963903,154182469,0,6,144854000,2418,10,1.21,-35.363262,149.1652373,586.43,0.0010000000474974513,335.6890869140625,0.49900001287460327,0.0,1
1778516036.19955921,154382389,0,6,144854200,2418,10,1.21,-35.363262,149.1652373,586.33,0.0010000000474974513,334.2432556152344,0.49900001287460327,0.0,1
1778516036.39947915,154582309,0,6,144854400,2418,10,1.21,-35.363262,149.1652373,586.23,0.0010000000474974513,333.6265563964844,0.49900001287460327,0.0,1
1778516036.59939909,154782229,0,6,144854600,2418,10,1.21,-35.363262,149.1652373,586.13,0.0010000000474974513,334.7804870605469,0.49900001287460327,0.0,1
1778516036.79931903,154982149,0,6,144854800,2418,10,1.21,-35.363262,149.1652373,586.03,0.0010000000474974513,335.2843322753906,0.49900001287460327,0.0,1
1778516036.99923921,155182069,0,6,144855000,2418,10,1.21,-35.363262,149.1652373,585.93,0.0010000000474974513,333.3567199707031,0.49900001287460327,0.0,1
1778516037.19999218,155382822,0,6,144855200,2418,10,1.21,-35.363262,149.1652372,585.83,0.0010000000474974513,331.385498046875,0.49900001287460327,0.0,1
1778516037.39991212,155582742,0,6,144855400,2418,10,1.21,-35.363262,149.1652372,585.73,0.0010000000474974513,330.60162353515625,0.49900001287460327,0.0,1
1778516037.59983206,155782662,0,6,144855600,2418,10,1.21,-35.363262,149.1652372,585.63,0.0010000000474974513,332.1139831542969,0.49900001287460327,0.0,1
1778516037.79975224,155982582,0,6,144855800,2418,10,1.21,-35.363262,149.1652372,585.53,0.0020000000949949026,338.4876403808594,0.49900001287460327,0.0,1
1778516037.99967217,156182502,0,6,144856000,2418,10,1.21,-35.363262,149.1652372,585.43,0.0020000000949949026,352.14697265625,0.49900001287460327,0.0,1
1778516038.19959211,156382422,0,6,144856200,2418,10,1.21,-35.363262,149.1652372,585.33,0.0020000000949949026,12.25924015045166,0.49900001287460327,0.0,1
1778516038.39951205,156582342,0,6,144856400,2418,10,1.21,-35.363262,149.1652372,585.23,0.0020000000949949026,32.4244384765625,0.5,0.0,1
1778516038.59943223,156782262,0,6,144856600,2418,10,1.21,-35.363262,149.1652372,585.13,0.003000000026077032,46.582828521728516,0.5,0.0,1
1778516038.79935217,156982182,0,6,144856800,2418,10,1.21,-35.363262,149.1652372,585.03,0.003000000026077032,55.612247467041016,0.5,0.0,1
1778516038.99927211,157182102,0,6,144857000,2418,10,1.21,-35.363262,149.1652372,584.93,0.004000000189989805,61.945377349853516,0.5,0.0,1
1778516039.20002508,157382855,0,6,144857200,2418,10,1.21,-35.363262,149.1652372,584.83,0.004000000189989805,66.12984466552734,0.5,0.0,1
1778516039.39994526,157582775,0,6,144857400,2418,10,1.21,-35.363262,149.1652372,584.73,0.005000000353902578,68.39472198486328,0.5,0.0,1
1778516039.59986520,157782695,0,6,144857600,2418,10,1.21,-35.363262,149.1652372,584.63,0.005000000353902578,70.0617904663086,0.5,0.0,1
1778516039.79978514,157982615,0,6,144857800,2418,10,1.21,-35.363262,149.1652372,584.53,0.005000000353902578,71.19961547851562,0.5,0.0,1
1778516039.99970508,158182535,0,6,144858000,2418,10,1.21,-35.363262,149.1652372,584.43,0.005000000353902578,71.06217956542969,0.5,0.0,1
1778516040.19962525,158382455,0,6,144858200,2418,10,1.21,-35.363262,149.1652372,584.33,0.005000000353902578,70.1161117553711,0.5,0.0,1
1778516040.39954519,158582375,0,6,144858400,2418,10,1.21,-35.363262,149.1652372,584.23,0.005000000353902578,68.83245086669922,0.5,0.0,1
1778516040.59946513,158782295,0,6,144858600,2418,10,1.21,-35.363262,149.1652372,584.13,0.004000000189989805,67.40570831298828,0.4270000159740448,0.0,1
1778516040.79938507,158982215,0,6,144858800,2418,10,1.21,-35.363262,149.1652373,584.08,0.0010000000474974513,66.43077087402344,0.10500000417232513,0.0,1
1778516040.99930525,159182135,0,6,144859000,2418,10,1.21,-35.363262,149.1652373,584.08,0.0,246.43063354492188,-0.08700000494718552,0.0,1
1778516041.19922519,159382055,0,6,144859200,2418,10,1.21,-35.363262,149.1652373,584.1,0.0,246.40982055664062,-0.003000000026077032,0.0,1
1778516041.39997816,159582808,0,6,144859400,2418,10,1.21,-35.363262,149.1652373,584.09,0.0,66.43743133544922,0.012000000104308128,0.0,1
1778516041.59989810,159782728,0,6,144859600,2418,10,1.21,-35.363262,149.1652373,584.09,0.0,245.71116638183594,0.0,0.0,1
1778516041.79981804,159982648,0,6,144859800,2418,10,1.21,-35.363262,149.1652373,584.1,0.0,245.865478515625,-0.0010000000474974513,0.0,1
1778516041.99973822,160182568,0,6,144860000,2418,10,1.21,-35.363262,149.1652373,584.1,0.0,67.26663208007812,0.0,0.0,1
1778516042.19965816,160382488,0,6,144860200,2418,10,1.21,-35.363262,149.1652373,584.1,0.0,66.90432739257812,0.0,0.0,1
1778516042.39957809,160582408,0,6,144860400,2418,10,1.21,-35.363262,149.1652373,584.1,0.0,259.9127197265625,0.0,0.0,1
1778516042.59949803,160782328,0,6,144860600,2418,10,1.21,-35.363262,149.1652373,584.1,0.0,296.7274475097656,0.0,0.0,1
1778516042.79941821,160982248,0,6,144860800,2418,10,1.21,-35.363262,149.1652373,584.1,0.0,13.909369468688965,0.0,0.0,1
1778516042.99933815,161182168,0,6,144861000,2418,10,1.21,-35.363262,149.1652373,584.1,0.0,303.3836975097656,0.0,0.0,1
1778516043.19925809,161382088,0,6,144861200,2418,10,1.21,-35.363262,149.1652373,584.1,0.0,234.3524169921875,0.0,0.0,1
1778516043.40001106,161582841,0,6,144861400,2418,10,1.21,-35.363262,149.1652373,584.1,0.0,117.94503784179688,0.0,0.0,1
1778516043.59993124,161782761,0,6,144861600,2418,10,1.21,-35.363262,149.1652373,584.1,0.0,354.44671630859375,0.0,0.0,1
1778516043.79985118,161982681,0,6,144861800,2418,10,1.21,-35.363262,149.1652373,584.1,0.0,292.4200439453125,0.0,0.0,1
1778516043.99977112,162182601,0,6,144862000,2418,10,1.21,-35.363262,149.1652373,584.1,0.0,145.01614379882812,0.0,0.0,1
1778516044.19969106,162382521,0,6,144862200,2418,10,1.21,-35.363262,149.1652373,584.1,0.0,105.50301361083984,0.0,0.0,1
1778516044.39961123,162582441,0,6,144862400,2418,10,1.21,-35.363262,149.1652373,584.1,0.0,312.617919921875,0.0,0.0,1
1778516044.59953117,162782361,0,6,144862600,2418,10,1.21,-35.363262,149.1652373,584.1,0.0,274.3616638183594,0.0,0.0,1
1778516044.79945111,162982281,0,6,144862800,2418,10,1.21,-35.363262,149.1652373,584.1,0.0,125.30259704589844,0.0,0.0,1
1778516044.99937105,163182201,0,6,144863000,2418,10,1.21,-35.363262,149.1652373,584.1,0.0,68.42261505126953,0.0,0.0,1
1778516045.19929123,163382121,0,6,144863200,2418,10,1.21,-35.363262,149.1652373,584.1,0.0,299.5198669433594,0.0,0.0,1
1778516045.39921117,163582041,0,6,144863400,2418,10,1.21,-35.363262,149.1652373,584.1,0.0,190.39620971679688,0.0,0.0,1
1778516045.59996414,163782794,0,6,144863600,2418,10,1.21,-35.363262,149.1652373,584.1,0.0,114.13863372802734,0.0,0.0,1
1778516045.79988408,163982714,0,6,144863800,2418,10,1.21,-35.363262,149.1652373,584.1,0.0,330.967529296875,0.0,0.0,1
1778516045.99980426,164182634,0,6,144864000,2418,10,1.21,-35.363262,149.1652373,584.1,0.0,287.8556213378906,0.0,0.0,1
1778516046.19972420,164382554,0,6,144864200,2418,10,1.21,-35.363262,149.1652373,584.1,0.0,135.37939453125,0.0,0.0,1
1778516046.39964414,164582474,0,6,144864400,2418,10,1.21,-35.363262,149.1652373,584.1,0.0,97.9027099609375,0.0,0.0,1
1778516046.59956408,164782394,0,6,144864600,2418,10,1.21,-35.363262,149.1652373,584.1,0.0,308.1815185546875,0.0,0.0,1
1778516046.79948425,164982314,0,6,144864800,2418,10,1.21,-35.363262,149.1652373,584.1,0.0,258.81304931640625,0.0,0.0,1
1778516046.99940419,165182234,0,6,144865000,2418,10,1.21,-35.363262,149.1652373,584.1,0.0,150.65396118164062,0.0,0.0,1
1778516047.19932413,165382154,0,6,144865200,2418,10,1.21,-35.363262,149.1652373,584.1,0.0,178.38409423828125,0.0,0.0,1
1778516047.39924407,165582074,0,6,144865400,2418,10,1.21,-35.363262,149.1652373,584.1,0.0,184.2928009033203,0.0,0.0,1
1778516047.59999704,165782827,0,6,144865600,2418,10,1.21,-35.363262,149.1652373,584.1,0.0,179.6631317138672,0.0,0.0,1
1778516047.79991722,165982747,0,6,144865800,2418,10,1.21,-35.363262,149.1652373,584.1,0.0,178.6056365966797,0.0,0.0,1
1778516047.99983716,166182667,0,6,144866000,2418,10,1.21,-35.363262,149.1652373,584.1,0.0,178.85427856445312,0.0,0.0,1
1778516048.19975710,166382587,0,6,144866200,2418,10,1.21,-35.363262,149.1652373,584.1,0.0,178.8888702392578,0.0,0.0,1
1778516048.39967704,166582507,0,6,144866400,2418,10,1.21,-35.363262,149.1652373,584.1,0.0,178.89349365234375,0.0,0.0,1
1778516048.59959722,166782427,0,6,144866600,2418,10,1.21,-35.363262,149.1652373,584.1,0.0,178.89413452148438,0.0,0.0,1
1778516048.79951715,166982347,0,6,144866800,2418,10,1.21,-35.363262,149.1652373,584.1,0.0,178.8942108154297,0.0,0.0,1
1778516048.99943709,167182267,0,6,144867000,2418,10,1.21,-35.363262,149.1652373,584.1,0.0,178.8942413330078,0.0,0.0,1
1778516049.19935703,167382187,0,6,144867200,2418,10,1.21,-35.363262,149.1652373,584.1,0.0,178.8942413330078,0.0,0.0,1
1778516049.39927721,167582107,0,6,144867400,2418,10,1.21,-35.363262,149.1652373,584.1,0.0,178.8942413330078,0.0,0.0,1
1778516049.60003018,167782860,0,6,144867600,2418,10,1.21,-35.363262,149.1652373,584.1,0.0,178.8942413330078,0.0,0.0,1
1778516049.79995012,167982780,0,6,144867800,2418,10,1.21,-35.363262,149.1652373,584.1,0.0,178.8942413330078,0.0,0.0,1
1778516049.99987006,168182700,0,6,144868000,2418,10,1.21,-35.363262,149.1652373,584.1,0.0,178.8942413330078,0.0,0.0,1
1778516050.19979024,168382620,0,6,144868200,2418,10,1.21,-35.363262,149.1652373,584.1,0.0,178.8942413330078,0.0,0.0,1
1778516050.39971018,168582540,0,6,144868400,2418,10,1.21,-35.363262,149.1652373,584.1,0.0,178.8942413330078,0.0,0.0,1
1778516050.59963012,168782460,0,6,144868600,2418,10,1.21,-35.363262,149.1652373,584.1,0.0,178.8942413330078,0.0,0.0,1
1778516050.79955006,168982380,0,6,144868800,2418,10,1.21,-35.363262,149.1652373,584.1,0.0,178.8942413330078,0.0,0.0,1
1778516050.99947023,169182300,0,6,144869000,2418,10,1.21,-35.363262,149.1652373,584.1,0.0,178.8942413330078,0.0,0.0,1
1778516051.19939017,169382220,0,6,144869200,2418,10,1.21,-35.363262,149.1652373,584.1,0.0,178.8942413330078,0.0,0.0,1
1778516051.39931011,169582140,0,6,144869400,2418,10,1.21,-35.363262,149.1652373,584.1,0.0,178.8942413330078,0.0,0.0,1
1778516051.59923005,169782060,0,6,144869600,2418,10,1.21,-35.363262,149.1652373,584.1,0.0,178.8942413330078,0.0,0.0,1
1778516051.79998302,169982813,0,6,144869800,2418,10,1.21,-35.363262,149.1652373,584.1,0.0,178.8942413330078,0.0,0.0,1
1778516051.99990320,170182733,0,6,144870000,2418,10,1.21,-35.363262,149.1652373,584.1,0.0,178.8942413330078,0.0,0.0,1
