timestamp,TimeUS,I,Alt,AltAMSL,Press,Temp,CRt,SMS,Offset,GndTemp,H,CPress
1778515987.16001606,105342846,0,0.00372314453125,584.0936889648438,94502.828125,31.02,0.0,105342,0.0,28.02182960510254,1,94502.828125
1778515987.16001606,105342846,1,-0.14910888671875,583.9408569335938,94503.296875,31.02,0.0,105342,0.0,28.02182960510254,1,94503.296875
1778515987.25997615,105442806,0,0.00372314453125,584.0936889648438,94502.828125,31.02,0.0,105442,0.0,28.02182960510254,1,94502.828125
1778515987.25997615,105442806,1,-0.02264404296875,584.0673217773438,94501.8515625,31.02,0.0,105442,0.0,28.02182960510254,1,94501.8515625
1778515987.35993624,105542766,0,0.00372314453125,584.0936889648438,94502.828125,31.02,0.0,105542,0.0,28.02182960510254,1,94502.828125
1778515987.35993624,105542766,1,-0.09637451171875,583.9935913085938,94502.6875,31.02,0.0,105542,0.0,28.02182960510254,1,94502.6875
1778515987.45989609,105642726,0,0.00372314453125,584.0936889648438,94502.828125,31.02,0.0,105642,0.0,28.02182960510254,1,94502.828125
1778515987.45989609,105642726,1,0.04766845703125,584.1376342773438,94501.0625,31.02,0.0,105642,0.0,28.02182960510254,1,94501.0625
1778515987.55985618,105742686,0,0.00372314453125,584.0936889648438,94502.828125,31.02,0.0,105742,0.0,28.02182960510254,1,94502.828125
1778515987.55985618,105742686,1,0.0863037109375,584.17626953125,94500.625,31.02,0.0,105742,0.0,28.02182960510254,1,94500.625
1778515987.65981603,105842646,0,0.00372314453125,584.0936889648438,94502.828125,31.02,0.0,105842,0.0,28.02182960510254,1,94502.828125
1778515987.65981603,105842646,1,-0.04608154296875,584.0438842773438,94502.125,31.02,0.0,105842,0.0,28.02182960510254,1,94502.125
1778515987.75977612,105942606,0,0.00372314453125,584.0936889648438,94502.828125,31.02,0.0,105942,0.0,28.02182960510254,1,94502.828125
1778515987.75977612,105942606,1,-0.06072998046875,584.0292358398438,94502.2890625,31.02,0.0,105942,0.0,28.02182960510254,1,94502.2890625
1778515987.85973620,106042566,0,0.00372314453125,584.0936889648438,94502.828125,31.02,0.0,106042,0.0,28.02182960510254,1,94502.828125
1778515987.85973620,106042566,1,-0.19891357421875,583.8910522460938,94503.8515625,31.02,0.0,106042,0.0,28.02182960510254,1,94503.8515625
1778515987.95969605,106142526,0,0.00372314453125,584.0936889648438,94502.828125,31.02,0.0,106142,0.0,28.02182960510254,1,94502.828125
1778515987.95969605,106142526,1,-0.03143310546875,584.0585327148438,94501.9609375,31.02,0.0,106142,0.0,28.02182960510254,1,94501.9609375
1778515988.05965614,106242486,0,0.00372314453125,584.0936889648438,94502.828125,31.02,0.0,106242,0.0,28.02182960510254,1,94502.828125
1778515988.05965614,106242486,1,-0.04608154296875,584.0438842773438,94502.125,31.02,0.0,106242,0.0,28.02182960510254,1,94502.125
1778515988.15961623,106342446,0,0.00372314453125,584.0936889648438,94502.828125,31.02,0.0,106342,0.0,28.02182960510254,1,94502.828125
1778515988.15961623,106342446,1,-0.29315185546875,583.7968139648438,94504.921875,31.03,0.0,106342,0.0,28.02182960510254,1,94504.921875
1778515988.25957608,106442406,0,0.00372314453125,584.0936889648438,94502.828125,31.03,0.0,106442,0.0,28.02182960510254,1,94502.828125
1778515988.25957608,106442406,1,-0.15203857421875,583.9379272460938,94503.328125,31.03,0.0,106442,0.0,28.02182960510254,1,94503.328125
1778515988.35953617,106542366,0,0.00372314453125,584.0936889648438,94502.828125,31.03,0.0,106542,0.0,28.02182960510254,1,94502.828125
1778515988.35953617,106542366,1,-0.16375732421875,583.9262084960938,94503.4609375,31.03,0.0,106542,0.0,28.02182960510254,1,94503.4609375
1778515988.45949626,106642326,0,0.00372314453125,584.0936889648438,94502.828125,31.03,0.0,106642,0.0,28.02182960510254,1,94502.828125
1778515988.45949626,106642326,1,-0.14324951171875,583.9467163085938,94503.2265625,31.03,0.0,106642,0.0,28.02182960510254,1,94503.2265625
1778515988.55945611,106742286,0,0.00372314453125,584.0936889648438,94502.828125,31.03,0.0,106742,0.0,28.02182960510254,1,94502.828125
1778515988.55945611,106742286,1,-0.00213623046875,584.0878295898438,94501.6171875,31.03,0.0,106742,0.0,28.02182960510254,1,94501.6171875
1778515988.65941620,106842246,0,0.00372314453125,584.0936889648438,94502.828125,31.03,0.0,106842,0.0,28.02182960510254,1,94502.828125
1778515988.65941620,106842246,1,-0.21063232421875,583.8793334960938,94503.9921875,31.03,0.0,106842,0.0,28.02182960510254,1,94503.9921875
1778515988.75937605,106942206,0,0.00372314453125,584.0936889648438,94502.828125,31.03,0.0,106942,0.0,28.02182960510254,1,94502.828125
1778515988.75937605,106942206,1,-0.25213623046875,583.8378295898438,94504.4609375,31.03,0.0,106942,0.0,28.02182960510254,1,94504.4609375
1778515988.85933614,107042166,0,0.00372314453125,584.0936889648438,94502.828125,31.03,0.0,107042,0.0,28.02182960510254,1,94502.828125
1778515988.85933614,107042166,1,-0.07244873046875,584.0175170898438,94502.421875,31.03,0.0,107042,0.0,28.02182960510254,1,94502.421875
1778515988.95929623,107142126,0,0.00372314453125,584.0936889648438,94502.828125,31.03,0.0,107142,0.0,28.02182960510254,1,94502.828125
1778515988.95929623,107142126,1,-0.11688232421875,583.9730834960938,94502.921875,31.03,0.0,107142,0.0,28.02182960510254,1,94502.921875
1778515989.05925608,107242086,0,0.00372314453125,584.0936889648438,94502.828125,31.03,0.0,107242,0.0,28.02182960510254,1,94502.828125
1778515989.05925608,107242086,1,-0.26971435546875,583.8202514648438,94504.65625,31.03,0.0,107242,0.0,28.02182960510254,1,94504.65625
1778515989.15921617,107342046,0,0.00372314453125,584.0936889648438,94502.828125,31.03,0.0,107342,0.0,28.02182960510254,1,94502.828125
1778515989.15921617,107342046,1,-0.26971435546875,583.8202514648438,94504.65625,31.03,0.0,107342,0.0,28.02182960510254,1,94504.65625
1778515989.26000905,107442839,0,0.00372314453125,584.0936889648438,94502.828125,31.03,0.0,107442,0.0,28.02182960510254,1,94502.828125
1778515989.26000905,107442839,1,-0.14910888671875,583.9408569335938,94503.296875,31.03,0.0,107442,0.0,28.02182960510254,1,94503.296875
1778515989.35996914,107542799,0,0.00372314453125,584.0936889648438,94502.828125,31.03,0.0,107542,0.0,28.02182960510254,1,94502.828125
1778515989.35996914,107542799,1,0.08038330078125,584.1703491210938,94500.6875,31.03,0.0,107542,0.0,28.02182960510254,1,94500.6875
1778515989.45992923,107642759,0,0.00372314453125,584.0936889648438,94502.828125,31.03,0.0,107642,0.0,28.02182960510254,1,94502.828125
1778515989.45992923,107642759,1,-0.00213623046875,584.0878295898438,94501.6171875,31.03,0.0,107642,0.0,28.02182960510254,1,94501.6171875
1778515989.55988908,107742719,0,0.00372314453125,584.0936889648438,94502.828125,31.03,0.0,107742,0.0,28.02182960510254,1,94502.828125
1778515989.55988908,107742719,1,-0.0079345703125,584.08203125,94501.6953125,31.03,0.0,107742,0.0,28.02182960510254,1,94501.6953125
1778515989.65984917,107842679,0,0.00372314453125,584.0936889648438,94502.828125,31.03,0.0,107842,0.0,28.02182960510254,1,94502.828125
1778515989.65984917,107842679,1,-0.00213623046875,584.0878295898438,94501.6171875,31.03,0.0,107842,0.0,28.02182960510254,1,94501.6171875
1778515989.75980926,107942639,0,0.00372314453125,584.0936889648438,94502.828125,31.03,0.0,107942,0.0,28.02182960510254,1,94502.828125
1778515989.75980926,107942639,1,0.04766845703125,584.1376342773438,94501.0625,31.03,0.0,107942,0.0,28.02182960510254,1,94501.0625
1778515989.85976911,108042599,0,0.00372314453125,584.0936889648438,94502.828125,31.03,0.0,108042,0.0,28.02182960510254,1,94502.828125
1778515989.85976911,108042599,1,-0.09637451171875,583.9935913085938,94502.6875,31.03,0.0,108042,0.0,28.02182960510254,1,94502.6875
1778515989.95972919,108142559,0,0.00372314453125,584.0936889648438,94502.828125,31.04,0.0,108142,0.0,28.02182960510254,1,94502.828125
1778515989.95972919,108142559,1,-0.04901123046875,584.0409545898438,94502.1640625,31.03,0.0,108142,0.0,28.02182960510254,1,94502.1640625
1778515990.05968904,108242519,0,0.00372314453125,584.0936889648438,94502.828125,31.04,0.0,108242,0.0,28.02182960510254,1,94502.828125
1778515990.05968904,108242519,1,-0.18719482421875,583.9027709960938,94503.7265625,31.04,0.0,108242,0.0,28.02182960510254,1,94503.7265625
1778515990.15964913,108342479,0,0.00372314453125,584.0936889648438,94502.828125,31.04,0.0,108342,0.0,28.02182960510254,1,94502.828125
1778515990.15964913,108342479,1,-0.04022216796875,584.0497436523438,94502.0546875,31.04,0.0,108342,0.0,28.02182960510254,1,94502.0546875
1778515990.25960922,108442439,0,0.00372314453125,584.0936889648438,94502.828125,31.04,0.0,108442,0.0,28.02182960510254,1,94502.828125
1778515990.25960922,108442439,1,-0.21356201171875,583.8764038085938,94504.0234375,31.04,0.0,108442,0.0,28.02182960510254,1,94504.0234375
1778515990.35956907,108542399,0,0.00372314453125,584.0936889648438,94502.828125,31.04,0.0,108542,0.0,28.02182960510254,1,94502.828125
1778515990.35956907,108542399,1,-0.12567138671875,583.9642944335938,94503.03125,31.04,0.0,108542,0.0,28.02182960510254,1,94503.03125
1778515990.45952916,108642359,0,0.00372314453125,584.0936889648438,94502.828125,31.04,0.0,108642,0.0,28.02182960510254,1,94502.828125
1778515990.45952916,108642359,1,-0.07830810546875,584.0116577148438,94502.4921875,31.04,0.0,108642,0.0,28.02182960510254,1,94502.4921875
1778515990.55948925,108742319,0,0.00372314453125,584.0936889648438,94502.828125,31.04,0.0,108742,0.0,28.02182960510254,1,94502.828125
1778515990.55948925,108742319,1,-0.21063232421875,583.8793334960938,94503.9921875,31.04,0.0,108742,0.0,28.02182960510254,1,94503.9921875
1778515990.65944910,108842279,0,0.00372314453125,584.0936889648438,94502.828125,31.04,0.0,108842,0.0,28.02182960510254,1,94502.828125
1778515990.65944910,108842279,1,-0.04608154296875,584.0438842773438,94502.125,31.04,0.0,108842,0.0,28.02182960510254,1,94502.125
1778515990.75940919,108942239,0,0.00372314453125,584.0936889648438,94502.828125,31.04,0.0,108942,0.0,28.02182960510254,1,94502.828125
1778515990.75940919,108942239,1,-0.25213623046875,583.8378295898438,94504.4609375,31.04,0.0,108942,0.0,28.02182960510254,1,94504.4609375
1778515990.85936904,109042199,0,0.00372314453125,584.0936889648438,94502.828125,31.04,0.0,109042,0.0,28.02182960510254,1,94502.828125
1778515990.85936904,109042199,1,-0.07244873046875,584.0175170898438,94502.421875,31.04,0.0,109042,0.0,28.02182960510254,1,94502.421875
1778515990.95932913,109142159,0,0.00372314453125,584.0936889648438,94502.828125,31.04,0.0,109142,0.0,28.02182960510254,1,94502.828125
1778515990.95932913,109142159,1,0.00665283203125,584.0966186523438,94501.5234375,31.04,0.0,109142,0.0,28.02182960510254,1,94501.5234375
1778515991.05928922,109242119,0,0.00372314453125,584.0936889648438,94502.828125,31.04,0.0,109242,0.0,28.02182960510254,1,94502.828125
1778515991.05928922,109242119,1,-0.14031982421875,583.9496459960938,94503.1875,31.04,0.0,109242,0.0,28.02182960510254,1,94503.1875
1778515991.15924907,109342079,0,0.00372314453125,584.0936889648438,94502.828125,31.04,0.0,109342,0.0,28.02182960510254,1,94502.828125
1778515991.15924907,109342079,1,-0.26092529296875,583.8290405273438,94504.5625,31.04,0.0,109342,0.0,28.02182960510254,1,94504.5625
1778515991.25920916,109442039,0,0.00372314453125,584.0936889648438,94502.828125,31.04,0.0,109442,0.0,28.02182960510254,1,94502.828125
1778515991.25920916,109442039,1,-0.03143310546875,584.0585327148438,94501.9609375,31.04,0.0,109442,0.0,28.02182960510254,1,94501.9609375
1778515991.36000204,109542832,0,0.00372314453125,584.0936889648438,94502.828125,31.04,0.0,109542,0.0,28.02182960510254,1,94502.828125
1778515991.36000204,109542832,1,-0.15789794921875,583.9320678710938,94503.390625,31.04,0.0,109542,0.0,28.02182960510254,1,94503.390625
1778515991.45996213,109642792,0,0.00372314453125,584.0936889648438,94502.828125,31.04,0.0,109642,0.0,28.02182960510254,1,94502.828125
1778515991.45996213,109642792,1,-0.07244873046875,584.0175170898438,94502.421875,31.04,0.0,109642,0.0,28.02182960510254,1,94502.421875
1778515991.55992222,109742752,0,0.00372314453125,584.0936889648438,94502.828125,31.04,0.0,109742,0.0,28.02182960510254,1,94502.828125
1778515991.55992222,109742752,1,-0.08416748046875,584.0057983398438,94502.5546875,31.04,0.0,109742,0.0,28.02182960510254,1,94502.5546875
1778515991.65988207,109842712,0,0.00372314453125,584.0936889648438,94502.828125,31.04,0.0,109842,0.0,28.02182960510254,1,94502.828125
1778515991.65988207,109842712,1,-0.18133544921875,583.9086303710938,94503.6640625,31.04,0.0,109842,0.0,28.02182960510254,1,94503.6640625
1778515991.75984216,109942672,0,0.00372314453125,584.0936889648438,94502.828125,31.04,0.0,109942,0.0,28.02182960510254,1,94502.828125
1778515991.75984216,109942672,1,-0.18133544921875,583.9086303710938,94503.6640625,31.05,0.0,109942,0.0,28.02182960510254,1,94503.6640625
1778515991.85980225,110042632,0,0.00372314453125,584.0936889648438,94502.828125,31.05,0.0,110042,0.0,28.02182960510254,1,94502.828125
1778515991.85980225,110042632,1,-0.09637451171875,583.9935913085938,94502.6875,31.05,0.0,110042,0.0,28.02182960510254,1,94502.6875
1778515991.95976210,110142592,0,0.00372314453125,584.0936889648438,94502.828125,31.05,0.0,110142,0.0,28.02182960510254,1,94502.828125
1778515991.95976210,110142592,1,-0.29022216796875,583.7997436523438,94504.890625,31.05,0.0,110142,0.0,28.02182960510254,1,94504.890625
1778515992.05972219,110242552,0,0.00372314453125,584.0936889648438,94502.828125,31.05,0.0,110242,0.0,28.02182960510254,1,94502.828125
1778515992.05972219,110242552,1,-0.04022216796875,584.0497436523438,94502.0546875,31.05,0.0,110242,0.0,28.02182960510254,1,94502.0546875
1778515992.15968204,110342512,0,0.00372314453125,584.0936889648438,94502.828125,31.05,0.0,110342,0.0,28.02182960510254,1,94502.828125
1778515992.15968204,110342512,1,0.02423095703125,584.1141967773438,94501.3203125,31.05,0.0,110342,0.0,28.02182960510254,1,94501.3203125
1778515992.25964212,110442472,0,0.00372314453125,584.0936889648438,94502.828125,31.05,0.0,110442,0.0,28.02182960510254,1,94502.828125
1778515992.25964212,110442472,1,-0.23455810546875,583.8554077148438,94504.2578125,31.05,0.0,110442,0.0,28.02182960510254,1,94504.2578125
1778515992.35960221,110542432,0,0.00372314453125,584.0936889648438,94502.828125,31.05,0.0,110542,0.0,28.02182960510254,1,94502.828125
1778515992.35960221,110542432,1,0.02423095703125,584.1141967773438,94501.3203125,31.05,0.0,110542,0.0,28.02182960510254,1,94501.3203125
1778515992.45956206,110642392,0,0.00372314453125,584.0936889648438,94502.828125,31.05,0.0,110642,0.0,28.02182960510254,1,94502.828125
1778515992.45956206,110642392,1,-0.20477294921875,583.8851928710938,94503.9296875,31.05,0.0,110642,0.0,28.02182960510254,1,94503.9296875
1778515992.55952215,110742352,0,0.00372314453125,584.0936889648438,94502.828125,31.05,0.0,110742,0.0,28.02182960510254,1,94502.828125
1778515992.55952215,110742352,1,-0.02264404296875,584.0673217773438,94501.8515625,31.05,0.0,110742,0.0,28.02182960510254,1,94501.8515625
1778515992.65948224,110842312,0,0.00372314453125,584.0936889648438,94502.828125,31.05,0.0,110842,0.0,28.02182960510254,1,94502.828125
1778515992.65948224,110842312,1,-0.06072998046875,584.0292358398438,94502.2890625,31.05,0.0,110842,0.0,28.02182960510254,1,94502.2890625
1778515992.75944209,110942272,0,0.00372314453125,584.0936889648438,94502.828125,31.05,0.0,110942,0.0,28.02182960510254,1,94502.828125
1778515992.75944209,110942272,1,-0.06072998046875,584.0292358398438,94502.2890625,31.05,0.0,110942,0.0,28.02182960510254,1,94502.2890625
1778515992.85940218,111042232,0,0.00372314453125,584.0936889648438,94502.828125,31.05,0.0,111042,0.0,28.02182960510254,1,94502.828125
1778515992.85940218,111042232,1,-0.09637451171875,583.9935913085938,94502.6875,31.05,0.0,111042,0.0,28.02182960510254,1,94502.6875
1778515992.95936203,111142192,0,0.00372314453125,584.0936889648438,94502.828125,31.05,0.0,111142,0.0,28.02182960510254,1,94502.828125
1778515992.95936203,111142192,1,-0.07830810546875,584.0116577148438,94502.4921875,31.05,0.0,111142,0.0,28.02182960510254,1,94502.4921875
1778515993.05932212,111242152,0,0.00372314453125,584.0936889648438,94502.828125,31.05,0.0,111242,0.0,28.02182960510254,1,94502.828125
1778515993.05932212,111242152,1,-0.21356201171875,583.8764038085938,94504.0234375,31.05,0.0,111242,0.0,28.02182960510254,1,94504.0234375
1778515993.15928221,111342112,0,0.00372314453125,584.0936889648438,94502.828125,31.05,0.0,111342,0.0,28.02182960510254,1,94502.828125
1778515993.15928221,111342112,1,-0.19012451171875,583.8998413085938,94503.7578125,31.05,0.0,111342,0.0,28.02182960510254,1,94503.7578125
1778515993.25924206,111442072,0,0.01544189453125,584.1054077148438,94502.6875,31.05,0.003662109375,111442,0.0,28.02182960510254,1,94502.6875
1778515993.25924206,111442072,1,-0.23748779296875,583.8524780273438,94504.2890625,31.05,0.003662109375,111442,0.0,28.02182960510254,1,94504.2890625
1778515993.35920215,111542032,0,0.01544189453125,584.1054077148438,94502.6875,31.05,0.01831054501235485,111542,0.0,28.02182960510254,1,94502.6875
1778515993.35920215,111542032,1,-0.28143310546875,583.8085327148438,94504.796875,31.05,0.01831054501235485,111542,0.0,28.02182960510254,1,94504.796875
1778515993.45999503,111642825,0,0.03350830078125,584.1234741210938,94502.4921875,31.05,0.042266845703125,111642,0.0,28.02182960510254,1,94502.4921875
1778515993.45999503,111642825,1,-0.06072998046875,584.0292358398438,94502.2890625,31.05,0.042266845703125,111642,0.0,28.02182960510254,1,94502.2890625
1778515993.55995512,111742785,0,0.05694580078125,584.1469116210938,94502.2265625,31.05,0.072174072265625,111742,0.0,28.02182960510254,1,94502.2265625
1778515993.55995512,111742785,1,0.00665283203125,584.0966186523438,94501.5234375,31.05,0.072174072265625,111742,0.0,28.02182960510254,1,94501.5234375
1778515993.65991521,111842745,0,0.07452392578125,584.1644897460938,94502.0234375,31.05,0.11688232421875,111842,0.0,28.02182960510254,1,94502.0234375
1778515993.65991521,111842745,1,0.1331787109375,584.22314453125,94500.0859375,31.05,0.11688232421875,111842,0.0,28.02182960510254,1,94500.0859375
1778515993.75987506,111942705,0,0.1038818359375,584.19384765625,94501.6953125,31.05,0.17000199854373932,111942,0.0,28.02182960510254,1,94501.6953125
1778515993.75987506,111942705,1,-0.19012451171875,583.8998413085938,94503.7578125,31.06,0.17000199854373932,111942,0.0,28.02182960510254,1,94503.7578125
1778515993.85983515,112042665,0,0.13604736328125,584.2260131835938,94501.3203125,31.05,0.2123260498046875,112042,0.0,28.02182960510254,1,94501.3203125
1778515993.85983515,112042665,1,-0.06365966796875,584.0263061523438,94502.3203125,31.06,0.2123260498046875,112042,0.0,28.02182960510254,1,94502.3203125
1778515993.95979524,112142625,0,0.20684814453125,584.2968139648438,94500.515625,31.05,0.2613258361816406,112142,0.0,28.02182960510254,1,94500.515625
1778515993.95979524,112142625,1,0.1654052734375,584.25537109375,94499.7265625,31.05,0.2613258361816406,112142,0.0,28.02182960510254,1,94499.7265625
1778515994.05975509,112242585,0,0.31585693359375,584.4058227539062,94499.2890625,31.05,0.37174224853515625,112242,0.0,28.02182960510254,1,94499.2890625
1778515994.05975509,112242585,1,0.07159423828125,584.1615600585938,94500.78125,31.06,0.37174224853515625,112242,0.0,28.02182960510254,1,94500.78125
1778515994.15971518,112342545,0,0.44818115234375,584.5381469726562,94497.7890625,31.05,0.5848122239112854,112342,0.0,28.02182960510254,1,94497.7890625
1778515994.15971518,112342545,1,0.28314208984375,584.3731079101562,94498.3828125,31.05,0.5848122239112854,112342,0.0,28.02182960510254,1,94498.3828125
1778515994.25967503,112442505,0,0.56243896484375,584.6524047851562,94496.484375,31.05,0.863800048828125,112442,0.0,28.02182960510254,1,94496.484375
1778515994.25967503,112442505,1,0.4183349609375,584.50830078125,94496.84375,31.05,0.863800048828125,112442,0.0,28.02182960510254,1,94496.84375
1778515994.35963511,112542465,0,0.68597412109375,584.7759399414062,94495.078125,31.05,1.0919761657714844,112542,0.0,28.02182960510254,1,94495.078125
1778515994.35963511,112542465,1,0.37738037109375,584.4673461914062,94497.3203125,31.05,1.0919761657714844,112542,0.0,28.02182960510254,1,94497.3203125
1778515994.45959520,112642425,0,0.794921875,584.8848876953125,94493.84375,31.05,1.1900901794433594,112642,0.0,28.02182960510254,1,94493.84375
1778515994.45959520,112642425,1,0.7333984375,584.8233642578125,94493.2734375,31.05,1.1900901794433594,112642,0.0,28.02182960510254,1,94493.2734375
1778515994.55955505,112742385,0,0.92431640625,585.0142822265625,94492.375,31.05,1.1945915222167969,112742,0.0,28.02182960510254,1,94492.375
1778515994.55955505,112742385,1,0.95947265625,585.0494384765625,94490.7109375,31.05,1.1945915222167969,112742,0.0,28.02182960510254,1,94490.7109375
1778515994.65951514,112842345,0,1.056640625,585.1466064453125,94490.8671875,31.05,1.1899185180664062,112842,0.0,28.02182960510254,1,94490.8671875
1778515994.65951514,112842345,1,0.88916015625,584.9791259765625,94491.5078125,31.05,1.1899185180664062,112842,0.0,28.02182960510254,1,94491.5078125
1778515994.75947523,112942305,0,1.19781494140625,585.2877807617188,94489.2734375,31.05,1.2244224548339844,112942,0.0,28.02182960510254,1,94489.2734375
1778515994.75947523,112942305,1,1.2271728515625,585.317138671875,94487.671875,31.05,1.2244224548339844,112942,0.0,28.02182960510254,1,94487.671875
1778515994.85943508,113042265,0,1.34478759765625,585.4347534179688,94487.59375,31.05,1.2932204008102417,113042,0.0,28.02182960510254,1,94487.59375
1778515994.85943508,113042265,1,1.13336181640625,585.2233276367188,94488.7421875,31.05,1.2932204008102417,113042,0.0,28.02182960510254,1,94488.7421875
1778515994.95939517,113142225,0,1.50640869140625,585.5963745117188,94485.765625,31.05,1.3710592985153198,113142,0.0,28.02182960510254,1,94485.765625
1778515994.95939517,113142225,1,1.5479736328125,585.637939453125,94484.03125,31.05,1.3710592985153198,113142,0.0,28.02182960510254,1,94484.03125
1778515995.05935526,113242185,0,1.6861572265625,585.776123046875,94483.734375,31.05,1.456356167793274,113242,0.0,28.02182960510254,1,94483.734375
1778515995.05935526,113242185,1,1.3917236328125,585.481689453125,94485.796875,31.05,1.456356167793274,113242,0.0,28.02182960510254,1,94485.796875
1778515995.15931511,113342145,0,1.86541748046875,585.9553833007812,94481.6953125,31.05,1.5631675720214844,113342,0.0,28.02182960510254,1,94481.6953125
1778515995.15931511,113342145,1,1.76824951171875,585.8582153320312,94481.53125,31.05,1.5631675720214844,113342,0.0,28.02182960510254,1,94481.53125
1778515995.25927520,113442105,0,2.05682373046875,586.1467895507812,94479.5234375,31.05,1.680450439453125,113442,0.0,28.02182960510254,1,94479.5234375
1778515995.25927520,113442105,1,2.130126953125,586.2200927734375,94477.421875,31.05,1.680450439453125,113442,0.0,28.02182960510254,1,94477.421875
1778515995.35923505,113542065,0,2.253662109375,586.3436279296875,94477.2890625,31.05,1.7809486389160156,113542,0.0,28.02182960510254,1,94477.2890625
1778515995.35923505,113542065,1,2.038818359375,586.1287841796875,94478.4609375,31.05,1.7809486389160156,113542,0.0,28.02182960510254,1,94478.4609375
1778515995.46002817,113642858,0,2.474365234375,586.5643310546875,94474.78125,31.05,1.8662261962890625,113642,0.0,28.02182960510254,1,94474.78125
1778515995.46002817,113642858,1,2.24200439453125,586.3319702148438,94476.1484375,31.05,1.8662261962890625,113642,0.0,28.02182960510254,1,94476.1484375
1778515995.55998826,113742818,0,2.69464111328125,586.7846069335938,94472.28125,31.05,1.9632149934768677,113742,0.0,28.02182960510254,1,94472.28125
1778515995.55998826,113742818,1,2.6976318359375,586.78759765625,94470.9765625,31.05,1.9632149934768677,113742,0.0,28.02182960510254,1,94470.9765625
1778515995.65994811,113842778,0,2.9271240234375,587.01708984375,94469.6484375,31.05,2.076740264892578,113842,0.0,28.02182960510254,1,94469.6484375
1778515995.65994811,113842778,1,2.7684326171875,586.8583984375,94470.171875,31.05,2.076740264892578,113842,0.0,28.02182960510254,1,94470.171875
1778515995.75990820,113942738,0,3.16546630859375,587.2554321289062,94466.9453125,31.04,2.1831703186035156,113942,0.0,28.02182960510254,1,94466.9453125
1778515995.75990820,113942738,1,2.9505615234375,587.04052734375,94468.109375,31.05,2.1831703186035156,113942,0.0,28.02182960510254,1,94468.109375
1778515995.85986805,114042698,0,3.41546630859375,587.5054321289062,94464.109375,31.04,2.271766424179077,114042,0.0,28.02182960510254,1,94464.109375
1778515995.85986805,114042698,1,3.33880615234375,587.4287719726562,94463.703125,31.04,2.271766424179077,114042,0.0,28.02182960510254,1,94463.703125
1778515995.95982814,114142658,0,3.66845703125,587.7584228515625,94461.234375,31.04,2.3541641235351562,114142,0.0,28.02182960510254,1,94461.234375
1778515995.95982814,114142658,1,3.62701416015625,587.7169799804688,94460.4296875,31.04,2.3541641235351562,114142,0.0,28.02182960510254,1,94460.4296875
1778515996.05978823,114242618,0,3.91802978515625,588.0079956054688,94458.3984375,31.04,2.4314498901367188,114242,0.0,28.02182960510254,1,94458.3984375
1778515996.05978823,114242618,1,3.95025634765625,588.0402221679688,94456.765625,31.04,2.4314498901367188,114242,0.0,28.02182960510254,1,94456.765625
1778515996.15974808,114342578,0,4.1651611328125,588.255126953125,94455.59375,31.04,2.4840924739837646,114342,0.0,28.02182960510254,1,94455.59375
1778515996.15974808,114342578,1,4.2091064453125,588.299072265625,94453.8203125,31.04,2.4840924739837646,114342,0.0,28.02182960510254,1,94453.8203125
1778515996.25970817,114442538,0,4.4151611328125,588.505126953125,94452.765625,31.04,2.4998855590820312,114442,0.0,28.02182960510254,1,94452.765625
1778515996.25970817,114442538,1,4.1153564453125,588.205322265625,94454.890625,31.04,2.4998855590820312,114442,0.0,28.02182960510254,1,94454.890625
1778515996.35966825,114542498,0,4.67694091796875,588.7669067382812,94449.7890625,31.04,2.4980545043945312,114542,0.0,28.02182960510254,1,94449.7890625
1778515996.35966825,114542498,1,4.55633544921875,588.6463012695312,94449.890625,31.04,2.4980545043945312,114542,0.0,28.02182960510254,1,94449.890625
1778515996.45962811,114642458,0,4.927001953125,589.0169677734375,94446.953125,31.04,2.5097274780273438,114642,0.0,28.02182960510254,1,94446.953125
1778515996.45962811,114642458,1,4.965087890625,589.0550537109375,94445.2578125,31.04,2.5097274780273438,114642,0.0,28.02182960510254,1,94445.2578125
1778515996.55958819,114742418,0,5.17413330078125,589.2640991210938,94444.15625,31.04,2.5313947200775146,114742,0.0,28.02182960510254,1,94444.15625
1778515996.55958819,114742418,1,5.1712646484375,589.26123046875,94442.9140625,31.03,2.5313947200775146,114742,0.0,28.02182960510254,1,94442.9140625
1778515996.65954804,114842378,0,5.4241943359375,589.51416015625,94441.3125,31.03,2.5316429138183594,114842,0.0,28.02182960510254,1,94441.3125
1778515996.65954804,114842378,1,5.4207763671875,589.5107421875,94440.078125,31.03,2.5316429138183594,114842,0.0,28.02182960510254,1,94440.078125
1778515996.75950813,114942338,0,5.6766357421875,589.7666015625,94438.4453125,31.03,2.510490655899048,114942,0.0,28.02182960510254,1,94438.4453125
1778515996.75950813,114942338,1,5.3973388671875,589.4873046875,94440.34375,31.03,2.510490655899048,114942,0.0,28.02182960510254,1,94440.34375
1778515996.85946822,115042298,0,5.92669677734375,590.0166625976562,94435.609375,31.03,2.4988365173339844,115042,0.0,28.02182960510254,1,94435.609375
1778515996.85946822,115042298,1,5.99755859375,590.0875244140625,94433.5390625,31.03,2.4988365173339844,115042,0.0,28.02182960510254,1,94433.5390625
1778515996.95942807,115142258,0,6.1767578125,590.2667236328125,94432.765625,31.03,2.5034711360931396,115142,0.0,28.02182960510254,1,94432.765625
1778515996.95942807,115142258,1,6.1767578125,590.2667236328125,94431.5078125,31.03,2.5034711360931396,115142,0.0,28.02182960510254,1,94431.5078125
1778515997.05938816,115242218,0,6.4150390625,590.5050048828125,94430.0703125,31.03,2.5034523010253906,115242,0.0,28.02182960510254,1,94430.0703125
1778515997.05938816,115242218,1,6.35009765625,590.4400634765625,94429.5390625,31.03,2.5034523010253906,115242,0.0,28.02182960510254,1,94429.5390625
1778515997.15934825,115342178,0,6.66510009765625,590.7550659179688,94427.2265625,31.03,2.485924005508423,115342,0.0,28.02182960510254,1,94427.2265625
1778515997.15934825,115342178,1,6.6798095703125,590.769775390625,94425.796875,31.03,2.485924005508423,115342,0.0,28.02182960510254,1,94425.796875
1778515997.25930810,115442138,0,6.9180908203125,591.008056640625,94424.3671875,31.03,2.4654579162597656,115442,0.0,28.02182960510254,1,94424.3671875
1778515997.25930810,115442138,1,6.8941650390625,590.984130859375,94423.3671875,31.03,2.4654579162597656,115442,0.0,28.02182960510254,1,94423.3671875
1778515997.35926819,115542098,0,7.1558837890625,591.245849609375,94421.65625,31.03,2.4645423889160156,115542,0.0,28.02182960510254,1,94421.65625
1778515997.35926819,115542098,1,7.191162109375,591.2811279296875,94419.9921875,31.03,2.4645423889160156,115542,0.0,28.02182960510254,1,94419.9921875
1778515997.45922804,115642058,0,7.406005859375,591.4959716796875,94418.828125,31.03,2.472209930419922,115642,0.0,28.02182960510254,1,94418.828125
1778515997.45922804,115642058,1,7.462158203125,591.5521240234375,94416.921875,31.02,2.472209930419922,115642,0.0,28.02182960510254,1,94416.921875
1778515997.56002116,115742851,0,7.656005859375,591.7459716796875,94415.9921875,31.02,2.467823028564453,115742,0.0,28.02182960510254,1,94415.9921875
1778515997.56002116,115742851,1,7.67950439453125,591.7694702148438,94414.453125,31.02,2.467823028564453,115742,0.0,28.02182960510254,1,94414.453125
1778515997.65998125,115842811,0,7.89434814453125,591.9843139648438,94413.2890625,31.02,2.4632837772369385,115842,0.0,28.02182960510254,1,94413.2890625
1778515997.65998125,115842811,1,7.65606689453125,591.7460327148438,94414.71875,31.02,2.4632837772369385,115842,0.0,28.02182960510254,1,94414.71875
1778515997.75994110,115942771,0,8.14727783203125,592.2372436523438,94410.421875,31.02,2.4649429321289062,115942,0.0,28.02182960510254,1,94410.421875
1778515997.75994110,115942771,1,7.9237060546875,592.013671875,94411.6953125,31.02,2.4649429321289062,115942,0.0,28.02182960510254,1,94411.6953125
1778515997.85990119,116042731,0,8.38861083984375,592.4785766601562,94407.6875,31.02,2.4618148803710938,116042,0.0,28.02182960510254,1,94407.6875
1778515997.85990119,116042731,1,8.33538818359375,592.4253540039062,94407.0234375,31.02,2.4618148803710938,116042,0.0,28.02182960510254,1,94407.0234375
1778515997.95986104,116142691,0,8.63519287109375,592.7251586914062,94404.8828125,31.02,2.4581527709960938,116142,0.0,28.02182960510254,1,94404.8828125
1778515997.95986104,116142691,1,8.39398193359375,592.4839477539062,94406.3515625,31.02,2.4581527709960938,116142,0.0,28.02182960510254,1,94406.3515625
1778515998.05982113,116242651,0,8.88531494140625,592.9752807617188,94402.046875,31.02,2.4585533142089844,116242,0.0,28.02182960510254,1,94402.046875
1778515998.05982113,116242651,1,8.81494140625,592.9049072265625,94401.578125,31.02,2.4585533142089844,116242,0.0,28.02182960510254,1,94401.578125
1778515998.15978122,116342611,0,9.13525390625,593.2252197265625,94399.21875,31.02,2.4633407592773438,116342,0.0,28.02182960510254,1,94399.21875
1778515998.15978122,116342611,1,9.1851806640625,593.275146484375,94397.375,31.02,2.4633407592773438,116342,0.0,28.02182960510254,1,94397.375
1778515998.25974107,116442571,0,9.3795166015625,593.469482421875,94396.4375,31.02,2.4751853942871094,116442,0.0,28.02182960510254,1,94396.4375
1778515998.25974107,116442571,1,9.2999267578125,593.389892578125,94396.078125,31.02,2.4751853942871094,116442,0.0,28.02182960510254,1,94396.078125
1778515998.35970116,116542531,0,9.6265869140625,593.716552734375,94393.6484375,31.02,2.4822616577148438,116542,0.0,28.02182960510254,1,94393.6484375
1778515998.35970116,116542531,1,9.3145751953125,593.404541015625,94395.9140625,31.02,2.4822616577148438,116542,0.0,28.02182960510254,1,94395.9140625
1778515998.45966125,116642491,0,9.87664794921875,593.9666137695312,94390.8046875,31.01,2.4764442443847656,116642,0.0,28.02182960510254,1,94390.8046875
1778515998.45966125,116642491,1,9.73504638671875,593.8250122070312,94391.1484375,31.01,2.4764442443847656,116642,0.0,28.02182960510254,1,94391.1484375
1778515998.55962110,116742451,0,10.12322998046875,594.2131958007812,94388.0078125,31.01,2.4718856811523438,116742,0.0,28.02182960510254,1,94388.0078125
1778515998.55962110,116742451,1,9.970458984375,594.0604248046875,94388.4765625,31.01,2.4718856811523438,116742,0.0,28.02182960510254,1,94388.4765625
1778515998.65958118,116842411,0,10.37335205078125,594.4633178710938,94385.171875,31.01,2.4767494201660156,116842,0.0,28.02182960510254,1,94385.171875
1778515998.65958118,116842411,1,10.22052001953125,594.3104858398438,94385.640625,31.01,2.4767494201660156,116842,0.0,28.02182960510254,1,94385.640625
1778515998.75954103,116942371,0,10.61749267578125,594.7074584960938,94382.3984375,31.01,2.4814987182617188,116942,0.0,28.02182960510254,1,94382.3984375
1778515998.75954103,116942371,1,10.6468505859375,594.73681640625,94380.796875,31.01,2.4814987182617188,116942,0.0,28.02182960510254,1,94380.796875
1778515998.85950112,117042331,0,10.8675537109375,594.95751953125,94379.5703125,31.01,2.4797441959381104,117042,0.0,28.02182960510254,1,94379.5703125
1778515998.85950112,117042331,1,10.8734130859375,594.96337890625,94378.234375,31.01,2.4797441959381104,117042,0.0,28.02182960510254,1,94378.234375
1778515998.95946121,117142291,0,11.11468505859375,595.2046508789062,94376.765625,31.01,2.4759485721588135,117142,0.0,28.02182960510254,1,94376.765625
1778515998.95946121,117142291,1,10.95550537109375,595.0454711914062,94377.3046875,31.01,2.4759485721588135,117142,0.0,28.02182960510254,1,94377.3046875
1778515999.05942106,117242251,0,11.36474609375,595.4547119140625,94373.9375,31.01,2.476539373397827,117242,0.0,28.02182960510254,1,94373.9375
1778515999.05942106,117242251,1,11.40869140625,595.4986572265625,94372.1640625,31.01,2.476539373397827,117242,0.0,28.02182960510254,1,94372.1640625
1778515999.15938115,117342211,0,11.60260009765625,595.6925659179688,94371.234375,31.01,2.4784088134765625,117342,0.0,28.02182960510254,1,94371.234375
1778515999.15938115,117342211,1,11.46435546875,595.5543212890625,94371.53125,31.01,2.4784088134765625,117342,0.0,28.02182960510254,1,94371.53125
1778515999.25934124,117442171,0,11.85845947265625,595.9484252929688,94368.3359375,31.0,2.4723434448242188,117442,0.0,28.02182960510254,1,94368.3359375
1778515999.25934124,117442171,1,11.78228759765625,595.8722534179688,94367.9296875,31.0,2.4723434448242188,117442,0.0,28.02182960510254,1,94367.9296875
1778515999.35930109,117542131,0,12.0968017578125,596.186767578125,94365.6328125,31.0,2.4632837772369385,117542,0.0,28.02182960510254,1,94365.6328125
1778515999.35930109,117542131,1,12.11151123046875,596.2014770507812,94364.1953125,31.0,2.4632837772369385,117542,0.0,28.02182960510254,1,94364.1953125
1778515999.45926118,117642091,0,12.32635498046875,596.4163208007812,94363.0234375,31.0,2.454948663711548,117642,0.0,28.02182960510254,1,94363.0234375
1778515999.45926118,117642091,1,12.27606201171875,596.3660278320312,94362.328125,31.0,2.454948663711548,117642,0.0,28.02182960510254,1,94362.328125
1778515999.55922103,117742051,0,12.55828857421875,596.6482543945312,94360.390625,31.0,2.4253275394439697,117742,0.0,28.02182960510254,1,94360.390625
1778515999.55922103,117742051,1,12.599853515625,596.6898193359375,94358.6640625,31.0,2.4253275394439697,117742,0.0,28.02182960510254,1,94358.6640625
1778515999.66001415,117842844,0,12.764404296875,596.8543701171875,94358.0625,31.0,2.3630905151367188,117842,0.0,28.02182960510254,1,94358.0625
1778515999.66001415,117842844,1,12.608642578125,596.6986083984375,94358.5546875,31.0,2.3630905151367188,117842,0.0,28.02182960510254,1,94358.5546875
1778515999.75997424,117942804,0,12.97637939453125,597.0663452148438,94355.65625,31.0,2.2828102111816406,117942,0.0,28.02182960510254,1,94355.65625
1778515999.75997424,117942804,1,12.84063720703125,596.9306030273438,94355.9296875,31.0,2.2828102111816406,117942,0.0,28.02182960510254,1,94355.9296875
1778515999.85993409,118042764,0,13.17608642578125,597.2660522460938,94353.390625,31.0,2.1956825256347656,118042,0.0,28.02182960510254,1,94353.390625
1778515999.85993409,118042764,1,13.03204345703125,597.1220092773438,94353.7578125,31.0,2.1956825256347656,118042,0.0,28.02182960510254,1,94353.7578125
1778515999.95989418,118142724,0,13.3553466796875,597.4453125,94351.3515625,31.0,2.1087265014648438,118142,0.0,28.02182960510254,1,94351.3515625
1778515999.95989418,118142724,1,13.4407958984375,597.53076171875,94349.1171875,31.0,2.1087265014648438,118142,0.0,28.02182960510254,1,94349.1171875
1778516000.05985403,118242684,0,13.5262451171875,597.6162109375,94349.4296875,31.0,2.0145416259765625,118242,0.0,28.02182960510254,1,94349.4296875
1778516000.05985403,118242684,1,13.4876708984375,597.57763671875,94348.59375,31.0,2.0145416259765625,118242,0.0,28.02182960510254,1,94348.59375
1778516000.15981412,118342644,0,13.69378662109375,597.7837524414062,94347.5234375,31.0,1.8992804288864136,118342,0.0,28.02182960510254,1,94347.5234375
1778516000.15981412,118342644,1,13.57318115234375,597.6631469726562,94347.625,31.0,1.8992804288864136,118342,0.0,28.02182960510254,1,94347.625
1778516000.25977421,118442604,0,13.84368896484375,597.9336547851562,94345.828125,31.0,1.781158447265625,118442,0.0,28.02182960510254,1,94345.828125
1778516000.25977421,118442604,1,13.58782958984375,597.6777954101562,94347.4609375,31.0,1.781158447265625,118442,0.0,28.02182960510254,1,94347.4609375
1778516000.35973406,118542564,0,13.98486328125,598.0748291015625,94344.2265625,31.0,1.678466796875,118542,0.0,28.02182960510254,1,94344.2265625
1778516000.35973406,118542564,1,14.05224609375,598.1422119140625,94342.1953125,30.99,1.678466796875,118542,0.0,28.02182960510254,1,94342.1953125
1778516000.45969415,118642524,0,14.1171875,598.2071533203125,94342.7265625,30.99,1.576995849609375,118642,0.0,28.02182960510254,1,94342.7265625
1778516000.45969415,118642524,1,13.83203125,597.9219970703125,94344.6953125,31.0,1.576995849609375,118642,0.0,28.02182960510254,1,94344.6953125
1778516000.55965424,118742484,0,14.23492431640625,598.3248901367188,94341.390625,30.99,1.4683531522750854,118742,0.0,28.02182960510254,1,94341.390625
1778516000.55965424,118742484,1,13.99658203125,598.0865478515625,94342.8203125,31.0,1.4683531522750854,118742,0.0,28.02182960510254,1,94342.8203125
1778516000.65961409,118842444,0,14.34674072265625,598.4367065429688,94340.1171875,30.99,1.36016845703125,118842,0.0,28.02182960510254,1,94340.1171875
1778516000.65961409,118842444,1,14.31402587890625,598.4039916992188,94339.21875,30.99,1.36016845703125,118842,0.0,28.02182960510254,1,94339.21875
1778516000.75957417,118942404,0,14.44342041015625,598.5333862304688,94339.03125,30.99,1.2537957429885864,118942,0.0,28.02182960510254,1,94339.03125
1778516000.75957417,118942404,1,14.40240478515625,598.4923706054688,94338.21875,30.99,1.2537957429885864,118942,0.0,28.02182960510254,1,94338.21875
1778516000.85953403,119042364,0,14.52593994140625,598.6159057617188,94338.0859375,30.99,1.1450767517089844,119042,0.0,28.02182960510254,1,94338.0859375
1778516000.85953403,119042364,1,14.41412353515625,598.5040893554688,94338.0859375,30.99,1.1450767517089844,119042,0.0,28.02182960510254,1,94338.0859375
1778516000.95949411,119142324,0,14.6055908203125,598.695556640625,94337.1875,30.99,1.0306930541992188,119142,0.0,28.02182960510254,1,94337.1875
1778516000.95949411,119142324,1,14.5406494140625,598.630615234375,94336.65625,30.99,1.0306930541992188,119142,0.0,28.02182960510254,1,94336.65625
1778516001.05945420,119242284,0,14.6759033203125,598.765869140625,94336.390625,30.99,0.9179306030273438,119242,0.0,28.02182960510254,1,94336.390625
1778516001.05945420,119242284,1,14.67010498046875,598.7600708007812,94335.1953125,30.99,0.9179306030273438,119242,0.0,28.02182960510254,1,94335.1953125
1778516001.15941405,119342244,0,14.73504638671875,598.8250122070312,94335.7265625,30.99,0.8211326599121094,119342,0.0,28.02182960510254,1,94335.7265625
1778516001.15941405,119342244,1,14.62030029296875,598.7102661132812,94335.7578125,30.99,0.8211326599121094,119342,0.0,28.02182960510254,1,94335.7578125
1778516001.25937414,119442204,0,14.78778076171875,598.8777465820312,94335.1171875,30.99,0.7366752624511719,119442,0.0,28.02182960510254,1,94335.1171875
1778516001.25937414,119442204,1,14.55523681640625,598.6452026367188,94336.484375,30.99,0.7366752624511719,119442,0.0,28.02182960510254,1,94336.484375
1778516001.35933423,119542164,0,14.82586669921875,598.9158325195312,94334.6875,30.99,0.6490898728370667,119542,0.0,28.02182960510254,1,94334.6875
1778516001.35933423,119542164,1,14.55523681640625,598.6452026367188,94336.484375,30.99,0.6490898728370667,119542,0.0,28.02182960510254,1,94336.484375
1778516001.45929408,119642124,0,14.85272216796875,598.9426879882812,94334.390625,30.99,0.5522728562355042,119642,0.0,28.02182960510254,1,94334.390625
1778516001.45929408,119642124,1,14.62030029296875,598.7102661132812,94335.7578125,30.99,0.5522728562355042,119642,0.0,28.02182960510254,1,94335.7578125
1778516001.55925417,119742084,0,14.86444091796875,598.9544067382812,94334.25,30.99,0.4438209533691406,119742,0.0,28.02182960510254,1,94334.25
1778516001.55925417,119742084,1,14.6524658203125,598.742431640625,94335.3828125,31.0,0.4438209533691406,119742,0.0,28.02182960510254,1,94335.3828125
1778516001.65921426,119842044,0,14.87615966796875,598.9661254882812,94334.125,30.99,0.3257942199707031,119842,0.0,28.02182960510254,1,94334.125
1778516001.65921426,119842044,1,14.70526123046875,598.7952270507812,94334.7890625,31.0,0.3257942199707031,119842,0.0,28.02182960510254,1,94334.7890625
1778516001.76000714,119942837,0,14.88787841796875,598.9778442382812,94333.984375,30.99,0.218505859375,119942,0.0,28.02182960510254,1,94333.984375
1778516001.76000714,119942837,1,14.64666748046875,598.7366333007812,94335.4609375,31.0,0.218505859375,119942,0.0,28.02182960510254,1,94335.4609375
1778516001.85996723,120042797,0,14.88787841796875,598.9778442382812,94333.984375,31.0,0.145416259765625,120042,0.0,28.02182960510254,1,94333.984375
1778516001.85996723,120042797,1,14.87274169921875,598.9627075195312,94332.8828125,30.99,0.145416259765625,120042,0.0,28.02182960510254,1,94332.8828125
1778516001.95992708,120142757,0,14.87615966796875,598.9661254882812,94334.125,31.0,0.0962829664349556,120142,0.0,28.02182960510254,1,94334.125
1778516001.95992708,120142757,1,14.67596435546875,598.7659301757812,94335.1171875,31.0,0.0962829664349556,120142,0.0,28.02182960510254,1,94335.1171875
1778516002.05988717,120242717,0,14.87615966796875,598.9661254882812,94334.125,31.0,0.040283203125,120242,0.0,28.02182960510254,1,94334.125
1778516002.05988717,120242717,1,14.60211181640625,598.6920776367188,94335.953125,31.0,0.040283203125,120242,0.0,28.02182960510254,1,94335.953125
1778516002.15984726,120342677,0,14.86444091796875,598.9544067382812,94334.25,31.0,-0.018310546875,120342,0.0,28.02182960510254,1,94334.25
1778516002.15984726,120342677,1,14.6055908203125,598.695556640625,94335.921875,31.0,-0.018310546875,120342,0.0,28.02182960510254,1,94335.921875
1778516002.25980711,120442637,0,14.86444091796875,598.9544067382812,94334.25,31.0,-0.05126953125,120442,0.0,28.02182960510254,1,94334.25
1778516002.25980711,120442637,1,14.91424560546875,599.0042114257812,94332.421875,31.0,-0.05126953125,120442,0.0,28.02182960510254,1,94332.421875
1778516002.35976720,120542597,0,14.85272216796875,598.9426879882812,94334.390625,31.0,-0.05859375,120542,0.0,28.02182960510254,1,94334.390625
1778516002.35976720,120542597,1,14.55523681640625,598.6452026367188,94336.484375,31.0,-0.05859375,120542,0.0,28.02182960510254,1,94336.484375
1778516002.45972705,120642557,0,14.85272216796875,598.9426879882812,94334.390625,31.0,-0.05859375,120642,0.0,28.02182960510254,1,94334.390625
1778516002.45972705,120642557,1,14.67010498046875,598.7600708007812,94335.1953125,31.0,-0.05859375,120642,0.0,28.02182960510254,1,94335.1953125
1778516002.55968714,120742517,0,14.85272216796875,598.9426879882812,94334.390625,31.0,-0.054931640625,120742,0.0,28.02182960510254,1,94334.390625
1778516002.55968714,120742517,1,14.85809326171875,598.9480590820312,94333.0546875,31.0,-0.054931640625,120742,0.0,28.02182960510254,1,94333.0546875
1778516002.65964723,120842477,0,14.85272216796875,598.9426879882812,94334.390625,31.0,-0.040283203125,120842,0.0,28.02182960510254,1,94334.390625
1778516002.65964723,120842477,1,14.76141357421875,598.8513793945312,94334.15625,31.0,-0.040283203125,120842,0.0,28.02182960510254,1,94334.15625
1778516002.75960708,120942437,0,14.85272216796875,598.9426879882812,94334.390625,31.0,-0.01831054501235485,120942,0.0,28.02182960510254,1,94334.390625
1778516002.75960708,120942437,1,14.86981201171875,598.9597778320312,94332.9296875,31.0,-0.01831054501235485,120942,0.0,28.02182960510254,1,94332.9296875
1778516002.85956717,121042397,0,14.85272216796875,598.9426879882812,94334.390625,31.0,-0.003662109375,121042,0.0,28.02182960510254,1,94334.390625
1778516002.85956717,121042397,1,14.5582275390625,598.648193359375,94336.453125,31.0,-0.003662109375,121042,0.0,28.02182960510254,1,94336.453125
1778516002.95952725,121142357,0,14.85272216796875,598.9426879882812,94334.390625,31.0,0.0,121142,0.0,28.02182960510254,1,94334.390625
1778516002.95952725,121142357,1,14.91424560546875,599.0042114257812,94332.421875,31.0,0.0,121142,0.0,28.02182960510254,1,94332.421875
1778516003.05948710,121242317,0,14.86444091796875,598.9544067382812,94334.25,31.0,0.003662109375,121242,0.0,28.02182960510254,1,94334.25
1778516003.05948710,121242317,1,14.92889404296875,599.0188598632812,94332.2578125,31.0,0.003662109375,121242,0.0,28.02182960510254,1,94332.2578125
1778516003.15944719,121342277,0,14.86444091796875,598.9544067382812,94334.25,31.0,0.01831054501235485,121342,0.0,28.02182960510254,1,94334.25
1778516003.15944719,121342277,1,14.88787841796875,598.9778442382812,94332.7265625,31.0,0.01831054501235485,121342,0.0,28.02182960510254,1,94332.7265625
1778516003.25940704,121442237,0,14.86444091796875,598.9544067382812,94334.25,31.0,0.03662109375,121442,0.0,28.02182960510254,1,94334.25
1778516003.25940704,121442237,1,14.6612548828125,598.751220703125,94335.2890625,31.0,0.03662109375,121442,0.0,28.02182960510254,1,94335.2890625
1778516003.35936713,121542197,0,14.87615966796875,598.9661254882812,94334.125,31.0,0.040283203125,121542,0.0,28.02182960510254,1,94334.125
1778516003.35936713,121542197,1,14.7315673828125,598.821533203125,94334.484375,31.0,0.040283203125,121542,0.0,28.02182960510254,1,94334.484375
1778516003.45932722,121642157,0,14.87615966796875,598.9661254882812,94334.125,31.0,0.0366210900247097,121642,0.0,28.02182960510254,1,94334.125
1778516003.45932722,121642157,1,14.82293701171875,598.9129028320312,94333.453125,31.0,0.0366210900247097,121642,0.0,28.02182960510254,1,94333.453125
1778516003.55928707,121742117,0,14.88787841796875,598.9778442382812,94333.984375,31.0,0.0439453125,121742,0.0,28.02182960510254,1,94333.984375
1778516003.55928707,121742117,1,14.90545654296875,598.9954223632812,94332.5234375,31.0,0.0439453125,121742,0.0,28.02182960510254,1,94332.5234375
1778516003.65924716,121842077,0,14.88787841796875,598.9778442382812,94333.984375,31.0,0.054931640625,121842,0.0,28.02182960510254,1,94333.984375
1778516003.65924716,121842077,1,14.86395263671875,598.9539184570312,94332.9921875,31.0,0.054931640625,121842,0.0,28.02182960510254,1,94332.9921875
1778516003.75920725,121942037,0,14.89666748046875,598.9866333007812,94333.890625,31.0,0.05767822265625,121942,0.0,28.02182960510254,1,94333.890625
1778516003.75920725,121942037,1,14.7554931640625,598.845458984375,94334.21875,31.0,0.05767822265625,121942,0.0,28.02182960510254,1,94334.21875
1778516003.86000013,122042830,0,14.89666748046875,598.9866333007812,94333.890625,31.0,0.0540161170065403,122042,0.0,28.02182960510254,1,94333.890625
1778516003.86000013,122042830,1,14.91131591796875,599.0012817382812,94332.453125,31.0,0.0540161170065403,122042,0.0,28.02182960510254,1,94332.453125
1778516003.95996022,122142790,0,14.90545654296875,598.9954223632812,94333.78125,31.0,0.0485229454934597,122142,0.0,28.02182960510254,1,94333.78125
1778516003.95996022,122142790,1,14.83172607421875,598.9216918945312,94333.3515625,31.0,0.0485229454934597,122142,0.0,28.02182960510254,1,94333.3515625
1778516004.05992007,122242750,0,14.90545654296875,598.9954223632812,94333.78125,31.0,0.04486083984375,122242,0.0,28.02182960510254,1,94333.78125
1778516004.05992007,122242750,1,14.67010498046875,598.7600708007812,94335.1953125,31.0,0.04486083984375,122242,0.0,28.02182960510254,1,94335.1953125
1778516004.15988016,122342710,0,14.91424560546875,599.0042114257812,94333.6875,31.0,0.0439453125,122342,0.0,28.02182960510254,1,94333.6875
1778516004.15988016,122342710,1,14.76141357421875,598.8513793945312,94334.15625,31.0,0.0439453125,122342,0.0,28.02182960510254,1,94334.15625
1778516004.25984025,122442670,0,14.91424560546875,599.0042114257812,94333.6875,31.0,0.0439453125,122442,0.0,28.02182960510254,1,94333.6875
1778516004.25984025,122442670,1,14.97576904296875,599.0657348632812,94331.71875,31.0,0.0439453125,122442,0.0,28.02182960510254,1,94331.71875
1778516004.35980010,122542630,0,14.91424560546875,599.0042114257812,94333.6875,31.0,0.0411987341940403,122542,0.0,28.02182960510254,1,94333.6875
1778516004.35980010,122542630,1,14.72283935546875,598.8128051757812,94334.59375,31.0,0.0411987341940403,122542,0.0,28.02182960510254,1,94334.59375
1778516004.45976019,122642590,0,14.92303466796875,599.0130004882812,94333.5859375,31.0,0.032958984375,122642,0.0,28.02182960510254,1,94333.5859375
1778516004.45976019,122642590,1,14.81707763671875,598.9070434570312,94333.5234375,31.0,0.032958984375,122642,0.0,28.02182960510254,1,94333.5234375
1778516004.55972004,122742550,0,14.92303466796875,599.0130004882812,94333.5859375,31.0,0.02746582217514515,122742,0.0,28.02182960510254,1,94333.5859375
1778516004.55972004,122742550,1,14.80828857421875,598.8982543945312,94333.625,31.0,0.02746582217514515,122742,0.0,28.02182960510254,1,94333.625
1778516004.65968013,122842510,0,14.92303466796875,599.0130004882812,94333.5859375,31.01,0.03021240234375,122842,0.0,28.02182960510254,1,94333.5859375
1778516004.65968013,122842510,1,14.67596435546875,598.7659301757812,94335.1171875,31.01,0.03021240234375,122842,0.0,28.02182960510254,1,94335.1171875
1778516004.75964022,122942470,0,14.92303466796875,599.0130004882812,94333.5859375,31.01,0.0274658203125,122942,0.0,28.02182960510254,1,94333.5859375
1778516004.75964022,122942470,1,14.98162841796875,599.0715942382812,94331.65625,31.0,0.0274658203125,122942,0.0,28.02182960510254,1,94331.65625
1778516004.85960007,123042430,0,14.93475341796875,599.0247192382812,94333.453125,31.01,0.01739501953125,123042,0.0,28.02182960510254,1,94333.453125
1778516004.85960007,123042430,1,14.76434326171875,598.8543090820312,94334.125,31.01,0.01739501953125,123042,0.0,28.02182960510254,1,94334.125
1778516004.95956016,123142390,0,14.93475341796875,599.0247192382812,94333.453125,31.01,0.02105712890625,123142,0.0,28.02182960510254,1,94333.453125
1778516004.95956016,123142390,1,14.99627685546875,599.0862426757812,94331.484375,31.0,0.02105712890625,123142,0.0,28.02182960510254,1,94331.484375
1778516005.05952024,123242350,0,14.93475341796875,599.0247192382812,94333.453125,31.01,0.03662109375,123242,0.0,28.02182960510254,1,94333.453125
1778516005.05952024,123242350,1,14.79949951171875,598.8894653320312,94333.71875,31.01,0.03662109375,123242,0.0,28.02182960510254,1,94333.71875
1778516005.15948009,123342310,0,14.93475341796875,599.0247192382812,94333.453125,31.01,0.03662109375,123342,0.0,28.02182960510254,1,94333.453125
1778516005.15948009,123342310,1,14.89373779296875,598.9837036132812,94332.6484375,31.01,0.03662109375,123342,0.0,28.02182960510254,1,94332.6484375
1778516005.25944018,123442270,0,14.93475341796875,599.0247192382812,94333.453125,31.01,0.01831054501235485,123442,0.0,28.02182960510254,1,94333.453125
1778516005.25944018,123442270,1,14.95233154296875,599.0422973632812,94331.984375,31.01,0.01831054501235485,123442,0.0,28.02182960510254,1,94331.984375
1778516005.35940003,123542230,0,14.94647216796875,599.0364379882812,94333.3203125,31.01,0.00732421875,123542,0.0,28.02182960510254,1,94333.3203125
1778516005.35940003,123542230,1,14.72283935546875,598.8128051757812,94334.59375,31.01,0.00732421875,123542,0.0,28.02182960510254,1,94334.59375
1778516005.45936012,123642190,0,14.94647216796875,599.0364379882812,94333.3203125,31.01,0.01831054501235485,123642,0.0,28.02182960510254,1,94333.3203125
1778516005.45936012,123642190,1,14.99627685546875,599.0862426757812,94331.484375,31.01,0.01831054501235485,123642,0.0,28.02182960510254,1,94331.484375
1778516005.55932021,123742150,0,14.94647216796875,599.0364379882812,94333.3203125,31.01,0.03662109375,123742,0.0,28.02182960510254,1,94333.3203125
1778516005.55932021,123742150,1,14.96697998046875,599.0569458007812,94331.828125,31.01,0.03662109375,123742,0.0,28.02182960510254,1,94331.828125
1778516005.65928006,123842110,0,14.94647216796875,599.0364379882812,94333.3203125,31.01,0.03662109375,123842,0.0,28.02182960510254,1,94333.3203125
1778516005.65928006,123842110,1,14.76141357421875,598.8513793945312,94334.15625,31.01,0.03662109375,123842,0.0,28.02182960510254,1,94334.15625
1778516005.75924015,123942070,0,14.94647216796875,599.0364379882812,94333.3203125,31.01,0.01831054501235485,123942,0.0,28.02182960510254,1,94333.3203125
1778516005.75924015,123942070,1,14.87274169921875,598.9627075195312,94332.8828125,31.01,0.01831054501235485,123942,0.0,28.02182960510254,1,94332.8828125
1778516005.85920024,124042030,0,14.94647216796875,599.0364379882812,94333.3203125,31.01,0.003662109375,124042,0.0,28.02182960510254,1,94333.3203125
1778516005.85920024,124042030,1,14.88787841796875,598.9778442382812,94332.7265625,31.01,0.003662109375,124042,0.0,28.02182960510254,1,94332.7265625
1778516005.95999312,124142823,0,14.95819091796875,599.0481567382812,94333.1953125,31.01,0.003662109375,124142,0.0,28.02182960510254,1,94333.1953125
1778516005.95999312,124142823,1,14.75262451171875,598.8425903320312,94334.25,31.01,0.003662109375,124142,0.0,28.02182960510254,1,94334.25
1778516006.05995321,124242783,0,14.95819091796875,599.0481567382812,94333.1953125,31.01,0.01831054501235485,124242,0.0,28.02182960510254,1,94333.1953125
1778516006.05995321,124242783,1,14.84637451171875,598.9363403320312,94333.1953125,31.01,0.01831054501235485,124242,0.0,28.02182960510254,1,94333.1953125
1778516006.15991306,124342743,0,14.95819091796875,599.0481567382812,94333.1953125,31.01,0.03662109375,124342,0.0,28.02182960510254,1,94333.1953125
1778516006.15991306,124342743,1,15.00799560546875,599.0979614257812,94331.359375,31.01,0.03662109375,124342,0.0,28.02182960510254,1,94331.359375
1778516006.25987315,124442703,0,14.95819091796875,599.0481567382812,94333.1953125,31.01,0.03662109375,124442,0.0,28.02182960510254,1,94333.1953125
1778516006.25987315,124442703,1,14.96112060546875,599.0510864257812,94331.890625,31.01,0.03662109375,124442,0.0,28.02182960510254,1,94331.890625
1778516006.35983324,124542663,0,14.95819091796875,599.0481567382812,94333.1953125,31.01,0.01831054501235485,124542,0.0,28.02182960510254,1,94333.1953125
1778516006.35983324,124542663,1,14.92010498046875,599.0100708007812,94332.3515625,31.01,0.01831054501235485,124542,0.0,28.02182960510254,1,94332.3515625
1778516006.45979309,124642623,0,14.95819091796875,599.0481567382812,94333.1953125,31.01,0.003662109375,124642,0.0,28.02182960510254,1,94333.1953125
1778516006.45979309,124642623,1,14.6846923828125,598.774658203125,94335.0234375,31.01,0.003662109375,124642,0.0,28.02182960510254,1,94335.0234375
1778516006.55975318,124742583,0,14.96697998046875,599.0569458007812,94333.0859375,31.01,0.00274658203125,124742,0.0,28.02182960510254,1,94333.0859375
1778516006.55975318,124742583,1,14.6612548828125,598.751220703125,94335.2890625,31.01,0.00274658203125,124742,0.0,28.02182960510254,1,94335.2890625
1778516006.65971303,124842543,0,14.96697998046875,599.0569458007812,94333.0859375,31.01,0.013732911087572575,124842,0.0,28.02182960510254,1,94333.0859375
1778516006.65971303,124842543,1,14.6612548828125,598.751220703125,94335.2890625,31.01,0.013732911087572575,124842,0.0,28.02182960510254,1,94335.2890625
1778516006.75967312,124942503,0,14.96697998046875,599.0569458007812,94333.0859375,31.01,0.0274658203125,124942,0.0,28.02182960510254,1,94333.0859375
1778516006.75967312,124942503,1,14.85809326171875,598.9480590820312,94333.0546875,31.01,0.0274658203125,124942,0.0,28.02182960510254,1,94333.0546875
1778516006.85963321,125042463,0,14.96697998046875,599.0569458007812,94333.0859375,31.01,0.0274658203125,125042,0.0,28.02182960510254,1,94333.0859375
1778516006.85963321,125042463,1,14.91131591796875,599.0012817382812,94332.453125,31.01,0.0274658203125,125042,0.0,28.02182960510254,1,94332.453125
1778516006.95959306,125142423,0,14.96697998046875,599.0569458007812,94333.0859375,31.01,0.013732911087572575,125142,0.0,28.02182960510254,1,94333.0859375
1778516006.95959306,125142423,1,14.90252685546875,598.9924926757812,94332.5546875,31.01,0.013732911087572575,125142,0.0,28.02182960510254,1,94332.5546875
1778516007.05955315,125242383,0,14.96697998046875,599.0569458007812,94333.0859375,31.01,0.00274658203125,125242,0.0,28.02182960510254,1,94333.0859375
1778516007.05955315,125242383,1,15.01434326171875,599.1043090820312,94331.2890625,31.01,0.00274658203125,125242,0.0,28.02182960510254,1,94331.2890625
1778516007.15951324,125342343,0,14.96697998046875,599.0569458007812,94333.0859375,31.01,0.0,125342,0.0,28.02182960510254,1,94333.0859375
1778516007.15951324,125342343,1,14.6846923828125,598.774658203125,94335.0234375,31.01,0.0,125342,0.0,28.02182960510254,1,94335.0234375
1778516007.25947309,125442303,0,14.96697998046875,599.0569458007812,94333.0859375,31.01,0.0,125442,0.0,28.02182960510254,1,94333.0859375
1778516007.25947309,125442303,1,14.98455810546875,599.0745239257812,94331.625,31.01,0.0,125442,0.0,28.02182960510254,1,94331.625
1778516007.35943317,125542263,0,14.97576904296875,599.0657348632812,94332.9921875,31.01,0.00274658203125,125542,0.0,28.02182960510254,1,94332.9921875
1778516007.35943317,125542263,1,14.69354248046875,598.7835083007812,94334.921875,31.01,0.00274658203125,125542,0.0,28.02182960510254,1,94334.921875
1778516007.45939302,125642223,0,14.97576904296875,599.0657348632812,94332.9921875,31.01,0.013732911087572575,125642,0.0,28.02182960510254,1,94332.9921875
1778516007.45939302,125642223,1,14.69940185546875,598.7893676757812,94334.8515625,31.01,0.013732911087572575,125642,0.0,28.02182960510254,1,94334.8515625
1778516007.55935311,125742183,0,14.97576904296875,599.0657348632812,94332.9921875,31.01,0.0274658203125,125742,0.0,28.02182960510254,1,94332.9921875
1778516007.55935311,125742183,1,14.83172607421875,598.9216918945312,94333.3515625,31.01,0.0274658203125,125742,0.0,28.02182960510254,1,94333.3515625
1778516007.65931320,125842143,0,14.97576904296875,599.0657348632812,94332.9921875,31.01,0.0274658203125,125842,0.0,28.02182960510254,1,94332.9921875
1778516007.65931320,125842143,1,14.89666748046875,598.9866333007812,94332.6171875,31.01,0.0274658203125,125842,0.0,28.02182960510254,1,94332.6171875
1778516007.75927305,125942103,0,14.97576904296875,599.0657348632812,94332.9921875,31.01,0.013732911087572575,125942,0.0,28.02182960510254,1,94332.9921875
1778516007.75927305,125942103,1,14.80828857421875,598.8982543945312,94333.625,31.02,0.013732911087572575,125942,0.0,28.02182960510254,1,94333.625
1778516007.85923314,126042063,0,14.97576904296875,599.0657348632812,94332.9921875,31.02,0.00274658203125,126042,0.0,28.02182960510254,1,94332.9921875
1778516007.85923314,126042063,1,14.81707763671875,598.9070434570312,94333.5234375,31.02,0.00274658203125,126042,0.0,28.02182960510254,1,94333.5234375
1778516007.96002603,126142856,0,14.97576904296875,599.0657348632812,94332.9921875,31.02,0.0,126142,0.0,28.02182960510254,1,94332.9921875
