timestamp,TimeUS,DesRoll,Roll,DesPitch,Pitch,DesYaw,Yaw,AEKF
1778515987.16001606,105342846,-0.00014592221123166382,0.07198009639978409,8.898103988030925e-05,0.06057000905275345,354.2610168457031,354.2610168457031,3
1778515987.25997615,105442806,-0.00014592218212783337,0.07178681343793869,8.898103260435164e-05,0.060583047568798065,354.2605895996094,354.2605895996094,3
1778515987.35993624,105542766,-0.00014592210936825722,0.07165748625993729,8.898103988030925e-05,0.06048431620001793,354.2602233886719,354.2602233886719,3
1778515987.45989609,105642726,-0.000145922094816342,0.07152996212244034,8.898103988030925e-05,0.060495175421237946,354.2599792480469,354.2599792480469,3
1778515987.55985618,105742686,-0.00014592208026442677,0.07150015234947205,8.89810107764788e-05,0.060523055493831635,354.259765625,354.259765625,3
1778515987.65981603,105842646,-0.00014592210936825722,0.07172469049692154,8.898105443222448e-05,0.06106710433959961,354.2596435546875,354.2596435546875,3
1778515987.75977612,105942606,-0.000145922094816342,0.07190144062042236,8.898103988030925e-05,0.061540309339761734,354.2591552734375,354.2591552734375,3
1778515987.85973620,106042566,-0.00014592206571251154,0.07251226902008057,8.898106898413971e-05,0.06203978508710861,354.25885009765625,354.25885009765625,3
1778515987.95969605,106142526,-0.00014592206571251154,0.07317889481782913,8.898107626009732e-05,0.06272736191749573,354.25836181640625,354.25836181640625,3
1778515988.05965614,106242486,-0.00014592203660868108,0.07403840869665146,8.898108353605494e-05,0.06346137821674347,354.25799560546875,354.25799560546875,3
1778515988.15961623,106342446,-0.00014592197840102017,0.07496624439954758,8.89810617081821e-05,0.0644923746585846,354.2577209472656,354.2577209472656,3
1778515988.25957608,106442406,-0.00014592196384910494,0.07588565349578857,8.898103988030925e-05,0.06545157730579376,354.2574768066406,354.2574768066406,3
1778515988.35953617,106542366,-0.00014592197840102017,0.07685037702322006,8.89810617081821e-05,0.06671048700809479,354.257080078125,354.257080078125,3
1778515988.45949626,106642326,-0.00014592197840102017,0.0782015472650528,8.898103988030925e-05,0.06802326440811157,354.2567443847656,354.2567443847656,3
1778515988.55945611,106742286,-0.00014592196384910494,0.07949003577232361,8.89810107764788e-05,0.06935104727745056,354.25640869140625,354.25640869140625,3
1778515988.65941620,106842246,-0.00014592192019335926,0.08105488121509552,8.898098167264834e-05,0.07074189186096191,354.2559814453125,354.2559814453125,3
1778515988.75937605,106942206,-0.00014592193474527448,0.08245068788528442,8.898103260435164e-05,0.07222357392311096,354.2556457519531,354.2556457519531,3
1778515988.85933614,107042166,-0.00014592192019335926,0.08410710841417313,8.898102532839403e-05,0.07386677712202072,354.2552795410156,354.2552795410156,3
1778515988.95929623,107142126,-0.00014592192019335926,0.08570372313261032,8.898103260435164e-05,0.07554320245981216,354.2548828125,354.2548828125,3
1778515989.05925608,107242086,-0.0001459219929529354,0.08712084591388702,8.898107626009732e-05,0.0771525576710701,354.2544250488281,354.2544250488281,3
1778515989.15921617,107342046,-0.00014592192019335926,0.08861591666936874,8.898101805243641e-05,0.07871325314044952,354.25390625,354.25390625,3
1778515989.26000905,107442839,-0.00014592192019335926,0.09015382081270218,8.89810107764788e-05,0.0803019255399704,354.2537841796875,354.2537841796875,3
1778515989.35996914,107542799,-0.00014592190564144403,0.09170664846897125,8.898100350052118e-05,0.08188922703266144,354.25360107421875,354.25360107421875,3
1778515989.45992923,107642759,-0.00014592190564144403,0.09316693991422653,8.898096712073311e-05,0.08355269581079483,354.2530822753906,354.2530822753906,3
1778515989.55988908,107742719,-0.00014592193474527448,0.09482476860284805,8.898097439669073e-05,0.08515004068613052,354.252685546875,354.252685546875,3
1778515989.65984917,107842679,-0.00014592193474527448,0.09668246656656265,8.898096712073311e-05,0.08694431930780411,354.2518615722656,354.2518615722656,3
1778515989.75980926,107942639,-0.0001459219929529354,0.09838289022445679,8.898098167264834e-05,0.08864892274141312,354.2511901855469,354.2511901855469,3
1778515989.85976911,108042599,-0.00014592203660868108,0.1004226803779602,8.898098167264834e-05,0.09030220657587051,354.2505798339844,354.2505798339844,3
1778515989.95972919,108142559,-0.00014592206571251154,0.10209773480892181,8.89809598447755e-05,0.09211491793394089,354.2498779296875,354.2498779296875,3
1778515990.05968904,108242519,-0.00014592208026442677,0.10378329455852509,8.89809598447755e-05,0.0937369093298912,354.2488708496094,354.2488708496094,3
1778515990.15964913,108342479,-0.0001459220511605963,0.1055997684597969,8.89809089130722e-05,0.0956333801150322,354.24810791015625,354.24810791015625,3
1778515990.25960922,108442439,-0.00014592200750485063,0.10741063207387924,8.898086525732651e-05,0.09738032519817352,354.2474365234375,354.2474365234375,3
1778515990.35956907,108542399,-0.0001459219929529354,0.10902824252843857,8.89808579813689e-05,0.09900994598865509,354.2468566894531,354.24688720703125,3
1778515990.45952916,108642359,-0.00014592197840102017,0.11075949668884277,8.898082887753844e-05,0.10088136047124863,354.2461853027344,354.2461853027344,3
1778515990.55948925,108742319,-0.00014592192019335926,0.11261716485023499,8.898082160158083e-05,0.10262078046798706,354.2453308105469,354.2453308105469,3
1778515990.65944910,108842279,-0.00014592187653761357,0.11459486931562424,8.898079249775037e-05,0.10431287437677383,354.2443542480469,354.24432373046875,3
1778515990.75940919,108942239,-0.00014592190564144403,0.11641672253608704,8.898076339391991e-05,0.1062576174736023,354.2434997558594,354.2434997558594,3
1778515990.85936904,109042199,-0.00014592192019335926,0.11797622591257095,8.898079249775037e-05,0.10803462564945221,354.2425842285156,354.2425842285156,3
1778515990.95932913,109142159,-0.0001459219492971897,0.11976199597120285,8.898081432562321e-05,0.10981836915016174,354.24169921875,354.24169921875,3
1778515991.05928922,109242119,-0.0001459219492971897,0.12153078615665436,8.898082160158083e-05,0.11165891587734222,354.2408752441406,354.2408752441406,3
1778515991.15924907,109342079,-0.00014592200750485063,0.12363649159669876,8.898085070541129e-05,0.11362382024526596,354.2398681640625,354.2398681640625,3
1778515991.25920916,109442039,-0.00014592197840102017,0.12561748921871185,8.898082887753844e-05,0.11540289968252182,354.2391052246094,354.2391052246094,3
1778515991.36000204,109542832,-0.00014592196384910494,0.12722624838352203,8.89808070496656e-05,0.11714626103639603,354.23809814453125,354.23809814453125,3
1778515991.45996213,109642792,-0.00014592190564144403,0.12890948355197906,8.89807561179623e-05,0.1191113293170929,354.23712158203125,354.23712158203125,3
1778515991.55992222,109742752,-0.00014592184743378311,0.1307617872953415,8.898073429008946e-05,0.12112493067979813,354.2359313964844,354.2359313964844,3
1778515991.65988207,109842712,-0.00014592187653761357,0.1326061338186264,8.898076339391991e-05,0.12307609617710114,354.2349853515625,354.2349853515625,3
1778515991.75984216,109942672,-0.0001459218910895288,0.13455051183700562,8.898077066987753e-05,0.12477588653564453,354.2340393066406,354.2340393066406,3
1778515991.85980225,110042632,-0.00014592192019335926,0.1363988220691681,8.898078522179276e-05,0.12656153738498688,354.23297119140625,354.23297119140625,3
1778515991.95976210,110142592,-0.00014592192019335926,0.1384485363960266,8.898078522179276e-05,0.12845049798488617,354.2319030761719,354.2319030761719,3
1778515992.05972219,110242552,-0.00014592184743378311,0.1401856243610382,8.898076339391991e-05,0.1300445944070816,354.2308349609375,354.2308349609375,3
1778515992.15968204,110342512,-0.00014592187653761357,0.14201809465885162,8.898073429008946e-05,0.13188177347183228,354.22967529296875,354.22967529296875,3
1778515992.25964212,110442472,-0.00014592183288186789,0.14402389526367188,8.898068335838616e-05,0.13349312543869019,354.2286376953125,354.2286376953125,3
1778515992.35960221,110542432,-0.00014592180377803743,0.14590127766132355,8.898066880647093e-05,0.13512547314167023,354.2275085449219,354.2275085449219,3
1778515992.45956206,110642392,-0.00014592180377803743,0.1476679891347885,8.898068335838616e-05,0.13692258298397064,354.2265319824219,354.226318359375,3
1778515992.55952215,110742352,-0.00014592180377803743,0.14946429431438446,8.898068335838616e-05,0.1386563926935196,354.2265319824219,354.2252197265625,3
1778515992.65948224,110842312,-0.00014592180377803743,0.1513466238975525,8.898068335838616e-05,0.14035776257514954,354.2265319824219,354.2240905761719,3
1778515992.75944209,110942272,-0.00014592180377803743,0.15313881635665894,8.898068335838616e-05,0.14203038811683655,354.2265319824219,354.22271728515625,3
1778515992.85940218,111042232,-0.00014592180377803743,0.15488365292549133,8.898068335838616e-05,0.14389601349830627,354.2265319824219,354.22161865234375,3
1778515992.95936203,111142192,-0.00014592180377803743,0.15656475722789764,8.898068335838616e-05,0.1456257849931717,354.2265319824219,354.2202453613281,3
1778515993.05932212,111242152,-0.00014592180377803743,0.15832534432411194,8.898068335838616e-05,0.14724129438400269,354.2265319824219,354.2189636230469,3
1778515993.15928221,111342112,-0.00014592180377803743,0.15986268222332,8.898068335838616e-05,0.1488761454820633,354.2265319824219,354.2176818847656,3
1778515993.25924206,111442072,-0.007724115625023842,0.16145597398281097,-0.007360325660556555,0.1504574567079544,354.2265319824219,354.2164611816406,3
1778515993.35920215,111542032,-0.05340917035937309,0.1630246490240097,-0.052308954298496246,0.15199005603790283,354.2265319824219,354.2152404785156,3
1778515993.45999503,111642825,-0.09610695391893387,0.1646094173192978,-0.09416203945875168,0.1535843461751938,354.2265930175781,354.21368408203125,3
1778515993.55995512,111742785,-0.12194707244634628,0.16614127159118652,-0.11940901726484299,0.15510503947734833,354.2266540527344,354.21270751953125,3
1778515993.65991521,111842745,-0.13807864487171173,0.16768129169940948,-0.1351930797100067,0.15650755167007446,354.2266845703125,354.2116394042969,3
1778515993.75987506,111942705,-0.14883743226528168,0.16900523006916046,-0.14540566504001617,0.15798898041248322,354.2267150878906,354.21038818359375,3
1778515993.85983515,112042665,-0.15967394411563873,0.1315857470035553,-0.15553858876228333,0.12454734742641449,354.22674560546875,354.2091369628906,3
1778515993.95979524,112142625,-0.16938476264476776,-0.026577245444059372,-0.16453829407691956,-0.02710907720029354,354.2267761230469,354.2092590332031,3
1778515994.05975509,112242585,-0.17101694643497467,-0.15443579852581024,-0.16564013063907623,-0.14725910127162933,354.2267761230469,354.2094421386719,3
1778515994.15971518,112342545,-0.14647845923900604,-0.20092551410198212,-0.14190322160720825,-0.1943311244249344,354.2267150878906,354.2093811035156,3
1778515994.25967503,112442505,-0.09606742113828659,-0.1919361799955368,-0.09426787495613098,-0.18567076325416565,354.2265930175781,354.2091064453125,3
1778515994.35963511,112542465,-0.02087266370654106,-0.1418280303478241,-0.023994173854589462,-0.1391848623752594,354.2265319824219,354.2086486816406,3
1778515994.45959520,112642425,0.0647362619638443,-0.06280907243490219,0.0558398962020874,-0.06591293960809708,354.2265625,354.2080383300781,3
1778515994.55955505,112742385,0.14762021601200104,0.031040379777550697,0.1335398405790329,0.01735335774719715,354.2267150878906,354.2079772949219,3
1778515994.65951514,112842345,0.21558351814746857,0.10780633240938187,0.1974799484014511,0.0900811105966568,354.2269287109375,354.2079162597656,3
1778515994.75947523,112942305,0.2697451710700989,0.16906331479549408,0.24633748829364777,0.14496742188930511,354.2271423339844,354.2080383300781,3
1778515994.85943508,113042265,0.3087038993835449,0.2141805738210678,0.27983343601226807,0.18760356307029724,354.2273254394531,354.2080078125,3
1778515994.95939517,113142225,0.33890050649642944,0.24974171817302704,0.30503228306770325,0.22484546899795532,354.22747802734375,354.2073974609375,3
1778515995.05935526,113242185,0.358066588640213,0.27722954750061035,0.320352166891098,0.24597735702991486,354.2275695800781,354.206787109375,3
1778515995.15931511,113342145,0.3696058392524719,0.3013545274734497,0.3302777111530304,0.2636833190917969,354.2276306152344,354.2065734863281,3
1778515995.25927520,113442105,0.3727039694786072,0.30550259351730347,0.33348000049591064,0.2717788815498352,354.2276611328125,354.2067565917969,3
1778515995.35923505,113542065,0.3696500062942505,0.3127036392688751,0.33314117789268494,0.27649375796318054,354.2276611328125,354.2073974609375,3
1778515995.46002817,113642858,0.3592308461666107,0.3106042742729187,0.3271906077861786,0.2785327732563019,354.2276306152344,354.207763671875,3
1778515995.55998826,113742818,0.3494662344455719,0.3033617436885834,0.32023000717163086,0.26951315999031067,354.2275695800781,354.2076721191406,3
1778515995.65994811,113842778,0.3357996344566345,0.2949749529361725,0.3111822307109833,0.26497700810432434,352.5586242675781,352.5409240722656,3
1778515995.75990820,113942738,0.32014599442481995,0.28244543075561523,0.3060489594936371,0.265799343585968,352.55859375,352.5380859375,3
1778515995.85986805,114042698,0.3026215434074402,0.26720181107521057,0.29710620641708374,0.2633250653743744,352.55853271484375,352.5339660644531,3
1778515995.95982814,114142658,0.28777167201042175,0.25384417176246643,0.28590822219848633,0.2557525038719177,352.5584716796875,352.5402526855469,3
1778515996.05978823,114242618,0.27429938316345215,0.2432892769575119,0.27172285318374634,0.24250569939613342,352.55841064453125,352.5518798828125,3
1778515996.15974808,114342578,0.2635301649570465,0.236069917678833,0.2616381347179413,0.23342226445674896,352.558349609375,352.5626220703125,3
1778515996.25970817,114442538,0.2514035999774933,0.22899013757705688,0.2526842951774597,0.22612564265727997,352.5583190917969,352.56982421875,3
1778515996.35966825,114542498,0.23980067670345306,0.22146743535995483,0.24835556745529175,0.21752309799194336,352.55828857421875,352.57427978515625,3
1778515996.45962811,114642458,0.22755390405654907,0.2193215936422348,0.2473486214876175,0.21964296698570251,352.55828857421875,352.57537841796875,3
1778515996.55958819,114742418,0.21803458034992218,0.20908842980861664,0.25147053599357605,0.2201276570558548,352.5583190917969,352.5775146484375,3
1778515996.65954804,114842378,0.20872162282466888,0.1936764121055603,0.25587576627731323,0.2259366661310196,352.558349609375,352.575927734375,3
1778515996.75950813,114942338,0.20318521559238434,0.1819135546684265,0.26236701011657715,0.23599576950073242,352.5583801269531,352.5750732421875,3
1778515996.85946822,115042298,0.20063817501068115,0.1784839779138565,0.2673526108264923,0.2413886934518814,352.5583801269531,352.5722961425781,3
1778515996.95942807,115142258,0.20346425473690033,0.18365493416786194,0.2724577784538269,0.24453330039978027,352.55841064453125,352.57196044921875,3
1778515997.05938816,115242218,0.20696796476840973,0.1879800707101822,0.27560925483703613,0.24928142130374908,352.55841064453125,352.572509765625,3
1778515997.15934825,115342178,0.21302227675914764,0.19195671379566193,0.2794412672519684,0.2612361013889313,352.5584411621094,352.57421875,3
1778515997.25930810,115442138,0.21887323260307312,0.2033701390028,0.2808432877063751,0.2738029658794403,352.5584411621094,352.5757751464844,3
1778515997.35926819,115542098,0.22551381587982178,0.21142946183681488,0.27973970770835876,0.2741844654083252,352.5584411621094,352.577880859375,3
1778515997.45922804,115642058,0.2304922640323639,0.212290421128273,0.2751070261001587,0.27537164092063904,352.55841064453125,352.57525634765625,3
1778515997.56002116,115742851,0.23567664623260498,0.2170332372188568,0.27082738280296326,0.278975248336792,352.5583801269531,352.5713195800781,3
1778515997.65998125,115842811,0.23967820405960083,0.21655885875225067,0.2635820806026459,0.27618294954299927,352.558349609375,352.5666809082031,3
1778515997.75994110,115942771,0.24489066004753113,0.21480105817317963,0.2557455599308014,0.26513853669166565,352.5583190917969,352.5648498535156,3
1778515997.85990119,116042731,0.248867928981781,0.21369218826293945,0.24462291598320007,0.256996750831604,352.5582580566406,352.5641784667969,3
1778515997.95986104,116142691,0.25433918833732605,0.2223987877368927,0.23545320332050323,0.24339242279529572,352.5582275390625,352.565185546875,3
1778515998.05982113,116242651,0.2575288414955139,0.23578022420406342,0.225681334733963,0.22610771656036377,352.55816650390625,352.5655517578125,3
1778515998.15978122,116342611,0.25921374559402466,0.24412332475185394,0.21730895340442657,0.2106448858976364,352.55810546875,352.56610107421875,3
1778515998.25974107,116442571,0.25671136379241943,0.24382813274860382,0.2070622742176056,0.1998451203107834,352.55804443359375,352.5652160644531,3
1778515998.35970116,116542531,0.25389352440834045,0.24322420358657837,0.195488840341568,0.18778745830059052,352.5579833984375,352.5637512207031,3
1778515998.45966125,116642491,0.24840377271175385,0.24098843336105347,0.1809803992509842,0.16998611390590668,352.55792236328125,352.5604248046875,3
1778515998.55962110,116742451,0.24291346967220306,0.23818300664424896,0.16740910708904266,0.15481306612491608,352.5578308105469,352.5550842285156,3
1778515998.65958118,116842411,0.2364564687013626,0.23418913781642914,0.15539059042930603,0.1429971158504486,352.55780029296875,352.5516357421875,3
1778515998.75954103,116942371,0.23039460182189941,0.2265586405992508,0.14688941836357117,0.1322678029537201,352.5577697753906,352.553466796875,3
1778515998.85950112,117042331,0.22441959381103516,0.21984469890594482,0.14122721552848816,0.12469835579395294,352.5577392578125,352.5558166503906,3
1778515998.95946121,117142291,0.21947789192199707,0.21481922268867493,0.1369692087173462,0.1209651529788971,352.5577392578125,352.55816650390625,3
1778515999.05942106,117242251,0.21614821255207062,0.2114308923482895,0.13400137424468994,0.11867019534111023,352.5577087402344,352.558837890625,3
1778515999.15938115,117342211,0.21369291841983795,0.2091563194990158,0.1318230926990509,0.1169189065694809,352.5577087402344,352.55877685546875,3
1778515999.25934124,117442171,0.21184585988521576,0.20906488597393036,0.1301875114440918,0.11622940003871918,352.5577087402344,352.5570983886719,3
1778515999.35930109,117542131,0.20998096466064453,0.2072296291589737,0.1292356252670288,0.11506886780261993,352.5577087402344,352.5551452636719,3
1778515999.45926118,117642091,0.20587439835071564,0.20328983664512634,0.13008570671081543,0.11875666677951813,352.5577087402344,352.5530090332031,3
1778515999.55922103,117742051,0.19884519279003143,0.19489255547523499,0.13193243741989136,0.12307611852884293,352.5577087402344,352.5513000488281,3
1778515999.66001415,117842844,0.1906047761440277,0.1874871551990509,0.1327047199010849,0.1250503659248352,352.55767822265625,352.5500793457031,3
1778515999.75997424,117942804,0.18323583900928497,0.17884601652622223,0.13271112740039825,0.12884846329689026,352.55767822265625,352.550048828125,3
1778515999.85993409,118042764,0.17684713006019592,0.17264513671398163,0.1321045607328415,0.1271803379058838,352.55767822265625,352.5506286621094,3
1778515999.95989418,118142724,0.17226944863796234,0.16896384954452515,0.13204334676265717,0.12853699922561646,352.55767822265625,352.55084228515625,3
1778516000.05985403,118242684,0.16896435618400574,0.16606293618679047,0.1330777257680893,0.13129979372024536,352.5576477050781,352.5506591796875,3
1778516000.15981412,118342644,0.1658908873796463,0.15715382993221283,0.13480795919895172,0.13022087514400482,352.5576477050781,352.5506591796875,3
1778516000.25977421,118442604,0.16160358488559723,0.15367279946804047,0.1374247968196869,0.13178060948848724,352.5576477050781,352.5509033203125,3
1778516000.35973406,118542564,0.15790297091007233,0.14686179161071777,0.1425827443599701,0.13108526170253754,352.5576477050781,352.5511169433594,3
1778516000.45969415,118642524,0.1548088639974594,0.14045865833759308,0.14767751097679138,0.14282993972301483,352.55767822265625,352.5507507324219,3
1778516000.55965424,118742484,0.15283460915088654,0.13733550906181335,0.1501631885766983,0.1469053477048874,352.55767822265625,352.551025390625,3
1778516000.65961409,118842444,0.15211714804172516,0.13694138824939728,0.15106648206710815,0.14646166563034058,352.55767822265625,352.55120849609375,3
1778516000.75957417,118942404,0.15021772682666779,0.13847778737545013,0.15601004660129547,0.14333754777908325,352.55767822265625,352.55169677734375,3
1778516000.85953403,119042364,0.14680486917495728,0.14130009710788727,0.16376739740371704,0.15072621405124664,352.55767822265625,352.55169677734375,3
1778516000.95949411,119142324,0.14430323243141174,0.1455911099910736,0.17165470123291016,0.16162876784801483,352.55767822265625,352.551025390625,3
1778516001.05945420,119242284,0.14282339811325073,0.14821170270442963,0.17749466001987457,0.17478789389133453,352.55767822265625,352.5505676269531,3
1778516001.15941405,119342244,0.14216090738773346,0.1476302146911621,0.18096764385700226,0.1846567988395691,352.55767822265625,352.55078125,3
1778516001.25937414,119442204,0.14219269156455994,0.14404985308647156,0.18228039145469666,0.19492730498313904,352.55767822265625,352.5511474609375,3
1778516001.35933423,119542164,0.1439228504896164,0.14993800222873688,0.18141110241413116,0.1886163204908371,352.55767822265625,352.5514221191406,3
1778516001.45929408,119642124,0.14456315338611603,0.15542706847190857,0.18109145760536194,0.18189123272895813,352.55767822265625,352.551513671875,3
1778516001.55925417,119742084,0.14612145721912384,0.16111116111278534,0.18099205195903778,0.18395940959453583,352.5577087402344,352.55181884765625,3
1778516001.65921426,119842044,0.15108829736709595,0.1595546305179596,0.18014122545719147,0.18287742137908936,352.5577087402344,352.55194091796875,3
1778516001.76000714,119942837,0.15778183937072754,0.1599249243736267,0.17916038632392883,0.17962387204170227,352.5577087402344,352.5520935058594,3
1778516001.85996723,120042797,0.1636842042207718,0.16226543486118317,0.17790456116199493,0.17714923620224,352.5577087402344,352.5520935058594,3
1778516001.95992708,120142757,0.16831380128860474,0.1625843644142151,0.17691044509410858,0.17412309348583221,352.5577392578125,352.55224609375,3
1778516002.05988717,120242717,0.17206503450870514,0.16057635843753815,0.17576947808265686,0.16980378329753876,352.5577392578125,352.5521240234375,3
1778516002.15984726,120342677,0.17683151364326477,0.1680673062801361,0.17510518431663513,0.17191435396671295,352.5577392578125,352.5527038574219,3
1778516002.25980711,120442637,0.18070335686206818,0.17174889147281647,0.17431457340717316,0.17215442657470703,352.5577392578125,352.5528869628906,3
1778516002.35976720,120542597,0.18365967273712158,0.16721290349960327,0.17379529774188995,0.17147472500801086,352.5577392578125,352.5537414550781,3
1778516002.45972705,120642557,0.1866902858018875,0.16847850382328033,0.17326219379901886,0.17069865763187408,352.5577392578125,352.55450439453125,3
1778516002.55968714,120742517,0.19209575653076172,0.17872807383537292,0.17370574176311493,0.17184129357337952,352.5577697753906,352.5525817871094,3
1778516002.65964723,120842477,0.19637972116470337,0.18643833696842194,0.17401927709579468,0.17143665254116058,352.5577697753906,352.5490417480469,3
1778516002.75960708,120942437,0.19914476573467255,0.19151383638381958,0.17455032467842102,0.16887174546718597,352.5577697753906,352.5483703613281,3
1778516002.85956717,121042397,0.20079226791858673,0.1899390071630478,0.17523391544818878,0.16073903441429138,352.5577697753906,352.5497741699219,3
1778516002.95952725,121142357,0.20323678851127625,0.19312824308872223,0.17843501269817352,0.16334372758865356,352.5577697753906,352.55218505859375,3
1778516003.05948710,121242317,0.20537018775939941,0.18970134854316711,0.18189384043216705,0.17147450149059296,352.55780029296875,352.55377197265625,3
1778516003.15944719,121342277,0.20808808505535126,0.19331789016723633,0.1862224042415619,0.17793689668178558,352.55780029296875,352.5555114746094,3
1778516003.25940704,121442237,0.2104521244764328,0.1946120411157608,0.18947118520736694,0.18236204981803894,352.55780029296875,352.5561218261719,3
1778516003.35936713,121542197,0.21633268892765045,0.19869039952754974,0.1934986412525177,0.18171370029449463,352.5578308105469,352.5567626953125,3
1778516003.45932722,121642157,0.2228100299835205,0.2098551243543625,0.19671674072742462,0.18678119778633118,352.557861328125,352.556640625,3
1778516003.55928707,121742117,0.22984236478805542,0.21283859014511108,0.20366474986076355,0.19980648159980774,352.557861328125,352.5563049316406,3
1778516003.65924716,121842077,0.23505249619483948,0.21518132090568542,0.2108851671218872,0.21556925773620605,352.5578918457031,352.5565185546875,3
1778516003.75920725,121942037,0.24069267511367798,0.2245531529188156,0.2184627503156662,0.22305822372436523,352.55792236328125,352.55718994140625,3
1778516003.86000013,122042830,0.24478401243686676,0.23402118682861328,0.22355271875858307,0.22691191732883453,352.5579528808594,352.5574035644531,3
1778516003.95996022,122142790,0.25010964274406433,0.24542236328125,0.22930766642093658,0.22671765089035034,352.5579528808594,352.5567321777344,3
1778516004.05992007,122242750,0.25368109345436096,0.25507888197898865,0.233642116189003,0.2299358993768692,352.5579833984375,352.555419921875,3
1778516004.15988016,122342710,0.2555297613143921,0.26233190298080444,0.23697593808174133,0.23280666768550873,352.5579833984375,352.55584716796875,3
1778516004.25984025,122442670,0.2547016739845276,0.2620027959346771,0.2384728342294693,0.23470351099967957,352.5579833984375,352.5556640625,3
1778516004.35980010,122542630,0.2525418996810913,0.25862371921539307,0.2414666712284088,0.23252606391906738,352.5579833984375,352.5533752441406,3
1778516004.45976019,122642590,0.24968697130680084,0.25332725048065186,0.24663448333740234,0.23689298331737518,352.5580139160156,352.55133056640625,3
1778516004.55972004,122742550,0.24929353594779968,0.24877583980560303,0.2548031806945801,0.2443722039461136,352.5580749511719,352.5516357421875,3
1778516004.65968013,122842510,0.2503248155117035,0.24887020885944366,0.2612607479095459,0.24865390360355377,352.55810546875,352.5530700683594,3
1778516004.75964022,122942470,0.25478607416152954,0.2521282434463501,0.2671535313129425,0.25448843836784363,352.55810546875,352.5559997558594,3
1778516004.85960007,123042430,0.25999295711517334,0.2573334872722626,0.2709692120552063,0.26172319054603577,352.5581359863281,352.5583190917969,3
1778516004.95956016,123142390,0.26649588346481323,0.25921303033828735,0.2729574143886566,0.2668626606464386,352.55816650390625,352.5580139160156,3
1778516005.05952024,123242350,0.2720508873462677,0.26399266719818115,0.27128055691719055,0.27085891366004944,352.55816650390625,352.5562438964844,3
1778516005.15948009,123342310,0.2771807014942169,0.2674306631088257,0.2673563063144684,0.2617780864238739,352.5581359863281,352.5567932128906,3
1778516005.25944018,123442270,0.2796773910522461,0.2684285640716553,0.26126664876937866,0.2533436417579651,352.5580749511719,352.557861328125,3
1778516005.35940003,123542230,0.28058838844299316,0.26798215508461,0.2555793523788452,0.24503865838050842,352.55804443359375,352.5572204589844,3
1778516005.45936012,123642190,0.27998074889183044,0.26882636547088623,0.25055158138275146,0.2377299964427948,352.55804443359375,352.554443359375,3
1778516005.55932021,123742150,0.2781883478164673,0.26644662022590637,0.24788811802864075,0.23291493952274323,352.55804443359375,352.5537109375,3
1778516005.65928006,123842110,0.2745126485824585,0.26560357213020325,0.24801380932331085,0.23111648857593536,352.5580139160156,352.5537414550781,3
1778516005.75924015,123942070,0.2698357105255127,0.2635912001132965,0.25447529554367065,0.237376406788826,352.55804443359375,352.554931640625,3
1778516005.85920024,124042030,0.2628825306892395,0.25571054220199585,0.2625539302825928,0.24714793264865875,352.55810546875,352.5552673339844,3
1778516005.95999312,124142823,0.2564203143119812,0.2467818409204483,0.2729717791080475,0.2519882321357727,352.5581359863281,352.5554504394531,3
1778516006.05995321,124242783,0.24795912206172943,0.23627695441246033,0.2804499566555023,0.256182998418808,352.55816650390625,352.5538024902344,3
1778516006.15991306,124342743,0.24137695133686066,0.22259986400604248,0.289110004901886,0.26090335845947266,352.5581970214844,352.5535583496094,3
1778516006.25987315,124442703,0.23560266196727753,0.21146409213542938,0.2944227159023285,0.26782459020614624,352.5582275390625,352.5541687011719,3
1778516006.35983324,124542663,0.23228543996810913,0.21335388720035553,0.29852890968322754,0.27302929759025574,352.5582580566406,352.5560607910156,3
1778516006.45979309,124642623,0.22939401865005493,0.21699613332748413,0.2976789176464081,0.2774076461791992,352.5582580566406,352.5582580566406,3
1778516006.55975318,124742583,0.22710148990154266,0.21728795766830444,0.2948806583881378,0.2802393436431885,352.5582275390625,352.55859375,3
1778516006.65971303,124842543,0.22385108470916748,0.21400386095046997,0.2887968122959137,0.28250882029533386,352.5582275390625,352.5567626953125,3
1778516006.75967312,124942503,0.2218179702758789,0.21282978355884552,0.2821691632270813,0.2821606397628784,352.5581970214844,352.55401611328125,3
1778516006.85963321,125042463,0.21858996152877808,0.2082860767841339,0.2725067734718323,0.2756476402282715,352.55816650390625,352.55316162109375,3
1778516006.95959306,125142423,0.21724700927734375,0.20284247398376465,0.26373031735420227,0.2624414265155792,352.5581359863281,352.55743408203125,3
1778516007.05955315,125242383,0.21617871522903442,0.20571088790893555,0.2532433271408081,0.24677202105522156,352.55810546875,352.56121826171875,3
1778516007.15951324,125342343,0.21632222831249237,0.20812392234802246,0.2450052797794342,0.23371921479701996,352.5580749511719,352.56219482421875,3
1778516007.25947309,125442303,0.21564465761184692,0.20632405579090118,0.2366006225347519,0.22812281548976898,352.55804443359375,352.559814453125,3
1778516007.35943317,125542263,0.2152801752090454,0.20675893127918243,0.23031269013881683,0.22341080009937286,352.55804443359375,352.55584716796875,3
1778516007.45939302,125642223,0.21383915841579437,0.20109139382839203,0.22385405004024506,0.21780039370059967,352.5580139160156,352.55401611328125,3
1778516007.55935311,125742183,0.21388937532901764,0.19499613344669342,0.21894726157188416,0.21116483211517334,352.5580139160156,352.5569763183594,3
1778516007.65931320,125842143,0.21466794610023499,0.19660785794258118,0.21443341672420502,0.20359139144420624,352.5580139160156,352.56024169921875,3
1778516007.75927305,125942103,0.21740871667861938,0.204731747508049,0.21173152327537537,0.1970757395029068,352.5580139160156,352.5632629394531,3
1778516007.85923314,126042063,0.2185969054698944,0.20776645839214325,0.20970869064331055,0.19185175001621246,352.5580139160156,352.5634460449219,3
1778516007.96002603,126142856,0.21853935718536377,0.2095356434583664,0.20862644910812378,0.18700088560581207,352.5580139160156,352.56414794921875,3
1778516008.05998611,126242816,0.21706297993659973,0.20897552371025085,0.20792852342128754,0.1831638365983963,352.5579833984375,352.5639343261719,3
1778516008.15994620,126342776,0.21552054584026337,0.20914873480796814,0.20726028084754944,0.18035666644573212,352.5579833984375,352.56158447265625,3
1778516008.25990605,126442736,0.21261531114578247,0.2071002870798111,0.2041115015745163,0.182876855134964,352.5579833984375,352.55712890625,3
1778516008.35986614,126542696,0.21098484098911285,0.20614008605480194,0.19873224198818207,0.1868448406457901,352.5579833984375,352.5538635253906,3
1778516008.45982623,126642656,0.20874863862991333,0.20964330434799194,0.18752676248550415,0.181666761636734,352.55792236328125,352.55487060546875,3
1778516008.55978608,126742616,0.20799213647842407,0.20708419382572174,0.17550897598266602,0.17444808781147003,352.557861328125,352.5576171875,3
1778516008.65974617,126842576,0.20564445853233337,0.20266446471214294,0.16123291850090027,0.16243822872638702,352.55780029296875,352.5574035644531,3
1778516008.75970626,126942536,0.20480690896511078,0.20075951516628265,0.14991812407970428,0.1519804298877716,352.5577392578125,352.5548400878906,3
1778516008.85966611,127042496,0.2025732547044754,0.19526293873786926,0.1383780837059021,0.14258594810962677,352.55767822265625,352.5508117675781,3
1778516008.95962620,127142456,0.20151808857917786,0.18723249435424805,0.13056451082229614,0.13375146687030792,352.55767822265625,352.55047607421875,3
1778516009.05958605,127242416,0.2013305276632309,0.18249572813510895,0.12457858771085739,0.12179212272167206,352.5576477050781,352.5531921386719,3
1778516009.15954614,127342376,0.2046286016702652,0.18821868300437927,0.12302126735448837,0.10827337205410004,352.55767822265625,352.55426025390625,3
1778516009.25950623,127442336,0.20710591971874237,0.19917461276054382,0.12455504387617111,0.10019877552986145,352.55767822265625,352.55279541015625,3
1778516009.35946608,127542296,0.20874491333961487,0.2081766575574875,0.1321849375963211,0.11165185272693634,352.55767822265625,352.55224609375,3
1778516009.45942616,127642256,0.20602338016033173,0.20370806753635406,0.1400146782398224,0.1258411556482315,352.5577392578125,352.5502014160156,3
1778516009.55938625,127742216,0.20318463444709778,0.1978229135274887,0.1470407098531723,0.13515840470790863,352.5577392578125,352.5464782714844,3
1778516009.65934610,127842176,0.20145781338214874,0.19514858722686768,0.14946001768112183,0.1427045613527298,352.5577392578125,352.5453796386719,3
1778516009.75930619,127942136,0.20139051973819733,0.1907351315021515,0.15009349584579468,0.14922770857810974,352.5577392578125,352.5480041503906,3
1778516009.85926604,128042096,0.20001552999019623,0.18667836487293243,0.1483619064092636,0.1488206535577774,352.5577392578125,352.5532531738281,3
1778516009.95922613,128142056,0.19847868382930756,0.18688179552555084,0.14554764330387115,0.13926273584365845,352.5577392578125,352.55548095703125,3
1778516010.06001925,128242849,0.19684675335884094,0.18938744068145752,0.1426001936197281,0.13176724314689636,352.5577392578125,352.5539245605469,3
1778516010.15997910,128342809,0.1957598775625229,0.1877037137746811,0.14106234908103943,0.12806183099746704,352.5577392578125,352.5494384765625,3
1778516010.25993919,128442769,0.19597095251083374,0.18762649595737457,0.14154376089572906,0.1313694417476654,352.5577392578125,352.5439758300781,3
1778516010.35989904,128542729,0.19598256051540375,0.186747208237648,0.14157021045684814,0.1373826116323471,352.5577392578125,352.54254150390625,3
1778516010.45985913,128642689,0.19598256051540375,0.18623238801956177,0.14157021045684814,0.13933929800987244,352.5577392578125,352.54559326171875,3
1778516010.55981922,128742649,0.19598256051540375,0.18527249991893768,0.14157021045684814,0.14397664368152618,352.5577392578125,352.5495910644531,3
1778516010.65977907,128842609,0.19598256051540375,0.17984171211719513,0.14157021045684814,0.1499687135219574,352.5577392578125,352.5500183105469,3
1778516010.75973916,128942569,0.19598256051540375,0.18053442239761353,0.14157021045684814,0.1546098291873932,352.5577392578125,352.54779052734375,3
1778516010.85969925,129042529,0.19598256051540375,0.18311697244644165,0.14157021045684814,0.15713153779506683,352.5577392578125,352.5443115234375,3
1778516010.95965910,129142489,0.19598256051540375,0.1871204376220703,0.14157021045684814,0.15283358097076416,352.5577392578125,352.5434875488281,3
1778516011.05961919,129242449,0.19354857504367828,0.19049732387065887,0.14164607226848602,0.14959554374217987,352.5577392578125,352.54669189453125,3
1778516011.15957904,129342409,0.18880103528499603,0.18316133320331573,0.14452718198299408,0.14730438590049744,352.5577392578125,352.5514831542969,3
1778516011.25953913,129442369,0.18342098593711853,0.1775110512971878,0.14705395698547363,0.1470872461795807,352.5577392578125,352.552734375,3
1778516011.35949922,129542329,0.17934073507785797,0.16857154667377472,0.14866863191127777,0.14646437764167786,352.5577087402344,352.5504150390625,3
1778516011.45945907,129642289,0.1774669885635376,0.16612938046455383,0.1497756689786911,0.14619825780391693,352.5577087402344,352.5460205078125,3
1778516011.55941916,129742249,0.17792686820030212,0.16761745512485504,0.1514369249343872,0.14753246307373047,352.5577392578125,352.5428771972656,3
1778516011.65937924,129842209,0.1780690848827362,0.16917602717876434,0.1521788090467453,0.14673356711864471,352.5577392578125,352.5447692871094,3
1778516011.75933909,129942169,0.1775536984205246,0.17035289108753204,0.15207484364509583,0.14652127027511597,352.5577392578125,352.54962158203125,3
1778516011.85929918,130042129,0.17374342679977417,0.1622876226902008,0.15191884338855743,0.1396765410900116,352.5577087402344,352.5527038574219,3
1778516011.95925903,130142089,0.16704502701759338,0.15645384788513184,0.15316304564476013,0.13086555898189545,352.5577087402344,352.55181884765625,3
1778516012.05921912,130242049,0.15675775706768036,0.14768508076667786,0.15480190515518188,0.13799713551998138,352.5577087402344,352.5486755371094,3
1778516012.16001225,130342842,0.14707855880260468,0.13685329258441925,0.15706051886081696,0.14383049309253693,352.55767822265625,352.54449462890625,3
1778516012.25997210,130442802,0.13751141726970673,0.13562847673892975,0.15742403268814087,0.14803622663021088,352.55767822265625,352.54345703125,3
1778516012.35993218,130542762,0.12989820539951324,0.1326507031917572,0.1569664031267166,0.15025995671749115,352.55767822265625,352.546142578125,3
1778516012.45989203,130642722,0.12176964432001114,0.12310077250003815,0.15492482483386993,0.14698252081871033,352.5576477050781,352.5511474609375,3
1778516012.55985212,130742682,0.11613961309194565,0.11254628002643585,0.15360376238822937,0.15196634829044342,352.5576477050781,352.5542297363281,3
1778516012.65981221,130842642,0.11293566226959229,0.10326381772756577,0.15220750868320465,0.1579643040895462,352.5576477050781,352.5538635253906,3
1778516012.75977206,130942602,0.11261996626853943,0.10068583488464355,0.15063339471817017,0.16213320195674896,352.5576477050781,352.5512390136719,3
1778516012.85973215,131042562,0.11354655027389526,0.10359984636306763,0.14777182042598724,0.1558569371700287,352.5576477050781,352.5475769042969,3
1778516012.95969224,131142522,0.11675819754600525,0.107931949198246,0.14311760663986206,0.14660175144672394,352.5576477050781,352.5477600097656,3
1778516013.05965209,131242482,0.11793775111436844,0.11031973361968994,0.1387930065393448,0.1397290676832199,352.5576477050781,352.55218505859375,3
1778516013.15961218,131342442,0.1179860308766365,0.11031150072813034,0.13537943363189697,0.12797591090202332,352.5576171875,352.55584716796875,3
1778516013.25957203,131442402,0.11808639019727707,0.10784965753555298,0.13414990901947021,0.11793211847543716,352.5576171875,352.5563659667969,3
1778516013.35953212,131542362,0.11895247548818588,0.10997408628463745,0.13547630608081818,0.11129206418991089,352.5576171875,352.55499267578125,3
1778516013.45949221,131642322,0.11958032846450806,0.10944661498069763,0.1377931833267212,0.119078628718853,352.5576477050781,352.5522766113281,3
1778516013.55945206,131742282,0.12098032236099243,0.11025168001651764,0.1415146142244339,0.1279919445514679,352.5576477050781,352.5487365722656,3
1778516013.65941215,131842242,0.12294066697359085,0.1130465492606163,0.14569248259067535,0.13406071066856384,352.5576477050781,352.5481872558594,3
1778516013.75937223,131942202,0.1261114627122879,0.11527537554502487,0.15264827013015747,0.14341309666633606,352.5576477050781,352.5522766113281,3
1778516013.85933208,132042162,0.12862709164619446,0.1165289431810379,0.1585380882024765,0.1537543088197708,352.55767822265625,352.5577392578125,3
1778516013.95929217,132142122,0.13140983879566193,0.11879509687423706,0.16535831987857819,0.1628679633140564,352.55767822265625,352.5598449707031,3
1778516014.05925226,132242082,0.13329879939556122,0.12287911027669907,0.17035402357578278,0.17034415900707245,352.55767822265625,352.55865478515625,3
1778516014.15921211,132342042,0.13509730994701385,0.12367240339517593,0.17353908717632294,0.1761876791715622,352.5577087402344,352.5558166503906,3
1778516014.26000524,132442835,0.13685563206672668,0.12868033349514008,0.174739271402359,0.17710568010807037,352.5577087402344,352.5538024902344,3
1778516014.35996509,132542795,0.13748225569725037,0.12746211886405945,0.174495667219162,0.1736546903848648,352.5577087402344,352.5556945800781,3
1778516014.45992517,132642755,0.13756026327610016,0.1257401704788208,0.1740347295999527,0.16568021476268768,352.5577087402344,352.5570373535156,3
1778516014.55988503,132742715,0.14067794382572174,0.12985453009605408,0.17235779762268066,0.16209907829761505,352.5577087402344,352.555908203125,3
1778516014.65984511,132842675,0.14308659732341766,0.13289369642734528,0.16849792003631592,0.15926425158977509,352.5577087402344,352.55242919921875,3
1778516014.75980520,132942635,0.14440426230430603,0.13496297597885132,0.1662502884864807,0.1579638570547104,352.5577087402344,352.5484619140625,3
1778516014.85976505,133042595,0.14546018838882446,0.12758232653141022,0.1660020351409912,0.15898717939853668,352.5577087402344,352.54791259765625,3
1778516014.95972514,133142555,0.14688782393932343,0.12119713425636292,0.16564133763313293,0.15918850898742676,352.5577087402344,352.5518493652344,3
1778516015.05968523,133242515,0.1475691944360733,0.12622720003128052,0.16526582837104797,0.1644110381603241,352.5577087402344,352.5564270019531,3
1778516015.15964508,133342475,0.14794707298278809,0.1320752203464508,0.164781853556633,0.17033728957176208,352.5577087402344,352.55792236328125,3
1778516015.25960517,133442435,0.14870989322662354,0.13524192571640015,0.1626010239124298,0.17522093653678894,352.5577087402344,352.55621337890625,3
1778516015.35956526,133542395,0.1525135040283203,0.1442914754152298,0.1573171317577362,0.16623744368553162,352.5577087402344,352.5544738769531,3
1778516015.45952511,133642355,0.15496520698070526,0.14970386028289795,0.15015745162963867,0.1553613394498825,352.5577087402344,352.5535583496094,3
1778516015.55948520,133742315,0.15488171577453613,0.1500803530216217,0.1450156271457672,0.14648406207561493,352.55767822265625,352.5549011230469,3
1778516015.65944505,133842275,0.15330567955970764,0.15329311788082123,0.14171452820301056,0.1405358910560608,352.55767822265625,352.55572509765625,3
1778516015.75940514,133942235,0.15121077001094818,0.15129289031028748,0.13996024429798126,0.1358257383108139,352.55767822265625,352.5564880371094,3
1778516015.85936522,134042195,0.1501815915107727,0.15038815140724182,0.14068765938282013,0.13353250920772552,352.55767822265625,352.5564270019531,3
1778516015.95932508,134142155,0.1498182862997055,0.14953939616680145,0.1411060243844986,0.1287631392478943,352.55767822265625,352.5567626953125,3
1778516016.05928516,134242115,0.149723082780838,0.14755432307720184,0.14135630428791046,0.12593527138233185,352.55767822265625,352.5565490722656,3
1778516016.15924525,134342075,0.1496269255876541,0.143082857131958,0.14887502789497375,0.1296648234128952,352.55767822265625,352.5563049316406,3
1778516016.25920510,134442035,0.14854001998901367,0.14038103818893433,0.157644122838974,0.14102795720100403,352.5577087402344,352.5554504394531,3
1778516016.35999823,134542828,0.1483963131904602,0.13829758763313293,0.16484464704990387,0.15710386633872986,352.5577087402344,352.5545654296875,3
1778516016.45995808,134642788,0.14853468537330627,0.1356552690267563,0.16877777874469757,0.16662023961544037,352.5577087402344,352.5534973144531,3
1778516016.55991817,134742748,0.14865541458129883,0.13261933624744415,0.17005272209644318,0.1743929088115692,352.5577087402344,352.5522155761719,3
1778516016.65987825,134842708,0.14892825484275818,0.13529838621616364,0.16821858286857605,0.17369364202022552,352.5577087402344,352.551513671875,3
1778516016.75983810,134942668,0.1517312228679657,0.1443086713552475,0.16497467458248138,0.16366606950759888,352.5577087402344,352.5518798828125,3
1778516016.85979819,135042628,0.15515628457069397,0.1522030383348465,0.1613568514585495,0.15434716641902924,352.5577087402344,352.5518798828125,3
1778516016.95975804,135142588,0.1588931381702423,0.15762192010879517,0.15943187475204468,0.14436770975589752,352.5577087402344,352.55126953125,3
1778516017.05971813,135242548,0.16269519925117493,0.1608143299818039,0.1583995372056961,0.1435086727142334,352.5577087402344,352.5504150390625,3
1778516017.15967822,135342508,0.16453631222248077,0.16111694276332855,0.15762871503829956,0.1428474634885788,352.5577087402344,352.5501403808594,3
1778516017.25963807,135442468,0.1656702309846878,0.1611824929714203,0.15747787058353424,0.1458314210176468,352.5577087402344,352.5498962402344,3
1778516017.35959816,135542428,0.1660439372062683,0.16117964684963226,0.15681646764278412,0.1446162462234497,352.5577087402344,352.5496520996094,3
1778516017.45955825,135642388,0.1640341430902481,0.16172859072685242,0.1539163738489151,0.1486806422472,352.5577087402344,352.5489501953125,3
1778516017.55951810,135742348,0.16032740473747253,0.15669870376586914,0.14935164153575897,0.1420322060585022,352.5577087402344,352.5490417480469,3
1778516017.65947819,135842308,0.1559136062860489,0.146969273686409,0.14421021938323975,0.1323874294757843,352.55767822265625,352.5491027832031,3
1778516017.75943804,135942268,0.15234531462192535,0.1368405967950821,0.14033757150173187,0.1230519488453865,352.55767822265625,352.54931640625,3
1778516017.85939813,136042228,0.1505529135465622,0.1347101330757141,0.1385875791311264,0.12094775587320328,352.55767822265625,352.5491943359375,3
1778516017.95935822,136142188,0.14974446594715118,0.1366293728351593,0.13842327892780304,0.12704138457775116,352.55767822265625,352.5487060546875,3
1778516018.05931807,136242148,0.1496252566576004,0.1400943249464035,0.1384567767381668,0.13041114807128906,352.55767822265625,352.54803466796875,3
1778516018.15927815,136342108,0.1496252566576004,0.14536195993423462,0.1384567767381668,0.12614455819129944,352.55767822265625,352.54754638671875,3
1778516018.25923824,136442068,0.1481834203004837,0.1466040164232254,0.13823819160461426,0.12311028689146042,352.55767822265625,352.54736328125,3
1778516018.36003113,136542861,0.14484688639640808,0.14808838069438934,0.14056606590747833,0.1282925009727478,352.55767822265625,352.5467834472656,3
1778516018.45999122,136642821,0.14333362877368927,0.1517498791217804,0.14254452288150787,0.13610273599624634,352.55767822265625,352.54547119140625,3
1778516018.55995107,136742781,0.1423903852701187,0.14718976616859436,0.14354880154132843,0.13554346561431885,352.55767822265625,352.5443115234375,3
1778516018.65991116,136842741,0.13857631385326385,0.1407220959663391,0.14326290786266327,0.1350080966949463,352.55767822265625,352.5433349609375,3
1778516018.75987124,136942701,0.13325227797031403,0.13242287933826447,0.14391715824604034,0.13695384562015533,352.5576477050781,352.5433349609375,3
1778516018.85983109,137042661,0.12819704413414001,0.12636631727218628,0.14343926310539246,0.13780470192432404,352.5576477050781,352.5440673828125,3
1778516018.95979118,137142621,0.12465731054544449,0.12129677832126617,0.14042089879512787,0.13627968728542328,352.5576477050781,352.5451354980469,3
1778516019.05975103,137242581,0.1220543384552002,0.1191803365945816,0.1326211839914322,0.1344713419675827,352.5576171875,352.5457763671875,3
1778516019.15971112,137342541,0.12209895253181458,0.11706893891096115,0.12317829579114914,0.12064968049526215,352.5576171875,352.54656982421875,3
1778516019.25967121,137442501,0.12206431478261948,0.1163141280412674,0.11225554347038269,0.10778476297855377,352.5576171875,352.547607421875,3
1778516019.35963106,137542461,0.12218739837408066,0.1146181970834732,0.1029530018568039,0.09836333990097046,352.5575866699219,352.54827880859375,3
1778516019.45959115,137642421,0.12322574108839035,0.11500902473926544,0.09555984288454056,0.09113438427448273,352.5575866699219,352.54833984375,3
1778516019.55955124,137742381,0.12470415979623795,0.11320149153470993,0.09091907739639282,0.08465070277452469,352.5575866699219,352.5479431152344,3
1778516019.65951109,137842341,0.12623195350170135,0.11589792370796204,0.08935630321502686,0.08321422338485718,352.5575866699219,352.5475158691406,3
1778516019.75947118,137942301,0.12933072447776794,0.11967384815216064,0.09083098918199539,0.08493245393037796,352.5575866699219,352.54718017578125,3
1778516019.85943103,138042261,0.13448984920978546,0.12422563135623932,0.09454703330993652,0.08804628998041153,352.5576171875,352.54669189453125,3
1778516019.95939112,138142221,0.14026829600334167,0.12710994482040405,0.09993046522140503,0.09297847002744675,352.5576171875,352.5461730957031,3
1778516020.05935121,138242181,0.1452323943376541,0.13591469824314117,0.10542517900466919,0.09612429887056351,352.5576171875,352.5458068847656,3
1778516020.15931106,138342141,0.14941786229610443,0.14120887219905853,0.111648328602314,0.10388364642858505,352.5576477050781,352.546142578125,3
1778516020.25927114,138442101,0.15199144184589386,0.14442722499370575,0.11696719378232956,0.10962425917387009,352.5576477050781,352.54595947265625,3
1778516020.35923123,138542061,0.1534646898508072,0.14317528903484344,0.1217438355088234,0.10762129724025726,352.5576477050781,352.54559326171875,3
1778516020.46002412,138642854,0.15382248163223267,0.15104596316814423,0.12676891684532166,0.1188441812992096,352.5576477050781,352.54541015625,3
1778516020.55998421,138742814,0.1538541316986084,0.15556225180625916,0.1322113573551178,0.1276557445526123,352.55767822265625,352.5450439453125,3
1778516020.65994406,138842774,0.15167786180973053,0.1498422771692276,0.1357845813035965,0.13487990200519562,352.55767822265625,352.5443420410156,3
1778516020.75990415,138942734,0.1491074115037918,0.14522044360637665,0.13717515766620636,0.13605913519859314,352.55767822265625,352.5443420410156,3
1778516020.85986423,139042694,0.14733530580997467,0.13899321854114532,0.1369677633047104,0.13182009756565094,352.55767822265625,352.5442199707031,3
1778516020.95982409,139142654,0.1468893438577652,0.13200247287750244,0.13677024841308594,0.12769612669944763,352.55767822265625,352.54425048828125,3
1778516021.05978417,139242614,0.14720360934734344,0.13161426782608032,0.1369907259941101,0.12789437174797058,352.55767822265625,352.5448913574219,3
1778516021.15974402,139342574,0.14720360934734344,0.13674749433994293,0.1369907259941101,0.13436971604824066,352.55767822265625,352.545166015625,3
1778516021.25970411,139442534,0.14711974561214447,0.13771536946296692,0.13685788214206696,0.1356695145368576,352.55767822265625,352.5455322265625,3
1778516021.35966420,139542494,0.14710834622383118,0.13576847314834595,0.1368398219347,0.12926621735095978,352.55767822265625,352.5445861816406,3
1778516021.45962405,139642454,0.14515723288059235,0.12945768237113953,0.13315562903881073,0.12062414735555649,352.5576477050781,352.5430908203125,3
1778516021.55958414,139742414,0.1430695354938507,0.12862613797187805,0.12879161536693573,0.11456359922885895,352.5576477050781,352.542724609375,3
1778516021.65954423,139842374,0.14168600738048553,0.12966616451740265,0.12622462213039398,0.1171373799443245,352.5576477050781,352.54339599609375,3
1778516021.75950408,139942334,0.14042609930038452,0.13073191046714783,0.12496718764305115,0.11277616769075394,352.5576477050781,352.5442199707031,3
1778516021.85946417,140042294,0.1389494687318802,0.13092434406280518,0.12433996051549911,0.10702197253704071,352.5576477050781,352.54400634765625,3
1778516021.95942426,140142254,0.13670764863491058,0.13027606904506683,0.12517310678958893,0.11302486807107925,352.5576477050781,352.5453186035156,3
1778516022.05938411,140242214,0.13559319078922272,0.12991011142730713,0.12696939706802368,0.1269075870513916,352.5576477050781,352.54718017578125,3
1778516022.15934420,140342174,0.1351882368326187,0.12941595911979675,0.12762212753295898,0.13820098340511322,352.5576477050781,352.5487976074219,3
1778516022.25930405,140442134,0.13270427286624908,0.1291065663099289,0.12508119642734528,0.14763237535953522,352.5576477050781,352.55035400390625,3
1778516022.35926414,140542094,0.12829984724521637,0.1285795122385025,0.1184832826256752,0.15514850616455078,352.5576171875,352.552001953125,3
1778516022.45922422,140642054,0.12356948107481003,0.12820576131343842,0.10848560929298401,0.15223915874958038,352.5576171875,352.5538635253906,3
1778516022.56001711,140742847,0.12042156606912613,0.12781427800655365,0.09851017594337463,0.14858976006507874,352.5575866699219,352.5558166503906,3
1778516022.65997720,140842807,0.11723733693361282,0.12225282937288284,0.08775489777326584,0.1317329853773117,352.5575866699219,352.5575866699219,3
1778516022.75993705,140942767,0.11488752067089081,0.11427988857030869,0.07925017923116684,0.11687592417001724,352.55755615234375,352.5576477050781,3
1778516022.85989714,141042727,0.11306275427341461,0.10274937748908997,0.07295281440019608,0.10480029881000519,352.55755615234375,352.55596923828125,3
1778516022.95985723,141142687,0.11297445744276047,0.09822724014520645,0.06987990438938141,0.0947347953915596,352.55755615234375,352.55426025390625,3
1778516023.05981708,141242647,0.113178551197052,0.09948164969682693,0.06881627440452576,0.08635140210390091,352.55755615234375,352.55023193359375,3
1778516023.15977716,141342607,0.11468178778886795,0.09766839444637299,0.07085434347391129,0.07297500222921371,352.55755615234375,352.5476379394531,3
1778516023.25973725,141442567,0.11599574983119965,0.09784302860498428,0.07462052255868912,0.06138548627495766,352.55755615234375,352.54876708984375,3
1778516023.35969710,141542527,0.11747507005929947,0.10430468618869781,0.0837760791182518,0.055880509316921234,352.5575866699219,352.5508117675781,3
1778516023.45965719,141642487,0.11705762892961502,0.1068824753165245,0.09465356171131134,0.05256249010562897,352.5575866699219,352.5491943359375,3
1778516023.55961704,141742447,0.11538621783256531,0.1082843467593193,0.10839777439832687,0.06678067147731781,352.5576171875,352.54547119140625,3
1778516023.65957713,141842407,0.11168546229600906,0.10890047997236252,0.12149927020072937,0.08583156764507294,352.5576477050781,352.5408630371094,3
1778516023.75953722,141942367,0.10874051600694656,0.10212048888206482,0.1334405243396759,0.10283320397138596,352.5576477050781,352.5395202636719,3
1778516023.85949707,142042327,0.10595090687274933,0.0963527113199234,0.14158113300800323,0.1170256957411766,352.5576477050781,352.5421447753906,3
1778516023.95945716,142142287,0.10465434193611145,0.09767798334360123,0.14758233726024628,0.1277443766593933,352.5576477050781,352.547119140625,3
1778516024.05941725,142242247,0.10433488339185715,0.09876791387796402,0.15107156336307526,0.14312532544136047,352.5576477050781,352.54888916015625,3
1778516024.15937710,142342207,0.10476808249950409,0.09713168442249298,0.15239202976226807,0.1510830521583557,352.5576477050781,352.5471496582031,3
1778516024.25933719,142442167,0.10533162951469421,0.09870778024196625,0.15157288312911987,0.1465935856103897,352.5576477050781,352.543701171875,3
1778516024.35929704,142542127,0.10602405667304993,0.09887287020683289,0.15032874047756195,0.13821764290332794,352.5576477050781,352.54327392578125,3
1778516024.45925713,142642087,0.1076444685459137,0.0993632897734642,0.14459972083568573,0.12904544174671173,352.5576477050781,352.5466613769531,3
1778516024.55921721,142742047,0.11104845255613327,0.10428285598754883,0.14017681777477264,0.12412857264280319,352.5576477050781,352.5495300292969,3
1778516024.66001010,142842840,0.11455512791872025,0.10659884661436081,0.13805030286312103,0.1200757697224617,352.5576477050781,352.54840087890625,3
1778516024.75997019,142942800,0.11581239104270935,0.11096271872520447,0.1372879147529602,0.116825632750988,352.5576477050781,352.5445861816406,3
1778516024.85993004,143042760,0.1162198930978775,0.11423545330762863,0.13692308962345123,0.12014983594417572,352.5576477050781,352.5419006347656,3
1778516024.95989013,143142720,0.116251640021801,0.11938360333442688,0.13668814301490784,0.11756094545125961,352.5576477050781,352.5437927246094,3
1778516025.05985022,143242680,0.11427338421344757,0.11583428084850311,0.133756622672081,0.11676235496997833,352.5576477050781,352.54718017578125,3
1778516025.15981007,143342640,0.11122997850179672,0.11241058260202408,0.12929633259773254,0.11889756470918655,352.5576477050781,352.5484619140625,3
1778516025.25977015,143442600,0.10857390612363815,0.10742808878421783,0.12523336708545685,0.12050672620534897,352.5576477050781,352.54583740234375,3
1778516025.35973024,143542560,0.10666226595640182,0.1022612527012825,0.12162459641695023,0.11522601544857025,352.5576477050781,352.5424499511719,3
1778516025.45969009,143642520,0.10579018294811249,0.09743186086416245,0.11827341467142105,0.11291326582431793,352.5576171875,352.5415344238281,3
1778516025.55965018,143742480,0.10619046539068222,0.09072252362966537,0.11523804813623428,0.1081090122461319,352.5576171875,352.54449462890625,3
1778516025.65961003,143842440,0.1093602254986763,0.09477151185274124,0.11127731949090958,0.10927601158618927,352.5576171875,352.5478515625,3
1778516025.75957012,143942400,0.11179720610380173,0.10376472771167755,0.10869937390089035,0.11253536492586136,352.5576171875,352.5476989746094,3
1778516025.85953021,144042360,0.11292576789855957,0.10332517325878143,0.10789709538221359,0.11540652811527252,352.5576171875,352.5444641113281,3
1778516025.95949006,144142320,0.11333592236042023,0.09980591386556625,0.10760556906461716,0.11312615126371384,352.5576171875,352.54107666015625,3
1778516026.05945015,144242280,0.11334750056266785,0.09773749858140945,0.10759735852479935,0.10634790360927582,352.5576171875,352.5415954589844,3
1778516026.15941024,144342240,0.11337343603372574,0.09738634526729584,0.10759783536195755,0.10274294763803482,352.5576171875,352.5458984375,3
1778516026.25937009,144442200,0.11648376286029816,0.10358208417892456,0.10676184296607971,0.10257112234830856,352.5576171875,352.54766845703125,3
1778516026.35933018,144542160,0.12365121394395828,0.11335089057683945,0.10737764835357666,0.10185974836349487,352.5576477050781,352.5455627441406,3
1778516026.45929003,144642120,0.12872818112373352,0.12080252170562744,0.10858083516359329,0.1002640649676323,352.5576477050781,352.541015625,3
1778516026.55925012,144742080,0.1307104378938675,0.11892618238925934,0.10923267155885696,0.09784512221813202,352.5576477050781,352.53936767578125,3
1778516026.65921021,144842040,0.1308719962835312,0.11838006973266602,0.11019856482744217,0.09725802391767502,352.5576477050781,352.5420227050781,3
1778516026.76000309,144942833,0.1307344138622284,0.12145426869392395,0.1116536557674408,0.1001754030585289,352.5576477050781,352.5469665527344,3
1778516026.85996318,145042793,0.12966765463352203,0.12014510482549667,0.11449676007032394,0.10485122352838516,352.5576477050781,352.5483703613281,3
1778516026.95992303,145142753,0.12750206887722015,0.12087360769510269,0.11856718361377716,0.10838779807090759,352.5576477050781,352.54595947265625,3
1778516027.05988312,145242713,0.12421270459890366,0.11920420080423355,0.12125032395124435,0.10846778750419617,352.5576477050781,352.5415344238281,3
1778516027.15984321,145342673,0.12262842059135437,0.12321709841489792,0.12235182523727417,0.10924883931875229,352.5576477050781,352.5406799316406,3
1778516027.25980306,145442633,0.11811724305152893,0.11964487284421921,0.12344051152467728,0.11201317608356476,352.5576477050781,352.5434875488281,3
1778516027.35976315,145542593,0.11392547935247421,0.11113611608743668,0.12453790009021759,0.11435335874557495,352.5576477050781,352.54559326171875,3
1778516027.45972323,145642553,0.11058511584997177,0.10855553299188614,0.1248522624373436,0.11587691307067871,352.5576477050781,352.54571533203125,3
1778516027.55968308,145742513,0.10839292407035828,0.10354830324649811,0.12484607100486755,0.11623641848564148,352.5576477050781,352.5451965332031,3
