timestamp,TimeUS,I,GyrX,GyrY,GyrZ,AccX,AccY,AccZ,EG,EA,T,GH,AH,GHz,AHz,TimeSec,AttackActive_IMU,GyrZ_attacked
1778782973.10004,52284078,0,0.0007465238450095,0.0007412591949105,0.0007434969884343,-0.0004757160204462,-0.0002645292552188,-9.817083358764648,0,0,28.091176986694336,1,1,1000,1000,0.0,0,0.0007434969884343
1778782973.10004,52284078,1,0.0007235832163132,0.0005674272542819,0.0008347940747626,-0.0019663993734866,-0.0013274803059175,-9.81544589996338,0,0,28.091176986694336,1,1,760,800,0.0,0,0.0008347940747626
1778782973.140024,52324062,0,0.0006963924970477,0.0007593203336,0.0007636831142008,-6.0803682572441176e-05,-0.0006978246383368,-9.817998886108398,0,0,28.093486785888672,1,1,1000,1000,0.039984,0,0.0007636831142008
1778782973.140024,52324062,1,0.0006729742744937,0.000678246084135,0.0007450208067893,0.0003427665214985,-0.0008938979590311,-9.815789222717283,0,0,28.09343147277832,1,1,760,800,0.039984,0,0.0007450208067893
1778782973.180008,52364046,0,0.0006951491814106,0.0006693127797916,0.0007518978090956,-0.0019835052080452,-0.0008511206833645,-9.81734848022461,0,0,28.095741271972656,1,1,1000,1000,0.079968,0,0.0007518978090956
1778782973.180008,52364046,1,0.000628215551842,0.0006060446612536,0.0007632508641108,-4.8985697503667325e-05,-0.0027864095754921,-9.817038536071776,0,0,28.095685958862305,1,1,760,800,0.079968,0,0.0007632508641108
1778782973.219992,52404030,0,0.000738816044759,0.0007528847199864,0.0008112493669614,-0.0001730646763462,-0.0006093196570873,-9.81736946105957,0,0,28.097993850708008,1,1,1000,1000,0.119952,0,0.0008112493669614
1778782973.219992,52404030,1,0.0006065889610908,0.0006552988779731,0.0005643059266731,-0.0007032755529507,-0.0018305890262126,-9.81659984588623,0,0,28.097938537597656,1,1,760,800,0.119952,0,0.0005643059266731
1778782973.2608092,52444847,0,0.0007354685221798,0.0007922094082459,0.0006220255745574,-0.0005183048779144,-0.0007202445412985,-9.818108558654783,0,0,28.100248336791992,1,1,1000,1000,0.160769,0,0.0006220255745574
1778782973.2608092,52444847,1,0.0007041596109047,0.0006599382613785,0.000755503133405,-0.0017170975916087,-0.0022612542379647,-9.814448356628418,0,0,28.100248336791992,1,1,760,800,0.160769,0,0.000755503133405
1778782973.3007932,52484831,0,0.0006747443694621,0.000746204634197,0.0008033996564336,-0.0005878584343008,-0.001212322502397,-9.81717014312744,0,0,28.102500915527344,1,1,1000,1000,0.200753,0,0.0008033996564336
1778782973.3007932,52484831,1,0.0006735608330927,0.0005242623738013,0.0008959576953202,-0.0022118466440588,-0.0013930684654042,-9.81795597076416,0,0,28.102500915527344,1,1,760,800,0.200753,0,0.0008959576953202
1778782973.3407772,52524815,0,0.0007750287186354,0.0007080374052748,0.0007411651313304,-0.001024720724672,-0.0003005180915351,-9.818476676940918,0,0,28.10475349426269,1,1,1000,1000,0.240737,0,0.0007411651313304
1778782973.3407772,52524815,1,0.001089128665626,0.0005214473931118,0.0007205129950307,-0.0018433518707752,-0.003961862064898,-9.81652545928955,0,0,28.10475349426269,1,1,760,800,0.240737,0,0.0007205129950307
1778782973.3807611,52564799,0,0.0006965189240872,0.0006978996680118,0.0007347916834987,0.0002052924683084,-0.0006676716147921,-9.81851863861084,0,0,28.107006072998047,1,1,1000,1000,0.280721,0,0.0007347916834987
1778782973.3807611,52564799,1,0.0005106352036818,0.0007187216542661,0.0009520965395495,0.0004811869875993,-0.0011417178902775,-9.815584182739258,0,0,28.107006072998047,1,1,760,800,0.280721,0,0.0009520965395495
1778782973.4207451,52604783,0,0.0007667054887861,0.0007557753124274,0.000810116995126,-0.000518204527907,-0.001021834439598,-9.816067695617676,0,0,28.10926055908203,1,1,1000,1000,0.320705,0,0.000810116995126
1778782973.4207451,52604783,1,0.0006251197773963,0.0009214971214532,0.0005866338615305,-0.0015002160798758,-0.0029401688370853,-9.816922187805176,0,0,28.10926055908203,1,1,760,800,0.320705,0,0.0005866338615305
1778782973.4607291,52644767,0,0.000744571967516,0.0006692082388326,0.0007255672826431,-0.0012510111555457,-0.0014020742382854,-9.817830085754396,0,0,28.11151123046875,1,1,1000,1000,0.360689,0,0.0007255672826431
1778782973.4607291,52644767,1,0.0009131667320616,0.0006453867536038,0.0010840164031833,-0.0018957026768475,-0.0002248745440738,-9.815414428710938,0,0,28.11151123046875,1,1,760,800,0.360689,0,0.0010840164031833
1778782973.500713,52684751,0,0.000754838110879,0.0008145965402945,0.0007945000543259,-0.0006697273347526,-0.0011819161009043,-9.817950248718262,0,0,28.1137638092041,1,1,1000,1000,0.400673,0,0.0007945000543259
1778782973.500713,52684751,1,0.0008152302470989,0.0005120090791024,0.0008129237103275,0.0004825844953302,-0.0011439602822065,-9.818155288696287,0,0,28.1137638092041,1,1,760,800,0.400673,0,0.0008129237103275
1778782973.540697,52724735,0,0.0007135872147046,0.0007855999283492,0.0006456365808844,-0.0009698016801849,-0.0008001958485692,-9.817928314208984,0,0,28.11601448059082,1,1,1000,1000,0.440657,0,0.0006456365808844
1778782973.540697,52724735,1,0.0006383256986737,0.0005506145535036,0.0004355663259048,-0.0002829702862072,-0.0005754365702159,-9.817679405212402,0,0,28.11601448059082,1,1,760,800,0.440657,0,0.0004355663259048
1778782973.580681,52764719,0,0.0007011370616964,0.0007563335238955,0.0007851714035496,-0.0006091430550441,-0.0003626645775511,-9.81878662109375,0,0,28.11826515197754,1,1,1000,1000,0.480641,0,0.0007851714035496
1778782973.580681,52764719,1,0.0006338681560009,0.0006826521130278,0.0007860977202653,-0.0008394685573875,0.0007781541207805,-9.817957878112791,0,0,28.11826515197754,1,1,760,800,0.480641,0,0.0007860977202653
1778782973.620665,52804703,0,0.0007457840838469,0.0007099686190485,0.0008249541861005,-0.0012501120800152,-0.0008960177656263,-9.816513061523438,0,0,28.120515823364254,1,1,1000,1000,0.520625,0,0.0008249541861005
1778782973.620665,52804703,1,0.0006081539904698,0.0008935360820032,0.0008834641776047,-0.0048585594631731,-0.0041012945584952,-9.818674087524414,0,0,28.120515823364254,1,1,760,800,0.520625,0,0.0008834641776047
1778782973.660649,52844687,0,0.0007026743260212,0.0007445980445481,0.0007410897524096,-0.0004660148988477,-0.0005950636113993,-9.817463874816896,0,0,28.122766494750977,1,1,1000,1000,0.560609,0,0.0007410897524096
1778782973.660649,52844687,1,0.0008126805769279,0.0005809087306261,0.0006849060882814,-0.0023929527960717,-0.0007273720111697,-9.816217422485352,0,0,28.122766494750977,1,1,760,800,0.560609,0,0.0006849060882814
1778782973.700633,52884671,0,0.0007599900709465,0.0006592004210688,0.0007698279805481,-0.0008680149912834,-0.00011474556959,-9.816381454467772,0,0,28.12501716613769,1,1,1000,1000,0.600593,0,0.0007698279805481
1778782973.700633,52884671,1,0.0008748180698603,0.0006537439185194,0.0003770539187826,-0.0008648324292153,-0.0017034336924552,-9.816675186157228,0,0,28.12501716613769,1,1,760,800,0.600593,0,0.0003770539187826
1778782973.740617,52924655,0,0.0007738266140222,0.0006869906792417,0.0007676817476749,-0.0013958616182208,-0.0010073259472846,-9.817355155944824,0,0,28.12726593017578,1,1,1000,1000,0.640577,0,0.0007676817476749
1778782973.740617,52924655,1,0.0006693671457469,0.0007348632789216,0.0009440249996259,-0.0017613254021853,-0.0017507820157334,-9.817033767700195,0,0,28.12726593017578,1,1,760,800,0.640577,0,0.0009440249996259
1778782973.780601,52964639,0,0.0007291859947144,0.000767087447457,0.0007852865383028,-0.0011332904687151,-0.000837997009512,-9.81849193572998,0,0,28.1295166015625,1,1,1000,1000,0.680561,0,0.0007852865383028
1778782973.780601,52964639,1,0.0008019297965802,0.0004350085218902,0.0006233570748008,-0.002202819334343,-0.0010035815648734,-9.8175048828125,0,0,28.1295166015625,1,1,760,800,0.680561,0,0.0006233570748008
1778782973.820585,53004623,0,0.0006833192892372,0.0007496363250538,0.0007706651231274,-0.0018022488802671,-0.0005696701700799,-9.816550254821776,0,0,28.131765365600582,1,1,1000,1000,0.720545,0,0.0007706651231274
1778782973.820585,53004623,1,0.0007252324139699,0.0008527984609827,0.0007854985306039,-0.0007135822670534,0.0007414012216031,-9.81663703918457,0,0,28.131765365600582,1,1,760,800,0.720545,0,0.0007854985306039
1778782973.860569,53044607,0,0.0007825220236554,0.0006759053794667,0.0007563316612504,-0.0023081302642822,-0.0003917463473044,-9.817139625549316,0,0,28.134014129638672,1,1,1000,1000,0.760529,0,0.0007563316612504
1778782973.860569,53044607,1,0.0006483112229034,0.0007311187218874,0.0006890442455187,-0.0009143626084551,-0.0007875493029132,-9.817975997924805,0,0,28.134014129638672,1,1,760,800,0.760529,0,0.0006890442455187
1778782973.9005527,53084591,0,0.000720168929547,0.0007257364341057,0.0007772126118652,-0.0013740457361564,-0.0012220811331644,-9.815970420837402,0,0,28.13626289367676,1,1,1000,1000,0.800513,0,0.0007772126118652
1778782973.9005527,53084591,1,0.0011057914234697,0.0006184631492942,0.0008579632267355,0.0007845353684388,-0.0010964875109493,-9.81930446624756,0,0,28.13626289367676,1,1,760,800,0.800513,0,0.0008579632267355
1778782973.9405367,53124575,0,0.0007284611929208,0.0007792946998961,0.0007340191514231,-0.0022211244795471,-0.0007003695936873,-9.81744384765625,0,0,28.138511657714844,1,1,1000,1000,0.840497,0,0.0007340191514231
1778782973.9405367,53124575,1,0.0005195693811401,0.0010566681157797,0.0006922741886228,-0.0014136823592707,-0.001552902162075,-9.817401885986328,0,0,28.138511657714844,1,1,760,800,0.840497,0,0.0006922741886228
1778782973.9805207,53164559,0,0.0007546519045718,0.0008127834298647,0.0007300094002857,-0.0008347760885953,-0.0013839458115398,-9.817523956298828,0,0,28.140758514404297,1,1,1000,1000,0.880481,0,0.0007300094002857
1778782973.9805207,53164559,1,0.0006949104135856,0.0008776950417086,0.0008801651420071,0.001308751758188,-0.0020472398027777,-9.816268920898438,0,0,28.140758514404297,1,1,760,800,0.880481,0,0.0008801651420071
1778782974.0205052,53204543,0,0.0007310535293072,0.0007342809694819,0.0007096697809174,-0.0011572565417736,-0.0024020532146096,-9.81715965270996,0,0,28.143007278442383,1,1,1000,1000,0.920465,0,0.0007096697809174
1778782974.0205052,53204543,1,0.0006920632440596,0.0008198482682928,0.0007188485469669,-0.0012635138118639,0.000630201480817,-9.815528869628906,0,0,28.143007278442383,1,1,760,800,0.920465,0,0.0007188485469669
1778782974.0604892,53244527,0,0.0007580468663945,0.0007464328664354,0.000734698260203,-0.0007992454338818,-0.0015799608081579,-9.816733360290527,0,0,28.14525413513184,1,1,1000,1000,0.960449,0,0.000734698260203
1778782974.0604892,53244527,1,0.0006806256715208,0.0005906812730245,0.0007425065268762,-0.0006113083218224,-0.0030880237463861,-9.818034172058104,0,0,28.14525413513184,1,1,760,800,0.960449,0,0.0007425065268762
1778782974.1004732,53284511,0,0.0007715761312283,0.0006426817853935,0.000773356645368,-0.0007084825774654,-0.0012074942933395,-9.817736625671388,0,0,28.14750289916992,1,1,1000,1000,1.000433,0,0.000773356645368
1778782974.1004732,53284511,1,0.0008377818157896,0.0009850186761468,0.0007220453117042,-0.0034066336229443,0.0003452930541243,-9.816866874694824,0,0,28.14750289916992,1,1,760,800,1.000433,0,0.0007220453117042
1778782974.1404572,53324495,0,0.0007625016150996,0.0007023849757388,0.0007263325969688,-0.0006297749932855,-0.001305163372308,-9.817586898803713,0,0,28.149747848510746,1,1,1000,1000,1.040417,0,0.0007263325969688
1778782974.1404572,53324495,1,0.0007039785850793,0.0009338022209703,0.0007370507810264,-0.0027445701416581,-0.0011599701829254,-9.820484161376951,0,0,28.149747848510746,1,1,760,800,1.040417,0,0.0007370507810264
1778782974.1804411,53364479,0,0.0008259342284873,0.0007658650283701,0.0006667716661468,0.0001975553605007,-0.0009336462826468,-9.817177772521973,0,0,28.151994705200195,1,1,1000,1000,1.080401,0,0.0006667716661468
1778782974.1804411,53364479,1,0.0010029717814177,0.000713849440217,0.0006753537454642,-0.002711932407692,-0.0003876586852129,-9.8190279006958,0,0,28.151994705200195,1,1,760,800,1.080401,0,0.0006753537454642
1778782974.2204251,53404463,0,0.0007286082836799,0.0007146447896957,0.0007128191646188,-0.0003131621051579,-0.0004928999114781,-9.817394256591797,0,0,28.15424156188965,1,1,1000,1000,1.120385,0,0.0007128191646188
1778782974.2204251,53404463,1,0.0008342181681655,0.0006369733600877,0.0007153261103667,-0.0002183374162996,-0.0004434807633515,-9.814775466918944,0,0,28.15424156188965,1,1,760,800,1.120385,0,0.0007153261103667
1778782974.260409,53444447,0,0.0007478574989363,0.0007680440321564,0.0007055587484501,-0.0017478354275226,-0.0007265992462635,-9.81802463531494,0,0,28.15648651123047,1,1,1000,1000,1.160369,0,0.0007055587484501
1778782974.260409,53444447,1,0.0008719945326447,0.0006528526428155,0.0005421790992841,-0.002978742821142,-0.0028669005259871,-9.816062927246094,0,0,28.15648651123047,1,1,760,800,1.160369,0,0.0005421790992841
1778782974.300393,53484431,0,0.0008110016351565,0.000780303380452,0.0007105325348675,-0.0013640131801366,-8.742372301639989e-05,-9.81764793395996,0,0,28.15873336791992,1,1,1000,1000,1.200353,0,0.0007105325348675
1778782974.300393,53484431,1,0.0007542774546891,0.0006073997355997,0.0006282060639932,-0.0004942518426105,-5.294840957503766e-05,-9.814739227294922,0,0,28.15873336791992,1,1,760,800,1.200353,0,0.0006282060639932
1778782974.340377,53524415,0,0.0007291913498193,0.0007399690221063,0.0007556078489869,-0.0016148041468113,-0.0006240044604055,-9.817914009094238,0,0,28.16097640991211,1,1,1000,1000,1.240337,0,0.0007556078489869
1778782974.340377,53524415,1,0.0007985024712979,0.0009029927314259,0.0007948743877932,-0.0026207438204437,0.0003034400288015,-9.8172025680542,0,0,28.16097640991211,1,1,760,800,1.240337,0,0.0007948743877932
1778782974.380361,53564399,0,0.0007313583046197,0.0007382891490124,0.0007662827265448,-0.0006406079046428,-0.0009319750242866,-9.817164421081545,0,0,28.16322326660156,1,1,1000,1000,1.280321,0,0.0007662827265448
1778782974.380361,53564399,1,0.0009481864399276,0.0008233757107518,0.000832762918435,-0.0002279148320667,-0.0010976220946758,-9.818553924560549,0,0,28.16322326660156,1,1,760,800,1.280321,0,0.000832762918435
1778782974.420345,53604383,0,0.0007950944709591,0.0007397244917228,0.0007772069657221,-0.0010918161133304,-0.0014018664369359,-9.817241668701172,0,0,28.165468215942383,1,1,1000,1000,1.320305,0,0.0007772069657221
1778782974.420345,53604383,1,0.0006959510501474,0.0007550730369985,0.0008999792626127,-0.0023673109244555,-0.0001347098732367,-9.815601348876951,0,0,28.165468215942383,1,1,760,800,1.320305,0,0.0008999792626127
1778782974.460329,53644367,0,0.0007309331558644,0.0008046794682741,0.0008110628696158,-0.0021441597491502,-0.0016163805266842,-9.81668186187744,0,0,28.167713165283203,1,1,1000,1000,1.360289,0,0.0008110628696158
1778782974.460329,53644367,1,0.0006706962594762,0.0009702037787064,0.0008073631906881,0.0004729517386294,-0.0009275504271499,-9.81859016418457,0,0,28.167713165283203,1,1,760,800,1.360289,0,0.0008073631906881
1778782974.500313,53684351,0,0.0006906555499881,0.0007427876116707,0.0008109366754069,-0.0002830746525432,-0.0014663316542282,-9.817510604858398,0,0,28.16995620727539,1,1,1000,1000,1.400273,0,0.0008109366754069
1778782974.500313,53684351,1,0.0005172340897843,0.0005729352706111,0.0007799287559464,-0.0003039082512259,-1.7264756024815142e-05,-9.81736946105957,0,0,28.16995620727539,1,1,760,800,1.400273,0,0.0007799287559464
1778782974.540297,53724335,0,0.0007589449523948,0.0007606521248817,0.0007324367761611,-0.0013006218941882,-0.0012768511660397,-9.816977500915527,0,0,28.172199249267575,1,1,1000,1000,1.440257,0,0.0007324367761611
1778782974.540297,53724335,1,0.0005564235616475,0.0007454559672623,0.0007627619779668,-0.001893292996101,-0.0005049979663453,-9.815479278564451,0,0,28.172199249267575,1,1,760,800,1.440257,0,0.0007627619779668
1778782974.580281,53764319,0,0.0008417195640504,0.0007590973982587,0.0007413047133013,-0.0016248924657702,-0.0011300303740426,-9.816763877868652,0,0,28.17444229125977,1,1,1000,1000,1.480241,0,0.0007413047133013
1778782974.580281,53764319,1,0.0007163650589063,0.0009062821627594,0.0008278574096038,6.252034654607996e-05,-0.0010156037751585,-9.816221237182615,0,0,28.17444229125977,1,1,760,800,1.480241,0,0.0008278574096038
1778782974.620265,53804303,0,0.0007804989581927,0.0006740030366927,0.0006697915960103,-0.0019728213082998,-0.0012033906532451,-9.81818675994873,0,0,28.176687240600582,1,1,1000,1000,1.520225,0,0.0006697915960103
1778782974.620265,53804303,1,0.0009015133255161,0.0006644562236033,0.0005556227406486,-0.001282388344407,-0.0001991409517358,-9.820545196533203,0,0,28.176687240600582,1,1,760,800,1.520225,0,0.0005556227406486
1778782974.6602488,53844287,0,0.0007099301437847,0.0007325579645112,0.0006428086198866,-0.0003488771035335,-0.0006782984128221,-9.81727695465088,0,0,28.178930282592773,1,1,1000,1000,1.560209,0,0.0006428086198866
1778782974.6602488,53844287,1,0.0006128383683972,0.0007809030357748,0.0007722228765487,-0.0041557485237717,-0.0002221188333351,-9.817852020263672,0,0,28.178930282592773,1,1,760,800,1.560209,0,0.0007722228765487
1778782974.7002327,53884271,0,0.0008160695433616,0.0007507532718591,0.0007736743427813,-0.0025880434550344,-0.0005222831387072,-9.817023277282717,0,0,28.18117332458496,1,1,1000,1000,1.600193,0,0.0007736743427813
1778782974.7002327,53884271,1,0.0008927109302021,0.0007912087603472,0.0006429622299037,-0.0006047709612175,0.0008707873057574,-9.816768646240234,0,0,28.18117332458496,1,1,760,800,1.600193,0,0.0006429622299037
1778782974.7402167,53924255,0,0.0008212003158405,0.000785592244938,0.0007712974329479,-0.0005103152361698,-0.0013188639422878,-9.815871238708496,0,0,28.18341445922852,1,1,1000,1000,1.640177,0,0.0007712974329479
1778782974.7402167,53924255,1,0.0006920551531948,0.0007479989435523,0.0007830057293176,-0.0028177523054182,-0.0011178761487826,-9.818973541259766,0,0,28.18341445922852,1,1,760,800,1.640177,0,0.0007830057293176
1778782974.7802007,53964239,0,0.0008147762273438,0.0007058999035507,0.0007180783431977,-0.0024936052504926,-0.00110420351848,-9.818558692932127,0,0,28.185657501220703,1,1,1000,1000,1.680161,0,0.0007180783431977
1778782974.7802007,53964239,1,0.0008037759107537,0.0009187077521346,0.0007881284691393,-0.0010970969451591,-0.0020989524200558,-9.813881874084473,0,0,28.185657501220703,1,1,760,800,1.680161,0,0.0007881284691393
1778782974.8201852,54004223,0,0.0007707061595283,0.0008748440304771,0.0008180427830666,-0.0005613945540972,-0.0005899126990698,-9.817009925842283,0,0,28.187843322753903,1,1,1000,1000,1.720145,0,0.0008180427830666
1778782974.8201852,54004223,1,0.0006077716825529,0.0010284876916557,0.0006732563488185,-0.0024490137584507,0.0005530633497983,-9.81737232208252,0,0,28.187843322753903,1,1,760,800,1.720145,0,0.0006732563488185
1778782974.8601692,54044207,0,0.0007998895598575,0.0007801273604854,0.0007975188200362,-0.0010084994137287,-0.0009750759927555,-9.817920684814451,0,0,28.19008445739746,1,1,1000,1000,1.760129,0,0.0007975188200362
1778782974.8601692,54044207,1,0.0007637431845068,0.0008714675204828,0.0009459347929805,-0.0011207750067114,0.0009147750679403,-9.81738567352295,0,0,28.19008445739746,1,1,760,800,1.760129,0,0.0009459347929805
1778782974.9001532,54084191,0,0.0008218907751142,0.0008432319154962,0.0008020846871659,-0.0006741922115907,-0.000934679643251,-9.816974639892578,0,0,28.192325592041016,1,1,1000,1000,1.800113,0,0.0008020846871659
1778782974.9001532,54084191,1,0.0006561022019013,0.0007566231652162,0.0008066671434789,-0.000530110031832,-0.0017730775289237,-9.817895889282228,0,0,28.192325592041016,1,1,760,800,1.800113,0,0.0008066671434789
1778782974.9401371,54124175,0,0.0007842205232009,0.0007744274334982,0.0007816557772457,-0.0009836088865995,-0.000515742751304,-9.819421768188477,0,0,28.194564819335938,1,1,1000,1000,1.840097,0,0.0007816557772457
1778782974.9401371,54124175,1,0.0007273131050169,0.0009002683218568,0.000805479590781,-0.0003853016823995,0.0003814238589257,-9.816123008728027,0,0,28.194564819335938,1,1,760,800,1.840097,0,0.000805479590781
1778782974.9801211,54164159,0,0.0007694272790104,0.0007822396000847,0.0007530387374572,-0.0022114019375294,-0.0003242019738536,-9.816529273986816,0,0,28.196807861328125,1,1,1000,1000,1.880081,0,0.0007530387374572
1778782974.9801211,54164159,1,0.0007325377664528,0.0007520689396187,0.0010436704615131,-0.0013162217801436,-0.0007661257404834,-9.81679344177246,0,0,28.196807861328125,1,1,760,800,1.880081,0,0.0010436704615131
1778782975.0201051,54204143,0,0.0007422312628477,0.0007845947984606,0.0007518476340919,-0.0002545423049014,-0.0010260879062116,-9.816851615905762,0,0,28.199047088623047,1,1,1000,1000,1.920065,0,0.0007518476340919
1778782975.0201051,54204143,1,0.0007143932743929,0.0008784978417679,0.000912090181373,-0.0006319780950434,-0.002282834611833,-9.817941665649414,0,0,28.199047088623047,1,1,760,800,1.920065,0,0.000912090181373
1778782975.060089,54244127,0,0.0007899528718553,0.0007592978654429,0.000754230772145,-0.0015982635086402,-0.0013500151690095,-9.818096160888672,0,0,28.20128631591797,1,1,1000,1000,1.960049,0,0.000754230772145
1778782975.060089,54244127,1,0.0006573092541657,0.0006062816828489,0.0007249438203871,-0.0014221864985302,-0.0015736056957393,-9.818367958068848,0,0,28.20128631591797,1,1,760,800,1.960049,0,0.0007249438203871
1778782975.100073,54284111,0,0.0008130498463287,0.000720692158211,0.0007371040410362,-0.000591876800172,-0.0016128194984048,-9.816983222961426,0,0,28.203527450561523,1,1,1000,1000,2.000033,0,0.0007371040410362
1778782975.100073,54284111,1,0.0009003439336083,0.0007558864308521,0.0006877949344925,-0.0016014324501156,-0.0028579619247466,-9.81476879119873,0,0,28.203527450561523,1,1,760,800,2.000033,0,0.0006877949344925
1778782975.140057,54324095,0,0.0007884862716309,0.0008088943432085,0.000791608239524,-0.0013621542602777,-0.0011732876300811,-9.817581176757812,0,0,28.205766677856445,1,1,1000,1000,2.040017,0,0.000791608239524
1778782975.140057,54324095,1,0.0007824932690709,0.0009150574915111,0.0009304738487116,-0.0023727365769445,-0.0002606237248983,-9.81692123413086,0,0,28.205766677856445,1,1,760,800,2.040017,0,0.0009304738487116
1778782975.180041,54364079,0,0.0007697293767705,0.000751411775127,0.0007058119517751,-0.0010116136400029,-0.0007452779682353,-9.817038536071776,0,0,28.208005905151367,1,1,1000,1000,2.080001,0,0.0007058119517751
1778782975.180041,54364079,1,0.0008865525014698,0.0008527897298336,0.0007730502984486,-0.0009741242974996,-0.0017200078582391,-9.816608428955078,0,0,28.208005905151367,1,1,760,800,2.080001,0,0.0007730502984486
1778782975.220025,54404063,0,0.0007187769515439,0.0007685784366913,0.0008319949265569,-0.000644945539534,-0.0020602820441126,-9.816017150878906,0,0,28.21030044555664,1,1,1000,1000,2.119985,0,0.0008319949265569
1778782975.220025,54404063,1,0.0004800249589607,0.000675574876368,0.0006060167797841,-0.0012013404630124,-0.0021053501404821,-9.81604290008545,0,0,28.210243225097656,1,1,760,800,2.119985,0,0.0006060167797841
1778782975.260009,54444047,0,0.0007986617274582,0.0007665689336135,0.0007353173568844,-0.0013806840870529,-0.0017751930281519,-9.81789779663086,0,0,28.21253967285156,1,1,1000,1000,2.159969,0,0.0007353173568844
1778782975.260009,54444047,1,0.0005295561859384,0.0006795382359996,0.0008642780594527,5.2109608077444136e-05,-0.0008865013951435,-9.819214820861816,0,0,28.212482452392575,1,1,760,800,2.159969,0,0.0008642780594527
1778782975.299993,54484031,0,0.0007356034475378,0.0007314318791031,0.0008381597581319,-0.0002700212353374,-0.0006148950778879,-9.816486358642578,0,0,28.21477699279785,1,1,1000,1000,2.199953,0,0.0008381597581319
1778782975.299993,54484031,1,0.0010158901568502,0.0006764835561625,0.0007215734804049,0.0003553484857548,-0.0010427330853417,-9.818999290466309,0,0,28.214719772338867,1,1,760,800,2.199953,0,0.0007215734804049
1778782975.34081,54524848,0,0.0007111359154805,0.0007362868054769,0.0006948679219931,-0.0017249885713681,-0.0002497040841262,-9.817964553833008,0,0,28.21701431274414,1,1,1000,1000,2.24077,0,0.0006948679219931
1778782975.34081,54524848,1,0.0006614318117499,0.0008747781394049,0.0007252469658851,-0.0016720563871785,-0.0033104442991316,-9.816890716552734,0,0,28.21701431274414,1,1,760,800,2.24077,0,0.0007252469658851
1778782975.380794,54564832,0,0.0007798869046382,0.0007038870244286,0.0007189107127487,-0.002375763375312,-0.0029419818893074,-9.817480087280272,0,0,28.21925163269043,1,1,1000,1000,2.280754,0,0.0007189107127487
1778782975.380794,54564832,1,0.0006729120505042,0.000873145298101,0.0007132546743378,-0.0006429133936762,-0.0005882116965949,-9.815119743347168,0,0,28.21925163269043,1,1,760,800,2.280754,0,0.0007132546743378
1778782975.420778,54604816,0,0.0007601986872032,0.0007443065987899,0.0008099894039332,-0.0015608376124873,-0.0009703534888103,-9.817300796508787,0,0,28.22148895263672,1,1,1000,1000,2.320738,0,0.0008099894039332
1778782975.420778,54604816,1,0.0008826088160276,0.0009822453139349,0.0008187325438484,-0.0007306144689209,-9.079003939405084e-05,-9.81895923614502,0,0,28.22148895263672,1,1,760,800,2.320738,0,0.0008187325438484
1778782975.460762,54644800,0,0.000763235555496,0.0007332921959459,0.0006968560628592,-0.0010798728326335,-4.8650719691067934e-05,-9.81747817993164,0,0,28.223726272583008,1,1,1000,1000,2.360722,0,0.0006968560628592
1778782975.460762,54644800,1,0.0008820737130008,0.000674074573908,0.0008326278766617,-0.003005216596648,6.845885218353942e-05,-9.817636489868164,0,0,28.223726272583008,1,1,760,800,2.360722,0,0.0008326278766617
1778782975.500746,54684784,0,0.0007632337510585,0.0008201849414035,0.0007203433779068,-0.0013748354976996,-0.0011436319909989,-9.8185453414917,0,0,28.225963592529297,1,1,1000,1000,2.400706,0,0.0007203433779068
1778782975.500746,54684784,1,0.0008496498921886,0.0009124203352257,0.000835086160805,-0.0002398867945885,-0.0008836010820232,-9.81648063659668,0,0,28.225963592529297,1,1,760,800,2.400706,0,0.000835086160805
1778782975.54073,54724768,0,0.0007453829166479,0.0007564591942355,0.0006857920670881,-0.000220282599912,-0.0012934040278196,-9.81711483001709,0,0,28.228199005126957,1,1,1000,1000,2.44069,0,0.0006857920670881
1778782975.54073,54724768,1,0.0007429469842463,0.0008596171392127,0.0007406161166727,8.253066334873438e-05,-0.0004203924909234,-9.81705093383789,0,0,28.228199005126957,1,1,760,800,2.44069,0,0.0007406161166727
1778782975.580714,54764752,0,0.0007022147765383,0.0008043778943829,0.000738481641747,-0.0001815487921703,-0.000125080201542,-9.815584182739258,0,0,28.23043632507324,1,1,1000,1000,2.480674,0,0.000738481641747
1778782975.580714,54764752,1,0.0007489656563848,0.0006654324242845,0.0008575411047786,-0.0020317903254181,-0.0005300834891386,-9.818063735961914,0,0,28.23043632507324,1,1,760,800,2.480674,0,0.0008575411047786
1778782975.620698,54804736,0,0.0007110693841241,0.0006834577070549,0.0008838217472657,-0.001153418677859,-0.0025123450905084,-9.817767143249512,0,0,28.2326717376709,1,1,1000,1000,2.520658,0,0.0008838217472657
1778782975.620698,54804736,1,0.0005396697670221,0.0005483420100063,0.0009531704126857,0.0004481796640902,-0.0023414602037519,-9.816900253295898,0,0,28.2326717376709,1,1,760,800,2.520658,0,0.0009531704126857
1778782975.660682,54844720,0,0.0007532953750342,0.0007933768793009,0.000829110853374,-0.0012782484991475,-0.0018073774408549,-9.817476272583008,0,0,28.234907150268555,1,1,1000,1000,2.560642,0,0.000829110853374
1778782975.660682,54844720,1,0.0006995175499469,0.0009388071484863,0.000742194650229,-0.0013759937137365,-0.0016485300147905,-9.815008163452148,0,0,28.234907150268555,1,1,760,800,2.560642,0,0.000742194650229
1778782975.700666,54884704,0,0.0007825370412319,0.0008080964908003,0.0006702472455799,-0.0009855643147602,-0.0005862026591785,-9.81676959991455,0,0,28.23714256286621,1,1,1000,1000,2.600626,0,0.0006702472455799
1778782975.700666,54884704,1,0.0008231615647673,0.0007855730364099,0.0007522980449721,-0.0026794834993779,-0.0001108602809836,-9.818731307983398,0,0,28.23714256286621,1,1,760,800,2.600626,0,0.0007522980449721
1778782975.74065,54924688,0,0.0008139138808473,0.0006695587653666,0.0007791834068484,-0.0006552817067131,-0.0011631693923845,-9.816843032836914,0,0,28.239376068115234,1,1,1000,1000,2.64061,0,0.0007791834068484
1778782975.74065,54924688,1,0.000803587725386,0.0008541657589375,0.0008136369287967,-0.0018635018495842,-0.0012014198582619,-9.816272735595703,0,0,28.239376068115234,1,1,760,800,2.64061,0,0.0008136369287967
1778782975.780634,54964672,0,0.0008938585524447,0.0007450585253536,0.0007884340011514,-0.0001842615602072,0.0001012776046991,-9.816888809204102,0,0,28.24161148071289,1,1,1000,1000,2.680594,0,0.0007884340011514
1778782975.780634,54964672,1,0.0007398021407425,0.0007430296391248,0.0005520586273632,-0.0009740679524838,-0.0001415884471498,-9.8199462890625,0,0,28.24161148071289,1,1,760,800,2.680594,0,0.0005520586273632
1778782975.820618,55004656,0,0.000680404540617,0.0007200219552032,0.0007793286931701,-0.0011528618633747,0.0001944467658177,-9.816946029663086,0,0,28.243844985961918,1,1,1000,1000,2.720578,0,0.0007793286931701
1778782975.820618,55004656,1,0.0006861475412733,0.0007423619972541,0.0005840924568474,-0.000798764929641,-0.00183998409193,-9.819265365600586,0,0,28.243844985961918,1,1,760,800,2.720578,0,0.0005840924568474
1778782975.860602,55044640,0,0.000834941281937,0.0008077892125584,0.0007297160918824,-0.0006222160300239,-0.0005929733742959,-9.817517280578612,0,0,28.24608039855957,1,1,1000,1000,2.760562,0,0.0007297160918824
1778782975.860602,55044640,1,0.0007959227077662,0.0007155067287385,0.0010662885615602,-0.0022626733407378,-0.0003039485309273,-9.817903518676758,0,0,28.24608039855957,1,1,760,800,2.760562,0,0.0010662885615602
1778782975.900586,55084624,0,0.0007627920713275,0.0007461320492438,0.0006892498931847,-0.0009251241572201,-0.0007411306723952,-9.81791877746582,0,0,28.248313903808597,1,1,1000,1000,2.800546,0,0.0006892498931847
1778782975.900586,55084624,1,0.000683537684381,0.0007512582815252,0.0009483118774369,0.001132130739279,-0.0009668067796155,-9.81611156463623,0,0,28.248313903808597,1,1,760,800,2.800546,0,0.0009483118774369
1778782975.94057,55124608,0,0.0007353244000114,0.0007533914176747,0.0008532946230843,-0.0010685094166547,-0.0014247022336348,-9.817398071289062,0,0,28.250545501708984,1,1,1000,1000,2.84053,0,0.0008532946230843
1778782975.94057,55124608,1,0.0008574410458095,0.0007349798106588,0.0006661632214672,-0.0006853964296169,-0.0030714848544448,-9.81692886352539,0,0,28.250545501708984,1,1,760,800,2.84053,0,0.0006661632214672
1778782975.980554,55164592,0,0.0007680627750232,0.0007665753364562,0.0007757421699352,-0.0012223270023241,-0.0011915895156562,-9.81704330444336,0,0,28.25278091430664,1,1,1000,1000,2.880514,0,0.0007757421699352
1778782975.980554,55164592,1,0.0004402235208544,0.0008872196776792,0.0007917627226561,0.0002020408574026,0.0009919379372149,-9.817506790161133,0,0,28.25278091430664,1,1,760,800,2.880514,0,0.0007917627226561
1778782976.020538,55204576,0,0.0008070565527305,0.0007393265841528,0.0007198406383395,-0.0014508586609736,-0.0003558754106052,-9.817161560058594,0,0,28.25501251220703,1,1,1000,1000,2.920498,0,0.0007198406383395
1778782976.020538,55204576,1,0.0007149301236495,0.0006033688550814,0.0012524686753749,-0.0004229747573845,-0.0013702693395316,-9.816826820373535,0,0,28.25501251220703,1,1,760,800,2.920498,0,0.0012524686753749
1778782976.060522,55244560,0,0.0008186508785001,0.0007916488684713,0.0007235022494569,-0.0012527416693046,-0.0011832521995529,-9.816351890563965,0,0,28.257244110107425,1,1,1000,1000,2.960482,0,0.0007235022494569
1778782976.060522,55244560,1,0.000694696442224,0.0007600182434543,0.000910919799935,-0.0017503303242847,0.0003461654414422,-9.818918228149414,0,0,28.257244110107425,1,1,760,800,2.960482,0,0.000910919799935
1778782976.100506,55284544,0,0.000728813232854,0.0007268303306773,0.0007806544890627,-0.0011284217471256,-0.0012036843691021,-9.817584037780762,0,0,28.259477615356445,1,1,1000,1000,3.000466,0,0.0007806544890627
1778782976.100506,55284544,1,0.001016093767248,0.0008500721305608,0.0006874654791317,-0.0017207950586453,-0.0018676946638152,-9.81685733795166,0,0,28.259477615356445,1,1,760,800,3.000466,0,0.0006874654791317
1778782976.14049,55324528,0,0.0008531535277143,0.0007278486154973,0.000821536174044,-0.0018010276835411,-0.0012751343892887,-9.817193031311035,0,0,28.26170921325684,1,1,1000,1000,3.04045,0,0.000821536174044
1778782976.14049,55324528,1,0.0006188974366523,0.0008078443352133,0.0006746960571035,-0.0003361286362633,-0.0005264222854748,-9.81771183013916,0,0,28.26170921325684,1,1,760,800,3.04045,0,0.0006746960571035
1778782976.180474,55364512,0,0.0007554652984254,0.0007030988344922,0.0008201882010325,-0.001021462958306,-0.0012745035346597,-9.81831169128418,0,0,28.263940811157227,1,1,1000,1000,3.080434,0,0.0008201882010325
1778782976.180474,55364512,1,0.0006415760144591,0.0008948574541136,0.00072294176789,-0.0006831286591477,-0.0009542850311845,-9.819029808044434,0,0,28.263940811157227,1,1,760,800,3.080434,0,0.00072294176789
1778782976.220458,55404496,0,0.0008334683370776,0.0008558332920074,0.0008601049194112,-0.0010850002290681,-0.0013679083203896,-9.81757354736328,0,0,28.266172409057617,1,1,1000,1000,3.120418,0,0.0008601049194112
1778782976.220458,55404496,1,0.000849595235195,0.0008210478699766,0.0007889490807428,-0.0019029274117201,-0.0018040461000055,-9.819618225097656,0,0,28.266172409057617,1,1,760,800,3.120418,0,0.0007889490807428
1778782976.260442,55444480,0,0.0007494568708352,0.0006725456332787,0.0008155222749337,-0.0008892220794223,-0.0018388335593044,-9.818133354187012,0,0,28.268404006958008,1,1,1000,1000,3.160402,0,0.0008155222749337
1778782976.260442,55444480,1,0.0006377462996169,0.0009564444771967,0.0008946176385506,-0.0014226110652089,-0.0007379101589322,-9.81686782836914,0,0,28.268404006958008,1,1,760,800,3.160402,0,0.0008946176385506
1778782976.300426,55484464,0,0.0008557143737562,0.0008130997885018,0.0007579267839901,-0.0002078146062558,-0.0004191882035229,-9.817020416259766,0,0,28.27063369750977,1,1,1000,1000,3.200386,0,0.0007579267839901
1778782976.300426,55484464,1,0.0006682687089778,0.0006821769056841,0.0010423100320622,-0.0009992005070671,0.0005109884077683,-9.817840576171877,0,0,28.27063369750977,1,1,760,800,3.200386,0,0.0010423100320622
1778782976.34041,55524448,0,0.0007614463102072,0.0007481834036298,0.0008077407255768,-0.0016204569255933,-0.0017745564691722,-9.816506385803224,0,0,28.27286529541016,1,1,1000,1000,3.24037,0,0.0008077407255768
1778782976.34041,55524448,1,0.0006131249829195,0.0008230023668147,0.0009821063140407,-0.0006799719412811,0.0012055062688887,-9.817479133605955,0,0,28.27286529541016,1,1,760,800,3.24037,0,0.0009821063140407
1778782976.380394,55564432,0,0.0008167593041434,0.0007640274707227,0.0008133240626193,-0.0004203774151392,-0.0003518137673381,-9.817278861999512,0,0,28.275094985961918,1,1,1000,1000,3.280354,0,0.0008133240626193
1778782976.380394,55564432,1,0.0008200388983823,0.0005745427333749,0.0007986372802406,-0.0003323841374367,-0.0010494370944797,-9.818464279174805,0,0,28.275094985961918,1,1,760,800,3.280354,0,0.0007986372802406
1778782976.420378,55604416,0,0.000830172561109,0.000752390245907,0.0007663160795345,-0.0009670314611867,-0.0006883473834022,-9.816716194152832,0,0,28.277324676513672,1,1,1000,1000,3.320338,0,0.0007663160795345
1778782976.420378,55604416,1,0.0007348068756982,0.0005489219911396,0.000603453896474,-0.0015339023666456,-0.0013170248130336,-9.815590858459473,0,0,28.277324676513672,1,1,760,800,3.320338,0,0.000603453896474
1778782976.460362,55644400,0,0.0008408575667999,0.0007362935575656,0.0007771480595692,-0.0006881947047077,-6.638457125518471e-05,-9.817255973815918,0,0,28.27955436706543,1,1,1000,1000,3.360322,0,0.0007771480595692
1778782976.460362,55644400,1,0.0008001127280294,0.0007034486043266,0.000719912815839,-0.0036212445702403,-0.0003167740651406,-9.815861701965332,0,0,28.27955436706543,1,1,760,800,3.360322,0,0.000719912815839
1778782976.500346,55684384,0,0.0008316278690472,0.000820112763904,0.0007777594728395,-0.0013630371540784,-0.0007908948464319,-9.818620681762695,0,0,28.281784057617188,1,1,1000,1000,3.400306,0,0.0007777594728395
1778782976.500346,55684384,1,0.0009197146864607,0.0007097867783159,0.0006765504367649,-0.0040473169647157,-0.0007596029900014,-9.817474365234377,0,0,28.281784057617188,1,1,760,800,3.400306,0,0.0006765504367649
1778782976.54033,55724368,0,0.0007033492438495,0.0007402357296086,0.0007559272344224,-0.001134020043537,-0.0009791671764105,-9.816900253295898,0,0,28.284011840820312,1,1,1000,1000,3.44029,0,0.0007559272344224
1778782976.54033,55724368,1,0.0007559140212833,0.0005467747687362,0.001013959525153,-0.0003780197876039,-0.0011453565675765,-9.817718505859377,0,0,28.284011840820312,1,1,760,800,3.44029,0,0.001013959525153
1778782976.580314,55764352,0,0.0007782458560541,0.0007646807353012,0.0007248091278597,-0.0010546484263613,9.816682722885162e-05,-9.818553924560549,0,0,28.28624153137207,1,1,1000,1000,3.480274,0,0.0007248091278597
1778782976.580314,55764352,1,0.0004674095544032,0.0008271116530522,0.0008267365046776,-0.0007143710972741,-0.0002382278034929,-9.817438125610352,0,0,28.28624153137207,1,1,760,800,3.480274,0,0.0008267365046776
1778782976.620298,55804336,0,0.0008640549494884,0.0007204811554402,0.0008168189087882,-0.0005189914954826,-0.0007203215500339,-9.817261695861816,0,0,28.288469314575195,1,1,1000,1000,3.520258,0,0.0008168189087882
1778782976.620298,55804336,1,0.0007898005424067,0.0009759542299434,0.0008620892185717,-0.0015393092762678,-0.0006501243333332,-9.818567276000977,0,0,28.288469314575195,1,1,760,800,3.520258,0,0.0008620892185717
1778782976.660282,55844320,0,0.0007908078841865,0.0008383811218664,0.0007900767377577,-0.0001631403720239,-0.0013067828258499,-9.817397117614746,0,0,28.29069709777832,1,1,1000,1000,3.560242,0,0.0007900767377577
1778782976.660282,55844320,1,0.0005452924524433,0.0009242152445949,0.0009105883073061,-0.0028714188374578,-0.0008077670354396,-9.819730758666992,0,0,28.29069709777832,1,1,760,800,3.560242,0,0.0009105883073061
1778782976.700266,55884304,0,0.0007866399828344,0.0008805120596662,0.0007482297951355,-0.0002562698500696,-0.0008214158006012,-9.817089080810549,0,0,28.292924880981445,1,1,1000,1000,3.600226,0,0.0007482297951355
1778782976.700266,55884304,1,0.0004516046319622,0.0007525771507062,0.0007811383111402,0.0007205606088973,-0.0010634530335664,-9.817254066467283,0,0,28.292924880981445,1,1,760,800,3.600226,0,0.0007811383111402
1778782976.74025,55924288,0,0.0008002697722986,0.0007876998279243,0.0008129109046421,-0.001046291552484,-0.001255111536011,-9.81760311126709,0,0,28.29515266418457,1,1,1000,1000,3.64021,0,0.0008129109046421
1778782976.74025,55924288,1,0.0007783034816384,0.0005998880369588,0.0005510097835212,0.0006539380992762,7.481287320842966e-05,-9.817501068115234,0,0,28.29515266418457,1,1,760,800,3.64021,0,0.0005510097835212
1778782976.780234,55964272,0,0.000810200930573,0.0007299571880139,0.0007504165405407,-0.0006975656142458,-0.0003477835271041,-9.817367553710938,0,0,28.29738044738769,1,1,1000,1000,3.680194,0,0.0007504165405407
1778782976.780234,55964272,1,0.0009015051182359,0.000812855316326,0.0007044956437312,0.0003494419797789,-0.0023492574691772,-9.817405700683594,0,0,28.29738044738769,1,1,760,800,3.680194,0,0.0007044956437312
1778782976.820218,56004256,0,0.0007608797168359,0.0008104942389763,0.0007463631918653,-0.0014975832309573,-0.0013909402769058,-9.817874908447266,0,0,28.299606323242188,1,1,1000,1000,3.720178,0,0.0007463631918653
1778782976.820218,56004256,1,0.0010641202097758,0.0009603957878425,0.000819447916001,-0.0024543446488678,0.000420436321292,-9.817586898803713,0,0,28.299606323242188,1,1,760,800,3.720178,0,0.000819447916001
1778782976.860202,56044240,0,0.0007554809562861,0.0007498688064515,0.0008105122833512,-0.0020620911382138,-0.0014708150411024,-9.818971633911133,0,0,28.30183219909668,1,1,1000,1000,3.760162,0,0.0008105122833512
1778782976.860202,56044240,1,0.0007499167113564,0.0006432422087527,0.0005829072906635,0.0004340076702646,0.0001714063982944,-9.818034172058104,0,0,28.30183219909668,1,1,760,800,3.760162,0,0.0005829072906635
1778782976.900186,56084224,0,0.0007413219427689,0.0007948788697831,0.0007770959637127,-0.0013412658590823,-0.0009553649579174,-9.817607879638672,0,0,28.30400276184082,1,1,1000,1000,3.800146,0,0.0007770959637127
1778782976.900186,56084224,1,0.0007015356677584,0.0008519728435203,0.0007976407650858,-0.0031224843114614,-0.0007259337580762,-9.817693710327148,0,0,28.30400276184082,1,1,760,800,3.800146,0,0.0007976407650858
1778782976.94017,56124208,0,0.0007917968323454,0.0007580260862596,0.0007531836745329,-0.0001857580064097,-0.0016244291327893,-9.816767692565918,0,0,28.306230545043945,1,1,1000,1000,3.84013,0,0.0007531836745329
1778782976.94017,56124208,1,0.0009464696631766,0.0006676776101812,0.0009333885391242,0.0001860935590229,0.0005261257756501,-9.817922592163086,0,0,28.306230545043945,1,1,760,800,3.84013,0,0.0009333885391242
1778782976.980154,56164192,0,0.0007438471075147,0.0007684073643758,0.0008006166899576,-0.0017303224885836,-0.0003373149083927,-9.817138671875,0,0,28.30845642089844,1,1,1000,1000,3.880114,0,0.0008006166899576
1778782976.980154,56164192,1,0.0009266765555366,0.0007436837768182,0.00063715595752,-0.0012437154073268,-0.0044083697721362,-9.81804370880127,0,0,28.30845642089844,1,1,760,800,3.880114,0,0.00063715595752
1778782977.020138,56204176,0,0.0007167892181314,0.0007163002737797,0.0007421933114528,-0.0008369241841137,-0.0016622982220724,-9.817346572875977,0,0,28.310680389404297,1,1,1000,1000,3.920098,0,0.0007421933114528
1778782977.020138,56204176,1,0.0007657759124413,0.0004580270906444,0.0006889840587973,-0.0016800703015178,-0.0001294112153118,-9.81804370880127,0,0,28.310680389404297,1,1,760,800,3.920098,0,0.0006889840587973
1778782977.060122,56244160,0,0.0008144914754666,0.0007774070836603,0.0008405445259995,-0.0008452201727777,-0.0003429496719036,-9.816568374633787,0,0,28.31290626525879,1,1,1000,1000,3.960082,0,0.0008405445259995
1778782977.060122,56244160,1,0.0007039000629447,0.0010124683612957,0.0006327036535367,-0.0010519762290641,-0.0009685470722615,-9.815590858459473,0,0,28.31290626525879,1,1,760,800,3.960082,0,0.0006327036535367
1778782977.100106,56284144,0,0.0007843197672627,0.0008789062849245,0.0007788783404976,-0.0019397314172238,-0.0024317251518368,-9.81723690032959,0,0,28.31513023376465,1,1,1000,1000,4.000066,0,0.0007788783404976
1778782977.100106,56284144,1,0.0007799430168233,0.0009493980905972,0.0007671454222872,-7.526850822614506e-05,-0.0005431248573586,-9.82016372680664,0,0,28.31513023376465,1,1,760,800,4.000066,0,0.0007671454222872
1778782977.14009,56324128,0,0.000719478179235,0.0008033378981053,0.0008026582654565,-0.0013632550835609,-0.0009374765795655,-9.817899703979492,0,0,28.317354202270508,1,1,1000,1000,4.04005,0,0.0008026582654565
1778782977.14009,56324128,1,0.0009323899867013,0.0007746084593236,0.0008178191492334,0.0002163010358344,-0.0015522047178819,-9.814969062805176,0,0,28.317354202270508,1,1,760,800,4.04005,0,0.0008178191492334
1778782977.180074,56364112,0,0.0009137799497693,0.0007892186986282,0.0007943289238028,-0.0017511274199932,-0.0002045240689767,-9.818324089050291,0,0,28.319580078125,1,1,1000,1000,4.080034,0,0.0007943289238028
1778782977.180074,56364112,1,0.0007564775878563,0.0009014466777443,0.0008713058778084,5.2823561418335885e-05,0.0005745277157984,-9.818304061889648,0,0,28.319580078125,1,1,760,800,4.080034,0,0.0008713058778084
1778782977.220058,56404096,0,0.0007581734098494,0.0008406370761804,0.0008388878777623,-0.0016299559501931,-0.0015267779817804,-9.816089630126951,0,0,28.32180404663086,1,1,1000,1000,4.120018,0,0.0008388878777623
1778782977.220058,56404096,1,0.0006427323096431,0.000691479537636,0.0007158747757785,-2.705293445615098e-05,-0.0013684061123058,-9.817313194274902,0,0,28.32180404663086,1,1,760,800,4.120018,0,0.0007158747757785
1778782977.260042,56444080,0,0.0007959614158608,0.0007441913476213,0.0007573360926471,-0.0006007355405017,-0.0016193019691854,-9.818364143371582,0,0,28.32402801513672,1,1,1000,1000,4.160002,0,0.0007573360926471
1778782977.260042,56444080,1,0.0008043545531108,0.0008352154982276,0.0006850575446151,0.0008102181600406,-0.0011490094475448,-9.814501762390137,0,0,28.32402801513672,1,1,760,800,4.160002,0,0.0006850575446151
1778782977.300026,56484064,0,0.0007398594752885,0.000741419615224,0.0008428898290731,-0.0010296392720192,-0.0014011570019647,-9.816328048706056,0,0,28.326305389404297,1,1,1000,1000,4.199986,0,0.0008428898290731
1778782977.300026,56484064,1,0.0008482223493047,0.0010015993611887,0.0007841837359592,-0.0001118348300224,-0.0021893102675676,-9.816789627075195,0,0,28.326250076293945,1,1,760,800,4.199986,0,0.0007841837359592
1778782977.34001,56524048,0,0.0008670598035678,0.000887801288627,0.0007576032658107,-0.0020312394481152,-0.0002025827707257,-9.816675186157228,0,0,28.32852935791016,1,1,1000,1000,4.23997,0,0.0007576032658107
1778782977.34001,56524048,1,0.0006573493592441,0.0008688035886734,0.0010152847971767,-0.0009079614537768,-0.0016952676232904,-9.81800365447998,0,0,28.328474044799805,1,1,760,800,4.23997,0,0.0010152847971767
1778782977.379994,56564032,0,0.0007640362600795,0.0008044736459851,0.0008464303100481,-0.0007954173488542,-0.0006565143121406,-9.817339897155762,0,0,28.330751419067383,1,1,1000,1000,4.279954,0,0.0008464303100481
1778782977.379994,56564032,1,0.0006916757556609,0.0008373889140784,0.000799352012109,2.7167181542608887e-05,-0.0006245981203392,-9.81528663635254,0,0,28.33069610595703,1,1,760,800,4.279954,0,0.000799352012109
1778782977.4208112,56604849,0,0.0008480669930577,0.0008174524991773,0.0007999496883712,-0.0008594012469984,-0.0004335188132245,-9.817493438720703,0,0,28.33297348022461,1,1,1000,1000,4.320771,0,0.0007999496883712
1778782977.4208112,56604849,1,0.0007972108433023,0.000722732336726,0.000887329922989,-0.0007932444568723,-0.0012897381093353,-9.81903076171875,0,0,28.33297348022461,1,1,760,800,4.320771,0,0.000887329922989
1778782977.4607952,56644833,0,0.0007797569269314,0.0008256341097876,0.0007980845402926,-0.0002321310166735,-0.0009486862691119,-9.816900253295898,0,0,28.33519744873047,1,1,1000,1000,4.360755,0,0.0007980845402926
1778782977.4607952,56644833,1,0.0007854636060073,0.0010024143848568,0.0007150273886509,-0.0003693219623528,-0.0018303000833839,-9.819570541381836,0,0,28.33519744873047,1,1,760,800,4.360755,0,0.0007150273886509
1778782977.5007792,56684817,0,0.0009056995622813,0.0008608035277575,0.0008037881343625,-0.000513297622092,-0.0008629753720015,-9.817706108093262,0,0,28.337417602539062,1,1,1000,1000,4.400739,0,0.0008037881343625
1778782977.5007792,56684817,1,0.0006282054819166,0.000790950609371,0.0007229255279526,-0.0028837043792009,-0.0022379660513252,-9.816645622253418,0,0,28.337417602539062,1,1,760,800,4.400739,0,0.0007229255279526
1778782977.5407631,56724801,0,0.0007687345496378,0.000837309344206,0.0007318654097616,-0.0002966867759823,-0.001586977392435,-9.817519187927246,0,0,28.33963966369629,1,1,1000,1000,4.440723,0,0.0007318654097616
1778782977.5407631,56724801,1,0.0010807841317728,0.0005910370964556,0.0007861862541176,0.0021004960872232,-0.0031869583763182,-9.8172607421875,0,0,28.33963966369629,1,1,760,800,4.440723,0,0.0007861862541176
1778782977.5807471,56764785,0,0.0007543558604083,0.0008209483348764,0.000820632383693,-0.0012562908232212,-0.0014613228850066,-9.81745147705078,0,0,28.34186172485352,1,1,1000,1000,4.480707,0,0.000820632383693
1778782977.5807471,56764785,1,0.0008164542960003,0.0008395982440561,0.0007963169482536,-0.0014395115431398,-0.0027976429555565,-9.817481994628906,0,0,28.34186172485352,1,1,760,800,4.480707,0,0.0007963169482536
1778782977.620731,56804769,0,0.0007251902716234,0.0008074970683082,0.0007534644100815,-0.0006918033468537,0.0002973742666654,-9.816805839538574,0,0,28.34408187866211,1,1,1000,1000,4.520691,0,0.0007534644100815
1778782977.620731,56804769,1,0.0009683724492788,0.0006598582840524,0.0009405275341123,-0.0035427720285952,-0.0003976334119215,-9.816566467285156,0,0,28.34408187866211,1,1,760,800,4.520691,0,0.0009405275341123
1778782977.660715,56844753,0,0.0007663307478651,0.0007320535369217,0.0008319164044223,-0.0010806338395923,-0.0005838185315951,-9.81706428527832,0,0,28.346302032470703,1,1,1000,1000,4.560675,0,0.0008319164044223
1778782977.660715,56844753,1,0.0008035185164771,0.0006678916979581,0.0007415294530801,-0.0013574524782598,0.0017642441671341,-9.817215919494627,0,0,28.346302032470703,1,1,760,800,4.560675,0,0.0007415294530801
1778782977.700699,56884737,0,0.000791369122453,0.0008336282335221,0.0008239825256168,-0.0004514214524533,-0.001095948042348,-9.817697525024414,0,0,28.348522186279297,1,1,1000,1000,4.600659,0,0.0008239825256168
1778782977.700699,56884737,1,0.0005826319102197,0.0006698621436953,0.0006287759752012,3.964159986935556e-07,-6.117113662185147e-05,-9.816781997680664,0,0,28.348522186279297,1,1,760,800,4.600659,0,0.0006287759752012
1778782977.740683,56924721,0,0.0007581578101962,0.000823680718895,0.0008638384169898,-0.0005796929472126,-0.0005431786412373,-9.818047523498535,0,0,28.35074234008789,1,1,1000,1000,4.640643,0,0.0008638384169898
1778782977.740683,56924721,1,0.0009492937242612,0.0008360807551071,0.0007765076588839,0.0003801376733463,0.0003278851218055,-9.816448211669922,0,0,28.35074234008789,1,1,760,800,4.640643,0,0.0007765076588839
1778782977.780667,56964705,0,0.0008718922617845,0.0008559947600588,0.0007464655791409,-0.0009094114648178,-0.0005448110168799,-9.817474365234377,0,0,28.352962493896484,1,1,1000,1000,4.680627,0,0.0007464655791409
1778782977.780667,56964705,1,0.0008336780592799,0.001153573510237,0.0010019657202064,0.000197456087335,-0.0012393215438351,-9.816181182861328,0,0,28.352962493896484,1,1,760,800,4.680627,0,0.0010019657202064
1778782977.820651,57004689,0,0.0008211444946937,0.0007108870195224,0.0007783831097185,-0.0008139301789924,-0.0004028828989248,-9.816882133483888,0,0,28.35518264770508,1,1,1000,1000,4.720611,0,0.0007783831097185
1778782977.820651,57004689,1,0.0007391715771518,0.0009640181087888,0.0009352784836664,-0.0021644837688654,-0.0008018632652238,-9.81610107421875,0,0,28.35518264770508,1,1,760,800,4.720611,0,0.0009352784836664
1778782977.860635,57044673,0,0.0008845627307891,0.0008813906461,0.000765799137298,-0.0004246631579007,-0.001072374288924,-9.816571235656738,0,0,28.35740089416504,1,1,1000,1000,4.760595,0,0.000765799137298
1778782977.860635,57044673,1,0.0007220595143735,0.0008554670494049,0.0008214808185584,-0.001587348873727,-0.0014883603435009,-9.81795597076416,0,0,28.35740089416504,1,1,760,800,4.760595,0,0.0008214808185584
1778782977.900619,57084657,0,0.0007433135178871,0.0008074292563833,0.0008398317731916,-0.0017578830011188,-0.000277556333458,-9.818252563476562,0,0,28.359621047973636,1,1,1000,1000,4.800579,0,0.0008398317731916
1778782977.900619,57084657,1,0.0005845966516062,0.0005900260293856,0.0007096267072483,-0.0001691552606644,0.0013058268232271,-9.81472396850586,0,0,28.359621047973636,1,1,760,800,4.800579,0,0.0007096267072483
1778782977.940603,57124641,0,0.0007938359631225,0.0008418454672209,0.0008219940355047,-0.0005812923191115,-0.0012925005285069,-9.817121505737305,0,0,28.361839294433597,1,1,1000,1000,4.840563,0,0.0008219940355047
1778782977.940603,57124641,1,0.0009917716961354,0.0010379457380622,0.0007851923583075,-0.000424566300353,-0.0033399432431906,-9.818126678466797,0,0,28.361839294433597,1,1,760,800,4.840563,0,0.0007851923583075
1778782977.980587,57164625,0,0.0008136582328006,0.000805810035672,0.0008276382577605,-0.0013500701170414,-0.0013649670872837,-9.817926406860352,0,0,28.364057540893555,1,1,1000,1000,4.880547,0,0.0008276382577605
1778782977.980587,57164625,1,0.0005095080123282,0.0008549533085897,0.000758837792091,-0.0025043345522135,-0.0012891477672383,-9.816882133483888,0,0,28.364057540893555,1,1,760,800,4.880547,0,0.000758837792091
1778782978.0205708,57204609,0,0.0007542805396951,0.0008012929465621,0.000740748248063,0.000147189508425,-0.0008864606497809,-9.818007469177246,0,0,28.36627578735352,1,1,1000,1000,4.920531,0,0.000740748248063
1778782978.0205708,57204609,1,0.0008520190604031,0.0006631190772168,0.0008793653687462,-0.0017720886971801,-0.0021601389162242,-9.818574905395508,0,0,28.36627578735352,1,1,760,800,4.920531,0,0.0008793653687462
1778782978.0605547,57244593,0,0.0008132992079481,0.0007524864049628,0.0008661554893478,-0.0010636651422828,-0.0016100038774311,-9.817899703979492,0,0,28.368492126464844,1,1,1000,1000,4.960515,0,0.0008661554893478
1778782978.0605547,57244593,1,0.0008900030516088,0.0008041699184104,0.0007200631080195,-0.003287048311904,0.0005847978172823,-9.818666458129885,0,0,28.368492126464844,1,1,760,800,4.960515,0,0.0007200631080195
1778782978.1005387,57284577,0,0.0008333208970725,0.0008139258134178,0.0007500390638597,-0.0015782923437654,-0.0003143477370031,-9.817581176757812,0,0,28.370710372924805,1,1,1000,1000,5.000499,0,0.0007500390638597
1778782978.1005387,57284577,1,0.0007113321917131,0.0008986046887002,0.0007325152400881,-0.0016056728782132,-0.0013725637691095,-9.816444396972656,0,0,28.370710372924805,1,1,760,800,5.000499,0,0.0007325152400881
1778782978.1405232,57324561,0,0.0007452314021065,0.0008415508782491,0.0007661525160074,-0.0016915604937821,-0.0003111983533017,-9.817419052124023,0,0,28.372926712036133,1,1,1000,1000,5.040483,0,0.0007661525160074
1778782978.1405232,57324561,1,0.0007797477883286,0.0008292224374599,0.0005291296984069,-0.0018453847151249,-0.000924946158193,-9.817914962768556,0,0,28.372926712036133,1,1,760,800,5.040483,0,0.0005291296984069
1778782978.1805072,57364545,0,0.0007423539645969,0.0007952427840791,0.0007693627849221,-0.0003809157060459,-0.0003125671355519,-9.817499160766602,0,0,28.375144958496094,1,1,1000,1000,5.080467,0,0.0007693627849221
1778782978.1805072,57364545,1,0.000726610305719,0.0008960309205576,0.0009523793705739,-0.0003806821478065,-0.0004619968531187,-9.817655563354492,0,0,28.375144958496094,1,1,760,800,5.080467,0,0.0009523793705739
1778782978.2204912,57404529,0,0.0008222156320698,0.0007974471664056,0.0008418225916102,-0.0008187359781004,-0.0007001321646384,-9.817548751831056,0,0,28.37735939025879,1,1,1000,1000,5.120451,0,0.0008418225916102
1778782978.2204912,57404529,1,0.0007502336520701,0.0009748082375153,0.0006380624254234,-0.0008472198387607,0.0007125058909878,-9.81966781616211,0,0,28.37735939025879,1,1,760,800,5.120451,0,0.0006380624254234
1778782978.2604752,57444513,0,0.0007961720111779,0.0007718589622527,0.0008279613684862,-0.0011153769446536,-0.0012492258101701,-9.818615913391112,0,0,28.37957572937012,1,1,1000,1000,5.160435,0,0.0008279613684862
1778782978.2604752,57444513,1,0.0008597640553489,0.0010409128153696,0.0008685915963724,-0.0008603325113654,-0.0053720097057521,-9.817562103271484,0,0,28.37957572937012,1,1,760,800,5.160435,0,0.0008685915963724
1778782978.3004591,57484497,0,0.0007766577764414,0.0007577104261144,0.0008047269657254,-0.0014067299198359,8.499541763740126e-06,-9.817636489868164,0,0,28.381792068481445,1,1,1000,1000,5.200419,0,0.0008047269657254
1778782978.3004591,57484497,1,0.0006204691017046,0.0008576420950703,0.000978595460765,0.00125913543161,-0.0013913734583184,-9.817533493041992,0,0,28.381792068481445,1,1,760,800,5.200419,0,0.000978595460765
1778782978.3404431,57524481,0,0.0008562898146919,0.0008439580560661,0.0008858364308252,-0.0007628706516698,-0.0010640299879014,-9.818145751953123,0,0,28.384008407592773,1,1,1000,1000,5.240403,0,0.0008858364308252
1778782978.3404431,57524481,1,0.0007189311436377,0.0007663971045985,0.0008405526168644,-0.0021780761890113,-0.0035651482176035,-9.818005561828612,0,0,28.384008407592773,1,1,760,800,5.240403,0,0.0008405526168644
1778782978.3804271,57564465,0,0.0007661372656002,0.0008375617908313,0.0007784415502101,-0.0010300690773874,-0.001444241264835,-9.817066192626951,0,0,28.38622283935547,1,1,1000,1000,5.280387,0,0.0007784415502101
1778782978.3804271,57564465,1,0.0006266417913138,0.0007419053581543,0.0007781781605444,-0.0025615016929805,-0.0013322612503543,-9.818170547485352,0,0,28.38622283935547,1,1,760,800,5.280387,0,0.0007781781605444
1778782978.420411,57604449,0,0.0008010593592189,0.0008555392269045,0.0007849817629903,-0.0012264935066923,-0.0018635090673342,-9.817514419555664,0,0,28.3884391784668,1,1,1000,1000,5.320371,0,0.0007849817629903
1778782978.420411,57604449,1,0.0009776863735169,0.0007616991642862,0.0010573867475613,-0.0017171807121485,-0.0011605848558247,-9.816730499267578,0,0,28.3884391784668,1,1,760,800,5.320371,0,0.0010573867475613
1778782978.460395,57644433,0,0.000850438082125,0.0008195786504074,0.000796384178102,-0.0008576426771469,-0.0015231776051223,-9.81675624847412,0,0,28.39065361022949,1,1,1000,1000,5.360355,0,0.000796384178102
1778782978.460395,57644433,1,0.0004721329023595,0.0006668316200375,0.0007159049273468,-0.0007399120368063,0.0002598454884719,-9.816079139709473,0,0,28.39065361022949,1,1,760,800,5.360355,0,0.0007159049273468
1778782978.500379,57684417,0,0.0008551250793971,0.0007764234323985,0.0008175947004929,1.366382093692664e-05,-0.0020158500410616,-9.818472862243652,0,0,28.392868041992188,1,1,1000,1000,5.400339,0,0.0008175947004929
1778782978.500379,57684417,1,0.0008174382383003,0.0008813810418359,0.0006712982431054,0.0018706497503444,0.0002224831841886,-9.819122314453123,0,0,28.392868041992188,1,1,760,800,5.400339,0,0.0006712982431054
1778782978.540363,57724401,0,0.0007298067212104,0.000831532117445,0.0007426678203046,-0.0006069566006772,-0.001520482241176,-9.816850662231444,0,0,28.395082473754883,1,1,1000,1000,5.440323,0,0.0007426678203046
1778782978.540363,57724401,1,0.0007952463929541,0.0006927865906618,0.0006611583521589,0.0014495734358206,-0.0014964193105697,-9.81635856628418,0,0,28.395082473754883,1,1,760,800,5.440323,0,0.0006611583521589
1778782978.580347,57764385,0,0.0008552751969546,0.0008675177814438,0.0007793436525389,-0.0014223026810213,-0.0016267246101051,-9.817030906677246,0,0,28.397294998168945,1,1,1000,1000,5.480307,0,0.0007793436525389
1778782978.580347,57764385,1,0.0009850350907072,0.0008431687601841,0.0007515593315474,-0.0021901798900216,-0.0028422933537513,-9.81741714477539,0,0,28.397294998168945,1,1,760,800,5.480307,0,0.0007515593315474
1778782978.620331,57804369,0,0.0007771849632263,0.0007466716924682,0.000830395030789,-0.0004628565511666,-0.0007817898876965,-9.816896438598633,0,0,28.39950942993164,1,1,1000,1000,5.520291,0,0.000830395030789
1778782978.620331,57804369,1,0.0006592641002498,0.0008961426210589,0.00080918247113,-0.0010811740066856,0.0006842953152954,-9.818011283874512,0,0,28.39950942993164,1,1,760,800,5.520291,0,0.00080918247113
1778782978.660315,57844353,0,0.0008133906521834,0.0008556804968975,0.0007631658809259,-0.0013112956658005,-0.001576542854309,-9.817421913146973,0,0,28.401721954345703,1,1,1000,1000,5.560275,0,0.0007631658809259
1778782978.660315,57844353,1,0.0008542442228645,0.0010980643564835,0.0007598146330565,-0.0026118529494851,5.044890713179484e-06,-9.818662643432615,0,0,28.401721954345703,1,1,760,800,5.560275,0,0.0007598146330565
1778782978.700299,57884337,0,0.0007788548246026,0.0007989988080225,0.0007845801883377,-0.0006982488557696,-0.0007013558060862,-9.817498207092283,0,0,28.40393447875977,1,1,1000,1000,5.600259,0,0.0007845801883377
1778782978.700299,57884337,1,0.0005386167904362,0.0010411413386464,0.0009102853946387,-0.0017555106896907,0.0012109541567042,-9.81586456298828,0,0,28.40393447875977,1,1,760,800,5.600259,0,0.0009102853946387
1778782978.740283,57924321,0,0.0007828082889318,0.0008042227709665,0.0008136334363371,-0.0008310721023008,-0.0008338698535226,-9.817774772644045,0,0,28.406147003173828,1,1,1000,1000,5.640243,0,0.0008136334363371
1778782978.740283,57924321,1,0.0007319895667023,0.0005823486717417,0.0008987519540823,0.0002087054599542,0.0003481385065242,-9.814254760742188,0,0,28.406147003173828,1,1,760,800,5.640243,0,0.0008987519540823
1778782978.780267,57964305,0,0.0007955130422487,0.0008342229411937,0.000843328773044,-0.0018604381475597,-0.0010721299331635,-9.818408012390137,0,0,28.40835952758789,1,1,1000,1000,5.680227,0,0.000843328773044
