timestamp,TimeUS,I,Status,GMS,GWk,NSats,HDop,Lat,Lng,Alt,Spd,GCrs,VZ,Yaw,U,TimeSec,AttackActive_GPS,Lat_attacked,Lng_attacked
1778788392.8,65985262,0,6,417210800,2418,10,1.21,-35.3632621,149.1652374,584.09,0.0,0.0,0.0,0.0,1,0.0,0,-35.3632621,149.1652374
1778788392.99992,66185182,0,6,417211000,2418,10,1.21,-35.3632621,149.1652374,584.09,0.0,0.0,0.0,0.0,1,0.19992,0,-35.3632621,149.1652374
1778788393.19984,66385102,0,6,417211200,2418,10,1.21,-35.3632621,149.1652374,584.09,0.0,0.0,0.0,0.0,1,0.39984,0,-35.3632621,149.1652374
1778788393.39976,66585022,0,6,417211400,2418,10,1.21,-35.3632621,149.1652374,584.09,0.0,0.0,0.0,0.0,1,0.59976,0,-35.3632621,149.1652374
1778788393.59968,66784942,0,6,417211600,2418,10,1.21,-35.3632621,149.1652374,584.09,0.0,0.0,0.0,0.0,1,0.79968,0,-35.3632621,149.1652374
1778788393.7996,66984862,0,6,417211800,2418,10,1.21,-35.3632621,149.1652374,584.09,0.0,0.0,0.0,0.0,1,0.9996,0,-35.3632621,149.1652374
1778788393.99952,67184782,0,6,417212000,2418,10,1.21,-35.3632621,149.1652374,584.09,0.0,0.0,0.0,0.0,1,1.19952,0,-35.3632621,149.1652374
1778788394.19944,67384702,0,6,417212200,2418,10,1.21,-35.3632621,149.1652374,584.09,0.0,0.0,0.0,0.0,1,1.39944,0,-35.3632621,149.1652374
1778788394.39936,67584622,0,6,417212400,2418,10,1.21,-35.3632621,149.1652374,584.09,0.0,0.0,0.0,0.0,1,1.59936,0,-35.3632621,149.1652374
1778788394.59928,67784542,0,6,417212600,2418,10,1.21,-35.3632621,149.1652374,584.09,0.0,0.0,0.0,0.0,1,1.79928,0,-35.3632621,149.1652374
1778788394.800033,67985295,0,6,417212800,2418,10,1.21,-35.3632621,149.1652374,584.09,0.0,0.0,0.0,0.0,1,2.000033,0,-35.3632621,149.1652374
1778788394.999953,68185215,0,6,417213000,2418,10,1.21,-35.3632621,149.1652374,584.09,0.0,0.0,0.0,0.0,1,2.199953,0,-35.3632621,149.1652374
1778788395.1998727,68385135,0,6,417213200,2418,10,1.21,-35.3632621,149.1652374,584.09,0.0,0.0,0.0,0.0,1,2.399873,0,-35.3632621,149.1652374
1778788395.3997931,68585055,0,6,417213400,2418,10,1.21,-35.3632621,149.1652374,584.09,0.0,0.0,0.0,0.0,1,2.599793,0,-35.3632621,149.1652374
1778788395.599713,68784975,0,6,417213600,2418,10,1.21,-35.3632621,149.1652374,584.09,0.0,0.0,0.0,0.0,1,2.799713,0,-35.3632621,149.1652374
1778788395.799633,68984895,0,6,417213800,2418,10,1.21,-35.3632621,149.1652374,584.09,0.0,0.0,0.0,0.0,1,2.999633,0,-35.3632621,149.1652374
1778788395.9995527,69184815,0,6,417214000,2418,10,1.21,-35.3632621,149.1652374,584.09,0.0,0.0,0.0,0.0,1,3.199553,0,-35.3632621,149.1652374
1778788396.1994731,69384735,0,6,417214200,2418,10,1.21,-35.3632621,149.1652374,584.09,0.0,0.0,0.0,0.0,1,3.399473,0,-35.3632621,149.1652374
1778788396.399393,69584655,0,6,417214400,2418,10,1.21,-35.3632621,149.1652374,584.09,0.0,124.04850006103516,0.0,0.0,1,3.599393,0,-35.3632621,149.1652374
1778788396.599313,69784575,0,6,417214600,2418,10,1.21,-35.3632621,149.1652374,584.09,0.0,124.89191436767578,0.0,0.0,1,3.799313,0,-35.3632621,149.1652374
1778788396.7992327,69984495,0,6,417214800,2418,10,1.21,-35.3632621,149.1652374,584.09,0.0,299.4878234863281,0.0,0.0,1,3.999233,0,-35.3632621,149.1652374
1778788396.999986,70185248,0,6,417215000,2418,10,1.21,-35.3632621,149.1652374,584.09,0.0,304.8885498046875,0.0,0.0,1,4.199986,0,-35.3632621,149.1652374
1778788397.199906,70385168,0,6,417215200,2418,10,1.21,-35.3632621,149.1652374,584.09,0.0,305.4314880371094,-0.0300000011920928,0.0,1,4.399906,0,-35.3632621,149.1652374
1778788397.399826,70585088,0,6,417215400,2418,10,1.21,-35.3632621,149.1652374,584.11,0.0,305.63970947265625,-0.1150000020861625,0.0,1,4.599826,0,-35.3632621,149.1652374
1778788397.599746,70785008,0,6,417215600,2418,10,1.21,-35.3632621,149.1652374,584.14,0.0,307.4236755371094,-0.2240000069141388,0.0,1,4.799746,0,-35.3632621,149.1652374
1778788397.799666,70984928,0,6,417215800,2418,10,1.21,-35.3632621,149.1652374,584.2,0.0,307.0205993652344,-0.4190000295639038,0.0,1,4.999666,0,-35.3632621,149.1652374
1778788397.999586,71184848,0,6,417216000,2418,10,1.21,-35.3632621,149.1652374,584.33,0.003000000026077,306.6708984375,-0.8950000405311584,0.0,1,5.199586,0,-35.3632621,149.1652374
1778788398.199506,71384768,0,6,417216200,2418,10,1.21,-35.3632621,149.1652374,584.55,0.0110000008717179,306.564453125,-1.1980000734329224,0.0,1,5.399506,0,-35.3632621,149.1652374
1778788398.399426,71584688,0,6,417216400,2418,10,1.21,-35.3632621,149.1652374,584.79,0.0220000017434358,306.45458984375,-1.186000108718872,0.0,1,5.599426,0,-35.3632621,149.1652374
1778788398.599346,71784608,0,6,417216600,2418,10,1.21,-35.3632621,149.1652373,585.04,0.0290000010281801,306.486328125,-1.305000066757202,0.0,1,5.799346,0,-35.3632621,149.1652373
1778788398.799266,71984528,0,6,417216800,2418,10,1.21,-35.363262,149.1652373,585.31,0.0310000013560056,306.7333068847656,-1.503000020980835,0.0,1,5.999266,0,-35.363262,149.1652373
1778788399.000019,72185281,0,6,417217000,2418,10,1.21,-35.363262,149.1652372,585.64,0.0290000010281801,307.23199462890625,-1.7040001153945925,0.0,1,6.200019,0,-35.363262,149.1652372
1778788399.199939,72385201,0,6,417217200,2418,10,1.21,-35.363262,149.1652372,586.0,0.025000000372529,307.9399108886719,-1.909000039100647,0.0,1,6.399939,0,-35.363262,149.1652372
1778788399.3998587,72585121,0,6,417217400,2418,10,1.21,-35.363262,149.1652371,586.4,0.021000001579523,308.860107421875,-2.118000030517578,0.0,1,6.599859,0,-35.363262,149.1652371
1778788399.5997791,72785041,0,6,417217600,2418,10,1.21,-35.3632619,149.165237,586.85,0.0170000009238719,310.38189697265625,-2.314000129699707,0.0,1,6.799779,0,-35.3632619,149.165237
1778788399.799699,72984961,0,6,417217800,2418,10,1.21,-35.3632619,149.165237,587.32,0.0130000002682209,312.95867919921875,-2.452000141143799,0.0,1,6.999699,0,-35.3632619,149.165237
1778788399.999619,73184881,0,6,417218000,2418,10,1.21,-35.3632619,149.165237,587.82,0.0100000007078051,316.5078430175781,-2.515000104904175,0.0,1,7.199619,0,-35.3632619,149.165237
1778788400.1995387,73384801,0,6,417218200,2418,10,1.21,-35.3632619,149.165237,588.33,0.0070000002160668,320.8578796386719,-2.5310001373291016,0.0,1,7.399539,0,-35.3632619,149.165237
1778788400.3994591,73584721,0,6,417218400,2418,10,1.21,-35.3632619,149.165237,588.84,0.0050000003539025,328.2431030273437,-2.5230000019073486,0.0,1,7.599459,0,-35.3632619,149.165237
1778788400.599379,73784641,0,6,417218600,2418,10,1.21,-35.3632619,149.165237,589.34,0.003000000026077,343.7841186523437,-2.50600004196167,0.0,1,7.799379,0,-35.3632619,149.165237
1778788400.799299,73984561,0,6,417218800,2418,10,1.21,-35.3632619,149.165237,589.84,0.0020000000949949,14.657730102539062,-2.4880001544952397,0.0,1,7.999299,0,-35.3632619,149.165237
1778788400.9992187,74184481,0,6,417219000,2418,10,1.21,-35.3632619,149.165237,590.33,0.0020000000949949,49.53215026855469,-2.4740002155303955,0.0,1,8.199219,0,-35.3632619,149.165237
1778788401.199972,74385234,0,6,417219200,2418,10,1.21,-35.3632619,149.165237,590.83,0.0020000000949949,72.87281799316406,-2.4640002250671387,0.0,1,8.399972,0,-35.3632619,149.165237
1778788401.399892,74585154,0,6,417219400,2418,10,1.21,-35.3632619,149.165237,591.32,0.003000000026077,93.0867691040039,-2.4600000381469727,0.0,1,8.599892,0,-35.3632619,149.165237
1778788401.599812,74785074,0,6,417219600,2418,10,1.21,-35.3632619,149.165237,591.81,0.0050000003539025,104.14282989501952,-2.4590001106262207,0.0,1,8.799812,0,-35.3632619,149.165237
1778788401.799732,74984994,0,6,417219800,2418,10,1.21,-35.3632619,149.165237,592.3,0.0070000002160668,108.85310363769533,-2.4590001106262207,0.0,1,8.999732,0,-35.3632619,149.165237
1778788401.999652,75184914,0,6,417220000,2418,10,1.21,-35.3632619,149.165237,592.79,0.0090000005438923,111.82292938232422,-2.461000204086304,0.0,1,9.199652,0,-35.3632619,149.165237
1778788402.199572,75384834,0,6,417220200,2418,10,1.21,-35.3632619,149.165237,593.29,0.0100000007078051,113.6569595336914,-2.462000131607056,0.0,1,9.399572,0,-35.3632619,149.165237
1778788402.399492,75584754,0,6,417220400,2418,10,1.21,-35.3632619,149.165237,593.78,0.0100000007078051,114.0759048461914,-2.4640002250671387,0.0,1,9.599492,0,-35.3632619,149.165237
1778788402.599412,75784674,0,6,417220600,2418,10,1.21,-35.3632619,149.165237,594.27,0.0110000008717179,113.24840545654295,-2.4660000801086426,0.0,1,9.799412,0,-35.3632619,149.165237
1778788402.799332,75984594,0,6,417220800,2418,10,1.21,-35.3632619,149.165237,594.77,0.0120000001043081,113.68596649169922,-2.4680001735687256,0.0,1,9.999332,0,-35.3632619,149.165237
1778788402.999252,76184514,0,6,417221000,2418,10,1.21,-35.3632619,149.165237,595.26,0.0130000002682209,115.74654388427734,-2.469000101089477,0.0,1,10.199252,1,-35.363141899999995,149.16511699999998
1778788403.200005,76385267,0,6,417221200,2418,10,1.21,-35.3632619,149.1652371,595.75,0.0140000004321336,117.46424865722656,-2.438000202178955,0.0,1,10.400005,1,-35.363141899999995,149.1651171
1778788403.3999248,76585187,0,6,417221400,2418,10,1.21,-35.3632619,149.1652372,596.23,0.0140000004321336,118.83745574951172,-2.336000204086304,0.0,1,10.599925,1,-35.363141899999995,149.1651172
1778788403.5998447,76785107,0,6,417221600,2418,10,1.21,-35.3632619,149.1652372,596.68,0.0140000004321336,120.2636947631836,-2.174000024795532,0.0,1,10.799845,1,-35.363141899999995,149.1651172
1778788403.799765,76985027,0,6,417221800,2418,10,1.21,-35.3632619,149.1652372,597.1,0.0130000002682209,122.24144744873048,-1.977000117301941,0.0,1,10.999765,1,-35.363141899999995,149.1651172
1778788403.999685,77184947,0,6,417222000,2418,10,1.21,-35.3632619,149.1652373,597.47,0.0120000001043081,125.4352035522461,-1.7650001049041748,0.0,1,11.199685,1,-35.363141899999995,149.1651173
1778788404.1996047,77384867,0,6,417222200,2418,10,1.21,-35.3632619,149.1652373,597.8,0.0100000007078051,130.08009338378906,-1.5480000972747805,0.0,1,11.399605,1,-35.363141899999995,149.1651173
1778788404.3995247,77584787,0,6,417222400,2418,10,1.21,-35.3632619,149.1652373,598.09,0.0080000003799796,137.4835205078125,-1.3330000638961792,0.0,1,11.599525,1,-35.363141899999995,149.1651173
1778788404.599445,77784707,0,6,417222600,2418,10,1.21,-35.3632619,149.1652373,598.33,0.006000000052154,151.8992919921875,-1.1230000257492063,0.0,1,11.799445,1,-35.363141899999995,149.1651173
1778788404.799365,77984627,0,6,417222800,2418,10,1.21,-35.3632619,149.1652373,598.54,0.0050000003539025,174.6341094970703,-0.9180000424385072,0.0,1,11.999365,1,-35.363141899999995,149.1651173
1778788404.9992847,78184547,0,6,417223000,2418,10,1.21,-35.3632619,149.1652373,598.71,0.0050000003539025,195.6468505859375,-0.7170000076293945,0.0,1,12.199285,1,-35.363141899999995,149.1651173
1778788405.200038,78385300,0,6,417223200,2418,10,1.21,-35.3632619,149.1652373,598.83,0.006000000052154,208.5413055419922,-0.5200000405311584,0.0,1,12.400038,1,-35.363141899999995,149.1651173
1778788405.399958,78585220,0,6,417223400,2418,10,1.21,-35.363262,149.1652373,598.91,0.006000000052154,218.7802276611328,-0.3240000009536743,0.0,1,12.599958,1,-35.363141999999996,149.1651173
1778788405.599878,78785140,0,6,417223600,2418,10,1.21,-35.363262,149.1652373,598.96,0.0070000002160668,230.74575805664065,-0.1410000026226043,0.0,1,12.799878,1,-35.363141999999996,149.1651173
1778788405.799798,78985060,0,6,417223800,2418,10,1.21,-35.363262,149.1652373,598.98,0.0070000002160668,242.74588012695312,-0.0120000001043081,0.0,1,12.999798,1,-35.363141999999996,149.1651173
1778788405.999718,79184980,0,6,417224000,2418,10,1.21,-35.363262,149.1652373,598.97,0.0080000003799796,254.315673828125,0.0410000011324882,0.0,1,13.199718,1,-35.363141999999996,149.1651173
1778788406.199638,79384900,0,6,417224200,2418,10,1.21,-35.363262,149.1652373,598.96,0.0090000005438923,266.97222900390625,0.0470000021159648,0.0,1,13.399638,1,-35.363141999999996,149.1651173
1778788406.399558,79584820,0,6,417224400,2418,10,1.21,-35.363262,149.1652373,598.95,0.0100000007078051,279.1744384765625,0.0300000011920928,0.0,1,13.599558,1,-35.363141999999996,149.1651173
1778788406.599478,79784740,0,6,417224600,2418,10,1.21,-35.363262,149.1652373,598.95,0.0120000001043081,288.4896240234375,0.006000000052154,0.0,1,13.799478,1,-35.363141999999996,149.1651173
1778788406.799398,79984660,0,6,417224800,2418,10,1.21,-35.363262,149.1652373,598.95,0.0140000004321336,294.4962158203125,-0.0160000007599592,0.0,1,13.999398,1,-35.363141999999996,149.1651173
1778788406.999318,80184580,0,6,417225000,2418,10,1.21,-35.363262,149.1652372,598.95,0.0160000007599592,298.4165954589844,-0.032999999821186,0.0,1,14.199318,1,-35.363141999999996,149.1651172
1778788407.199238,80384500,0,6,417225200,2418,10,1.21,-35.363262,149.1652372,598.96,0.0180000010877847,301.5173645019531,-0.0430000014603138,0.0,1,14.399238,1,-35.363141999999996,149.1651172
1778788407.399991,80585253,0,6,417225400,2418,10,1.21,-35.363262,149.1652371,598.97,0.0200000014156103,303.80926513671875,-0.0470000021159648,0.0,1,14.599991,1,-35.363141999999996,149.1651171
1778788407.5999107,80785173,0,6,417225600,2418,10,1.21,-35.363262,149.165237,598.98,0.0200000014156103,305.1031188964844,-0.0470000021159648,0.0,1,14.799911,1,-35.363141999999996,149.16511699999998
1778788407.7998312,80985093,0,6,417225800,2418,10,1.21,-35.363262,149.165237,598.99,0.0200000014156103,306.39678955078125,-0.0440000034868717,0.0,1,14.999831,1,-35.363141999999996,149.16511699999998
1778788407.999751,81185013,0,6,417226000,2418,10,1.21,-35.3632619,149.165237,599.0,0.0190000012516975,309.1431884765625,-0.0370000004768371,0.0,1,15.199751,1,-35.363141899999995,149.16511699999998
1778788408.199671,81384933,0,6,417226200,2418,10,1.21,-35.3632619,149.165237,599.0,0.0170000009238719,313.8943786621094,-0.0310000013560056,0.0,1,15.399671,1,-35.363141899999995,149.16511699999998
1778788408.3995907,81584853,0,6,417226400,2418,10,1.21,-35.3632619,149.165237,599.01,0.0160000007599592,319.854736328125,-0.0260000005364418,0.0,1,15.599591,1,-35.363141899999995,149.16511699999998
1778788408.5995111,81784773,0,6,417226600,2418,10,1.21,-35.3632619,149.165237,599.02,0.0140000004321336,325.54705810546875,-0.0230000019073486,0.0,1,15.799511,1,-35.363141899999995,149.16511699999998
1778788408.799431,81984693,0,6,417226800,2418,10,1.21,-35.3632619,149.165237,599.02,0.0120000001043081,330.1866760253906,-0.021000001579523,0.0,1,15.999431,1,-35.363141899999995,149.16511699999998
1778788408.999351,82184613,0,6,417227000,2418,10,1.21,-35.3632618,149.1652369,599.03,0.0100000007078051,333.75738525390625,-0.0200000014156103,0.0,1,16.199351,1,-35.363141799999994,149.1651169
1778788409.1992707,82384533,0,6,417227200,2418,10,1.21,-35.3632617,149.1652369,599.03,0.0090000005438923,336.1603088378906,-0.0190000012516975,0.0,1,16.399271,1,-35.3631417,149.1651169
1778788409.400024,82585286,0,6,417227400,2418,10,1.21,-35.3632617,149.1652369,599.03,0.0070000002160668,337.6769714355469,-0.0170000009238719,0.0,1,16.600024,1,-35.3631417,149.1651169
1778788409.599944,82785206,0,6,417227600,2418,10,1.21,-35.3632617,149.1652369,599.04,0.006000000052154,338.45172119140625,-0.0150000005960464,0.0,1,16.799944,1,-35.3631417,149.1651169
1778788409.799864,82985126,0,6,417227800,2418,10,1.21,-35.3632617,149.1652369,599.04,0.0040000001899898,338.6517028808594,-0.0140000004321336,0.0,1,16.999864,1,-35.3631417,149.1651169
1778788409.999784,83185046,0,6,417228000,2418,10,1.21,-35.3632617,149.1652369,599.04,0.0020000000949949,337.3789978027344,-0.0130000002682209,0.0,1,17.199784,1,-35.3631417,149.1651169
1778788410.199704,83384966,0,6,417228200,2418,10,1.21,-35.3632617,149.1652369,599.05,0.0,177.6730499267578,-0.0130000002682209,0.0,1,17.399704,1,-35.3631417,149.1651169
1778788410.399624,83584886,0,6,417228400,2418,10,1.21,-35.3632617,149.1652369,599.05,0.003000000026077,166.3405303955078,-0.0130000002682209,0.0,1,17.599624,1,-35.3631417,149.1651169
1778788410.599544,83784806,0,6,417228600,2418,10,1.21,-35.3632617,149.1652369,599.05,0.0050000003539025,162.5499725341797,-0.0130000002682209,0.0,1,17.799544,1,-35.3631417,149.1651169
1778788410.799464,83984726,0,6,417228800,2418,10,1.21,-35.3632617,149.1652369,599.05,0.006000000052154,158.8740234375,-0.0120000001043081,0.0,1,17.999464,1,-35.3631417,149.1651169
1778788410.999384,84184646,0,6,417229000,2418,10,1.21,-35.3632617,149.1652369,599.06,0.0070000002160668,155.02835083007812,-0.0110000008717179,0.0,1,18.199384,1,-35.3631417,149.1651169
1778788411.199304,84384566,0,6,417229200,2418,10,1.21,-35.3632617,149.1652369,599.06,0.0070000002160668,150.29071044921875,-0.0100000007078051,0.0,1,18.399304,1,-35.3631417,149.1651169
1778788411.399224,84584486,0,6,417229400,2418,10,1.21,-35.3632617,149.1652369,599.06,0.0070000002160668,146.59458923339844,-0.0090000005438923,0.0,1,18.599224,1,-35.3631417,149.1651169
1778788411.599977,84785239,0,6,417229600,2418,10,1.21,-35.3632617,149.1652369,599.06,0.0080000003799796,145.01712036132812,-0.0090000005438923,0.0,1,18.799977,1,-35.3631417,149.1651169
1778788411.7998967,84985159,0,6,417229800,2418,10,1.21,-35.3632617,149.1652369,599.06,0.0080000003799796,143.9928436279297,-0.0090000005438923,0.0,1,18.999897,1,-35.3631417,149.1651169
1778788411.9998171,85185079,0,6,417230000,2418,10,1.21,-35.3632617,149.1652369,599.07,0.0080000003799796,142.40103149414062,-0.0100000007078051,0.0,1,19.199817,1,-35.3631417,149.1651169
1778788412.199737,85384999,0,6,417230200,2418,10,1.21,-35.3632617,149.1652369,599.07,0.0080000003799796,139.5904541015625,-0.0090000005438923,0.0,1,19.399737,1,-35.3631417,149.1651169
1778788412.399657,85584919,0,6,417230400,2418,10,1.21,-35.3632617,149.1652369,599.07,0.0080000003799796,136.6044921875,-0.0080000003799796,0.0,1,19.599657,1,-35.3631417,149.1651169
1778788412.5995767,85784839,0,6,417230600,2418,10,1.21,-35.3632617,149.1652369,599.07,0.0080000003799796,135.68994140625,-0.0070000002160668,0.0,1,19.799577,1,-35.3631417,149.1651169
1778788412.7994971,85984759,0,6,417230800,2418,10,1.21,-35.3632617,149.1652369,599.07,0.0090000005438923,136.56097412109375,-0.0070000002160668,0.0,1,19.999497,1,-35.3631417,149.1651169
1778788412.999417,86184679,0,6,417231000,2418,10,1.21,-35.3632618,149.1652369,599.08,0.0100000007078051,137.08163452148438,-0.0070000002160668,0.0,1,20.199417,0,-35.3632618,149.1652369
1778788413.199337,86384599,0,6,417231200,2418,10,1.21,-35.3632619,149.165237,599.08,0.0110000008717179,136.7366943359375,-0.0070000002160668,0.0,1,20.399337,0,-35.3632619,149.165237
1778788413.3992567,86584519,0,6,417231400,2418,10,1.21,-35.3632619,149.165237,599.08,0.0120000001043081,135.9053192138672,-0.0070000002160668,0.0,1,20.599257,0,-35.3632619,149.165237
1778788413.60001,86785272,0,6,417231600,2418,10,1.21,-35.3632619,149.165237,599.08,0.0120000001043081,135.07138061523438,-0.006000000052154,0.0,1,20.80001,0,-35.3632619,149.165237
1778788413.79993,86985192,0,6,417231800,2418,10,1.21,-35.3632619,149.165237,599.08,0.0110000008717179,133.49452209472656,-0.006000000052154,0.0,1,20.99993,0,-35.3632619,149.165237
1778788413.99985,87185112,0,6,417232000,2418,10,1.21,-35.3632619,149.165237,599.08,0.0100000007078051,128.60745239257812,-0.0050000003539025,0.0,1,21.19985,0,-35.3632619,149.165237
1778788414.19977,87385032,0,6,417232200,2418,10,1.21,-35.3632619,149.165237,599.08,0.0080000003799796,119.46841430664062,-0.0050000003539025,0.0,1,21.39977,0,-35.3632619,149.165237
1778788414.39969,87584952,0,6,417232400,2418,10,1.21,-35.3632619,149.165237,599.08,0.0070000002160668,107.57767486572266,-0.0040000001899898,0.0,1,21.59969,0,-35.3632619,149.165237
1778788414.59961,87784872,0,6,417232600,2418,10,1.21,-35.3632619,149.165237,599.09,0.0050000003539025,92.61886596679688,-0.0040000001899898,0.0,1,21.79961,0,-35.3632619,149.165237
1778788414.79953,87984792,0,6,417232800,2418,10,1.21,-35.3632619,149.165237,599.09,0.0050000003539025,76.98600769042969,-0.0040000001899898,0.0,1,21.99953,0,-35.3632619,149.165237
1778788414.99945,88184712,0,6,417233000,2418,10,1.21,-35.3632619,149.165237,599.09,0.0050000003539025,66.33442687988281,-0.0040000001899898,0.0,1,22.19945,0,-35.3632619,149.165237
1778788415.19937,88384632,0,6,417233200,2418,10,1.21,-35.3632619,149.165237,599.09,0.0050000003539025,62.2582893371582,-0.0040000001899898,0.0,1,22.39937,0,-35.3632619,149.165237
1778788415.39929,88584552,0,6,417233400,2418,10,1.21,-35.3632619,149.165237,599.09,0.006000000052154,62.40546798706055,-0.003000000026077,0.0,1,22.59929,0,-35.3632619,149.165237
1778788415.59921,88784472,0,6,417233600,2418,10,1.21,-35.3632619,149.165237,599.09,0.006000000052154,63.53033828735352,-0.003000000026077,0.0,1,22.79921,0,-35.3632619,149.165237
1778788415.799963,88985225,0,6,417233800,2418,10,1.21,-35.3632619,149.1652371,599.09,0.006000000052154,65.34735107421875,-0.0020000000949949,0.0,1,22.999963,0,-35.3632619,149.1652371
1778788415.9998827,89185145,0,6,417234000,2418,10,1.21,-35.3632619,149.1652372,599.09,0.0070000002160668,68.76644134521484,-0.0020000000949949,0.0,1,23.199883,0,-35.3632619,149.1652372
1778788416.199803,89385065,0,6,417234200,2418,10,1.21,-35.3632619,149.1652372,599.09,0.0070000002160668,73.54158020019531,-0.0010000000474974,0.0,1,23.399803,0,-35.3632619,149.1652372
1778788416.399723,89584985,0,6,417234400,2418,10,1.21,-35.3632619,149.1652372,599.09,0.0070000002160668,79.1261215209961,-0.0010000000474974,0.0,1,23.599723,0,-35.3632619,149.1652372
1778788416.5996428,89784905,0,6,417234600,2418,10,1.21,-35.3632619,149.1652372,599.09,0.0050000003539025,82.37025451660156,-0.0010000000474974,0.0,1,23.799643,0,-35.3632619,149.1652372
1778788416.7995627,89984825,0,6,417234800,2418,10,1.21,-35.3632619,149.1652372,599.09,0.0040000001899898,79.32479095458984,-0.0010000000474974,0.0,1,23.999563,0,-35.3632619,149.1652372
1778788416.999483,90184745,0,6,417235000,2418,10,1.21,-35.3632619,149.1652372,599.09,0.0020000000949949,60.46931838989258,-0.0010000000474974,0.0,1,24.199483,0,-35.3632619,149.1652372
1778788417.199403,90384665,0,6,417235200,2418,10,1.21,-35.3632619,149.1652372,599.09,0.0010000000474974,11.794739723205566,-0.0010000000474974,0.0,1,24.399403,0,-35.3632619,149.1652372
1778788417.3993227,90584585,0,6,417235400,2418,10,1.21,-35.3632619,149.1652372,599.09,0.0010000000474974,330.79833984375,-0.0010000000474974,0.0,1,24.599323,0,-35.3632619,149.1652372
1778788417.5992427,90784505,0,6,417235600,2418,10,1.21,-35.3632619,149.1652372,599.09,0.0020000000949949,305.92071533203125,-0.0010000000474974,0.0,1,24.799243,0,-35.3632619,149.1652372
1778788417.799996,90985258,0,6,417235800,2418,10,1.21,-35.3632619,149.1652372,599.09,0.0020000000949949,292.1129455566406,-0.0010000000474974,0.0,1,24.999996,0,-35.3632619,149.1652372
1778788417.999916,91185178,0,6,417236000,2418,10,1.21,-35.3632619,149.1652372,599.09,0.0020000000949949,288.8609619140625,-0.0010000000474974,0.0,1,25.199916,0,-35.3632619,149.1652372
1778788418.199836,91385098,0,6,417236200,2418,10,1.21,-35.3632619,149.1652372,599.09,0.003000000026077,288.36090087890625,-0.0010000000474974,0.0,1,25.399836,0,-35.3632619,149.1652372
1778788418.399756,91585018,0,6,417236400,2418,10,1.21,-35.3632619,149.1652372,599.09,0.0020000000949949,287.7340393066406,-0.0010000000474974,0.0,1,25.599756,0,-35.3632619,149.1652372
1778788418.599676,91784938,0,6,417236600,2418,10,1.21,-35.3632619,149.1652372,599.09,0.0020000000949949,293.2394714355469,0.0,0.0,1,25.799676,0,-35.3632619,149.1652372
1778788418.799596,91984858,0,6,417236800,2418,10,1.21,-35.3632619,149.1652372,599.09,0.0020000000949949,306.21875,0.0,0.0,1,25.999596,0,-35.3632619,149.1652372
1778788418.999516,92184778,0,6,417237000,2418,10,1.21,-35.3632619,149.1652372,599.09,0.0020000000949949,314.0421447753906,0.0,0.0,1,26.199516,0,-35.3632619,149.1652372
1778788419.199436,92384698,0,6,417237200,2418,10,1.21,-35.3632619,149.1652372,599.1,0.0020000000949949,312.57977294921875,0.0,0.0,1,26.399436,0,-35.3632619,149.1652372
1778788419.399356,92584618,0,6,417237400,2418,10,1.21,-35.3632619,149.1652372,599.1,0.0020000000949949,308.6820678710937,0.0,0.0,1,26.599356,0,-35.3632619,149.1652372
1778788419.599276,92784538,0,6,417237600,2418,10,1.21,-35.3632619,149.1652372,599.1,0.0020000000949949,306.3348999023437,0.0,0.0,1,26.799276,0,-35.3632619,149.1652372
1778788419.800029,92985291,0,6,417237800,2418,10,1.21,-35.3632619,149.1652372,599.1,0.0020000000949949,300.8821716308594,0.0,0.0,1,27.000029,0,-35.3632619,149.1652372
1778788419.9999487,93185211,0,6,417238000,2418,10,1.21,-35.3632619,149.1652372,599.1,0.0010000000474974,286.7601623535156,0.0,0.0,1,27.199949,0,-35.3632619,149.1652372
1778788420.199869,93385131,0,6,417238200,2418,10,1.21,-35.3632619,149.1652372,599.09,0.0010000000474974,274.606689453125,0.0010000000474974,0.0,1,27.399869,0,-35.3632619,149.1652372
1778788420.399789,93585051,0,6,417238400,2418,10,1.21,-35.3632619,149.1652372,599.09,0.0010000000474974,276.2491149902344,0.0010000000474974,0.0,1,27.599789,0,-35.3632619,149.1652372
1778788420.599709,93784971,0,6,417238600,2418,10,1.21,-35.3632619,149.1652372,599.09,0.0020000000949949,280.286865234375,0.0010000000474974,0.0,1,27.799709,0,-35.3632619,149.1652372
1778788420.7996287,93984891,0,6,417238800,2418,10,1.21,-35.3632619,149.1652372,599.09,0.0020000000949949,284.01129150390625,0.0010000000474974,0.0,1,27.999629,0,-35.3632619,149.1652372
1778788420.9995492,94184811,0,6,417239000,2418,10,1.21,-35.3632619,149.1652372,599.09,0.0020000000949949,288.51983642578125,0.0010000000474974,0.0,1,28.199549,0,-35.3632619,149.1652372
1778788421.199469,94384731,0,6,417239200,2418,10,1.21,-35.3632619,149.1652372,599.09,0.0020000000949949,294.4432678222656,0.0010000000474974,0.0,1,28.399469,0,-35.3632619,149.1652372
1778788421.399389,94584651,0,6,417239400,2418,10,1.21,-35.3632619,149.1652372,599.09,0.0020000000949949,302.7758178710937,0.0,0.0,1,28.599389,0,-35.3632619,149.1652372
1778788421.5993087,94784571,0,6,417239600,2418,10,1.21,-35.3632619,149.1652372,599.09,0.0020000000949949,311.5277404785156,0.0,0.0,1,28.799309,0,-35.3632619,149.1652372
1778788421.7992291,94984491,0,6,417239800,2418,10,1.21,-35.3632619,149.1652372,599.09,0.0010000000474974,318.81317138671875,0.0,0.0,1,28.999229,0,-35.3632619,149.1652372
1778788421.999982,95185244,0,6,417240000,2418,10,1.21,-35.3632619,149.1652372,599.09,0.0010000000474974,321.77880859375,0.0,0.0,1,29.199982,0,-35.3632619,149.1652372
1778788422.199902,95385164,0,6,417240200,2418,10,1.21,-35.3632619,149.1652372,599.09,0.0,300.2236022949219,0.0,0.0,1,29.399902,0,-35.3632619,149.1652372
1778788422.399822,95585084,0,6,417240400,2418,10,1.21,-35.3632619,149.1652372,599.09,0.0,255.90972900390625,0.0,0.0,1,29.599822,0,-35.3632619,149.1652372
1778788422.599742,95785004,0,6,417240600,2418,10,1.21,-35.3632619,149.1652372,599.09,0.0,250.9608154296875,0.0,0.0,1,29.799742,0,-35.3632619,149.1652372
1778788422.799662,95984924,0,6,417240800,2418,10,1.21,-35.3632619,149.1652372,599.09,0.0,256.53790283203125,0.0,0.0,1,29.999662,0,-35.3632619,149.1652372
1778788422.999582,96184844,0,6,417241000,2418,10,1.21,-35.3632619,149.1652372,599.09,0.0010000000474974,259.5776062011719,0.0,0.0,1,30.199582,0,-35.3632619,149.1652372
1778788423.199502,96384764,0,6,417241200,2418,10,1.21,-35.3632619,149.1652372,599.09,0.0010000000474974,263.5774230957031,0.0,0.0,1,30.399502,0,-35.3632619,149.1652372
1778788423.399422,96584684,0,6,417241400,2418,10,1.21,-35.3632619,149.1652372,599.09,0.0010000000474974,271.9881286621094,0.0,0.0,1,30.599422,0,-35.3632619,149.1652372
1778788423.599342,96784604,0,6,417241600,2418,10,1.21,-35.3632619,149.1652372,599.09,0.0010000000474974,275.38092041015625,0.0,0.0,1,30.799342,0,-35.3632619,149.1652372
1778788423.799262,96984524,0,6,417241800,2418,10,1.21,-35.3632619,149.1652372,599.09,0.0010000000474974,265.52471923828125,0.0,0.0,1,30.999262,0,-35.3632619,149.1652372
1778788424.000015,97185277,0,6,417242000,2418,10,1.21,-35.3632619,149.1652372,599.09,0.0010000000474974,249.41845703125,0.0,0.0,1,31.200015,0,-35.3632619,149.1652372
1778788424.1999347,97385197,0,6,417242200,2418,10,1.21,-35.3632619,149.1652372,599.09,0.0010000000474974,232.25650024414065,0.0010000000474974,0.0,1,31.399935,0,-35.3632619,149.1652372
1778788424.3998551,97585117,0,6,417242400,2418,10,1.21,-35.3632619,149.1652372,599.09,0.0010000000474974,216.8248291015625,0.0010000000474974,0.0,1,31.599855,0,-35.3632619,149.1652372
1778788424.599775,97785037,0,6,417242600,2418,10,1.21,-35.3632619,149.1652372,599.09,0.0010000000474974,200.3719482421875,0.0010000000474974,0.0,1,31.799775,0,-35.3632619,149.1652372
1778788424.799695,97984957,0,6,417242800,2418,10,1.21,-35.3632619,149.1652372,599.09,0.0010000000474974,180.85939025878903,0.0010000000474974,0.0,1,31.999695,0,-35.3632619,149.1652372
1778788424.9996147,98184877,0,6,417243000,2418,10,1.21,-35.3632619,149.1652372,599.09,0.0010000000474974,163.98178100585938,0.0010000000474974,0.0,1,32.199615,0,-35.3632619,149.1652372
1778788425.1995351,98384797,0,6,417243200,2418,10,1.21,-35.3632619,149.1652372,599.09,0.0010000000474974,153.1575927734375,0.0010000000474974,0.0,1,32.399535,0,-35.3632619,149.1652372
1778788425.399455,98584717,0,6,417243400,2418,10,1.21,-35.3632619,149.1652372,599.09,0.0010000000474974,153.47119140625,0.0010000000474974,0.0,1,32.599455,0,-35.3632619,149.1652372
1778788425.599375,98784637,0,6,417243600,2418,10,1.21,-35.3632619,149.1652372,599.09,0.0,163.8203582763672,0.0010000000474974,0.0,1,32.799375,0,-35.3632619,149.1652372
1778788425.7992947,98984557,0,6,417243800,2418,10,1.21,-35.3632619,149.1652372,599.09,0.0,171.04550170898438,0.0010000000474974,0.0,1,32.999295,0,-35.3632619,149.1652372
1778788425.9992151,99184477,0,6,417244000,2418,10,1.21,-35.3632619,149.1652372,599.09,0.0,170.7945556640625,0.0010000000474974,0.0,1,33.199215,0,-35.3632619,149.1652372
1778788426.199968,99385230,0,6,417244200,2418,10,1.21,-35.3632619,149.1652372,599.09,0.0010000000474974,173.24314880371094,0.0010000000474974,0.0,1,33.399968,0,-35.3632619,149.1652372
1778788426.399888,99585150,0,6,417244400,2418,10,1.21,-35.3632619,149.1652372,599.09,0.0010000000474974,174.9320526123047,0.0010000000474974,0.0,1,33.599888,0,-35.3632619,149.1652372
1778788426.599808,99785070,0,6,417244600,2418,10,1.21,-35.3632619,149.1652372,599.09,0.0010000000474974,175.00376892089844,0.0010000000474974,0.0,1,33.799808,0,-35.3632619,149.1652372
1778788426.799728,99984990,0,6,417244800,2418,10,1.21,-35.3632619,149.1652372,599.09,0.0010000000474974,174.446533203125,0.0010000000474974,0.0,1,33.999728,0,-35.3632619,149.1652372
1778788426.999648,100184910,0,6,417245000,2418,10,1.21,-35.3632619,149.1652372,599.09,0.0010000000474974,176.25979614257812,0.0010000000474974,0.0,1,34.199648,0,-35.3632619,149.1652372
1778788427.199568,100384830,0,6,417245200,2418,10,1.21,-35.3632619,149.1652372,599.09,0.0010000000474974,178.3653106689453,0.0010000000474974,0.0,1,34.399568,0,-35.3632619,149.1652372
1778788427.399488,100584750,0,6,417245400,2418,10,1.21,-35.3632619,149.1652372,599.09,0.0020000000949949,175.51243591308594,0.0010000000474974,0.0,1,34.599488,0,-35.3632619,149.1652372
1778788427.599408,100784670,0,6,417245600,2418,10,1.21,-35.3632619,149.1652372,599.09,0.0020000000949949,168.4579620361328,0.0010000000474974,0.0,1,34.799408,0,-35.3632619,149.1652372
1778788427.799328,100984590,0,6,417245800,2418,10,1.21,-35.3632619,149.1652372,599.09,0.0020000000949949,157.80686950683594,0.0010000000474974,0.0,1,34.999328,0,-35.3632619,149.1652372
1778788427.999248,101184510,0,6,417246000,2418,10,1.21,-35.3632619,149.1652372,599.09,0.0020000000949949,143.42941284179688,0.0010000000474974,0.0,1,35.199248,0,-35.3632619,149.1652372
1778788428.200001,101385263,0,6,417246200,2418,10,1.21,-35.3632619,149.1652372,599.09,0.0020000000949949,132.3343505859375,0.0010000000474974,0.0,1,35.400001,0,-35.3632619,149.1652372
1778788428.3999207,101585183,0,6,417246400,2418,10,1.21,-35.3632619,149.1652372,599.09,0.0020000000949949,132.00279235839844,0.0010000000474974,0.0,1,35.599921,0,-35.3632619,149.1652372
1778788428.599841,101785103,0,6,417246600,2418,10,1.21,-35.3632619,149.1652372,599.08,0.0020000000949949,142.68138122558594,0.0020000000949949,0.0,1,35.799841,0,-35.3632619,149.1652372
1778788428.799761,101985023,0,6,417246800,2418,10,1.21,-35.3632619,149.1652372,599.08,0.0020000000949949,159.27301025390625,0.0020000000949949,0.0,1,35.999761,0,-35.3632619,149.1652372
1778788428.999681,102184943,0,6,417247000,2418,10,1.21,-35.3632619,149.1652372,599.08,0.0020000000949949,168.60556030273438,0.0010000000474974,0.0,1,36.199681,0,-35.3632619,149.1652372
1778788429.1996007,102384863,0,6,417247200,2418,10,1.21,-35.3632619,149.1652372,599.08,0.0020000000949949,167.64183044433594,0.0010000000474974,0.0,1,36.399601,0,-35.3632619,149.1652372
1778788429.399521,102584783,0,6,417247400,2418,10,1.21,-35.3632619,149.1652372,599.08,0.0020000000949949,161.82778930664062,0.0,0.0,1,36.599521,0,-35.3632619,149.1652372
1778788429.599441,102784703,0,6,417247600,2418,10,1.21,-35.3632619,149.1652372,599.08,0.0020000000949949,153.12730407714844,0.0,0.0,1,36.799441,0,-35.3632619,149.1652372
1778788429.7993608,102984623,0,6,417247800,2418,10,1.21,-35.3632619,149.1652372,599.08,0.0020000000949949,143.07135009765625,0.0,0.0,1,36.999361,0,-35.3632619,149.1652372
1778788429.9992807,103184543,0,6,417248000,2418,10,1.21,-35.3632619,149.1652372,599.08,0.0020000000949949,134.612060546875,0.0,0.0,1,37.199281,0,-35.3632619,149.1652372
1778788430.200034,103385296,0,6,417248200,2418,10,1.21,-35.3632619,149.1652372,599.08,0.0020000000949949,131.62286376953125,0.0,0.0,1,37.400034,0,-35.3632619,149.1652372
1778788430.399954,103585216,0,6,417248400,2418,10,1.21,-35.3632619,149.1652372,599.08,0.0020000000949949,133.8454132080078,0.0,0.0,1,37.599954,0,-35.3632619,149.1652372
1778788430.599874,103785136,0,6,417248600,2418,10,1.21,-35.363262,149.1652372,599.08,0.0020000000949949,139.719482421875,0.0,0.0,1,37.799874,0,-35.363262,149.1652372
1778788430.799794,103985056,0,6,417248800,2418,10,1.21,-35.363262,149.1652372,599.08,0.0020000000949949,145.671630859375,-0.0010000000474974,0.0,1,37.999794,0,-35.363262,149.1652372
1778788430.999714,104184976,0,6,417249000,2418,10,1.21,-35.363262,149.1652372,599.08,0.0020000000949949,141.14906311035156,-0.0010000000474974,0.0,1,38.199714,0,-35.363262,149.1652372
1778788431.199634,104384896,0,6,417249200,2418,10,1.21,-35.363262,149.1652372,599.08,0.0020000000949949,125.14030456542967,-0.0010000000474974,0.0,1,38.399634,0,-35.363262,149.1652372
1778788431.399554,104584816,0,6,417249400,2418,10,1.21,-35.363262,149.1652372,599.08,0.0020000000949949,103.18319702148438,-0.0010000000474974,0.0,1,38.599554,0,-35.363262,149.1652372
1778788431.599474,104784736,0,6,417249600,2418,10,1.21,-35.363262,149.1652372,599.08,0.0020000000949949,75.5875473022461,-0.0010000000474974,0.0,1,38.799474,0,-35.363262,149.1652372
1778788431.799394,104984656,0,6,417249800,2418,10,1.21,-35.363262,149.1652372,599.09,0.0020000000949949,43.32455825805664,-0.0010000000474974,0.0,1,38.999394,0,-35.363262,149.1652372
1778788431.999314,105184576,0,6,417250000,2418,10,1.21,-35.363262,149.1652372,599.09,0.003000000026077,21.985870361328125,-0.0010000000474974,0.0,1,39.199314,0,-35.363262,149.1652372
1778788432.199234,105384496,0,6,417250200,2418,10,1.21,-35.363262,149.1652372,599.09,0.0040000001899898,17.174779891967773,0.0,0.0,1,39.399234,0,-35.363262,149.1652372
1778788432.3999867,105585249,0,6,417250400,2418,10,1.21,-35.363262,149.1652372,599.09,0.0040000001899898,18.69217872619629,0.0,0.0,1,39.599987,0,-35.363262,149.1652372
1778788432.5999067,105785169,0,6,417250600,2418,10,1.21,-35.363262,149.1652372,599.09,0.0040000001899898,18.2413387298584,0.0,0.0,1,39.799907,0,-35.363262,149.1652372
1778788432.799827,105985089,0,6,417250800,2418,10,1.21,-35.363262,149.1652372,599.09,0.0040000001899898,14.11909008026123,0.0,0.0,1,39.999827,0,-35.363262,149.1652372
1778788432.999747,106185009,0,6,417251000,2418,10,1.21,-35.363262,149.1652372,599.09,0.0040000001899898,8.546689987182617,0.0,0.0,1,40.199747,0,-35.363262,149.1652372
1778788433.1996667,106384929,0,6,417251200,2418,10,1.21,-35.363262,149.1652372,599.09,0.0050000003539025,4.699309825897217,0.0,0.0,1,40.399667,0,-35.363262,149.1652372
1778788433.3995872,106584849,0,6,417251400,2418,10,1.21,-35.363262,149.1652372,599.09,0.0050000003539025,4.16087007522583,0.0,0.0,1,40.599587,0,-35.363262,149.1652372
1778788433.599507,106784769,0,6,417251600,2418,10,1.21,-35.363262,149.1652372,599.09,0.0050000003539025,5.983870029449463,0.0010000000474974,0.0,1,40.799507,0,-35.363262,149.1652372
1778788433.799427,106984689,0,6,417251800,2418,10,1.21,-35.363262,149.1652372,599.09,0.0050000003539025,7.588279724121094,0.0010000000474974,0.0,1,40.999427,0,-35.363262,149.1652372
1778788433.9993467,107184609,0,6,417252000,2418,10,1.21,-35.363262,149.1652372,599.08,0.006000000052154,8.718119621276855,0.0010000000474974,0.0,1,41.199347,0,-35.363262,149.1652372
1778788434.1992671,107384529,0,6,417252200,2418,10,1.21,-35.363262,149.1652372,599.08,0.006000000052154,9.370339393615724,0.0010000000474974,0.0,1,41.399267,0,-35.363262,149.1652372
1778788434.40002,107585282,0,6,417252400,2418,10,1.21,-35.3632619,149.1652372,599.08,0.006000000052154,10.014969825744627,0.0010000000474974,0.0,1,41.60002,0,-35.3632619,149.1652372
1778788434.59994,107785202,0,6,417252600,2418,10,1.21,-35.3632619,149.1652372,599.08,0.0050000003539025,12.840889930725098,0.0010000000474974,0.0,1,41.79994,0,-35.3632619,149.1652372
1778788434.79986,107985122,0,6,417252800,2418,10,1.21,-35.3632619,149.1652372,599.08,0.0050000003539025,19.26833915710449,0.0,0.0,1,41.99986,0,-35.3632619,149.1652372
1778788434.99978,108185042,0,6,417253000,2418,10,1.21,-35.3632619,149.1652372,599.08,0.0040000001899898,26.63957023620605,0.0,0.0,1,42.19978,0,-35.3632619,149.1652372
1778788435.1997,108384962,0,6,417253200,2418,10,1.21,-35.3632619,149.1652372,599.08,0.0040000001899898,32.755027770996094,0.0,0.0,1,42.3997,0,-35.3632619,149.1652372
1778788435.39962,108584882,0,6,417253400,2418,10,1.21,-35.3632619,149.1652372,599.08,0.003000000026077,40.33987808227539,0.0,0.0,1,42.59962,0,-35.3632619,149.1652372
1778788435.59954,108784802,0,6,417253600,2418,10,1.21,-35.3632619,149.1652372,599.08,0.0020000000949949,51.05577850341797,-0.0010000000474974,0.0,1,42.79954,0,-35.3632619,149.1652372
1778788435.79946,108984722,0,6,417253800,2418,10,1.21,-35.3632619,149.1652372,599.08,0.0020000000949949,65.427978515625,-0.0010000000474974,0.0,1,42.99946,0,-35.3632619,149.1652372
1778788435.99938,109184642,0,6,417254000,2418,10,1.21,-35.3632619,149.1652372,599.08,0.0010000000474974,82.92757415771484,-0.0010000000474974,0.0,1,43.19938,0,-35.3632619,149.1652372
1778788436.1993,109384562,0,6,417254200,2418,10,1.21,-35.3632619,149.1652372,599.08,0.0,97.52721405029295,-0.0010000000474974,0.0,1,43.3993,0,-35.3632619,149.1652372
1778788436.39922,109584482,0,6,417254400,2418,10,1.21,-35.3632619,149.1652372,599.09,0.0,112.45974731445312,-0.0010000000474974,0.0,1,43.59922,0,-35.3632619,149.1652372
1778788436.5999727,109785235,0,6,417254600,2418,10,1.21,-35.3632619,149.1652372,599.09,0.0,158.0481414794922,-0.0010000000474974,0.0,1,43.799973,0,-35.3632619,149.1652372
1778788436.7998931,109985155,0,6,417254800,2418,10,1.21,-35.3632619,149.1652372,599.09,0.0,170.06643676757812,-0.0010000000474974,0.0,1,43.999893,0,-35.3632619,149.1652372
1778788436.999813,110185075,0,6,417255000,2418,10,1.21,-35.3632619,149.1652372,599.09,0.0,161.09503173828125,0.0,0.0,1,44.199813,0,-35.3632619,149.1652372
1778788437.199733,110384995,0,6,417255200,2418,10,1.21,-35.3632619,149.1652372,599.09,0.0,150.0399932861328,0.0,0.0,1,44.399733,0,-35.3632619,149.1652372
1778788437.3996527,110584915,0,6,417255400,2418,10,1.21,-35.3632619,149.1652372,599.09,0.0,142.76991271972656,0.0,0.0,1,44.599653,0,-35.3632619,149.1652372
1778788437.5995731,110784835,0,6,417255600,2418,10,1.21,-35.3632619,149.1652372,599.09,0.0,151.95516967773438,0.0,0.0,1,44.799573,0,-35.3632619,149.1652372
1778788437.799493,110984755,0,6,417255800,2418,10,1.21,-35.3632619,149.1652372,599.09,0.0,174.13583374023438,0.0,0.0,1,44.999493,0,-35.3632619,149.1652372
1778788437.999413,111184675,0,6,417256000,2418,10,1.21,-35.3632619,149.1652372,599.09,0.0010000000474974,183.10533142089844,0.0,0.0,1,45.199413,0,-35.3632619,149.1652372
1778788438.1993327,111384595,0,6,417256200,2418,10,1.21,-35.3632619,149.1652372,599.09,0.0010000000474974,188.2814178466797,0.0010000000474974,0.0,1,45.399333,0,-35.3632619,149.1652372
1778788438.3992531,111584515,0,6,417256400,2418,10,1.21,-35.3632619,149.1652372,599.09,0.0010000000474974,184.10308837890625,0.0010000000474974,0.0,1,45.599253,0,-35.3632619,149.1652372
1778788438.600006,111785268,0,6,417256600,2418,10,1.21,-35.3632619,149.1652372,599.09,0.0010000000474974,173.20220947265625,0.0010000000474974,0.0,1,45.800006,0,-35.3632619,149.1652372
1778788438.799926,111985188,0,6,417256800,2418,10,1.21,-35.3632619,149.1652372,599.08,0.0010000000474974,167.7721405029297,0.0010000000474974,0.0,1,45.999926,0,-35.3632619,149.1652372
1778788438.999846,112185108,0,6,417257000,2418,10,1.21,-35.3632619,149.1652372,599.08,0.0020000000949949,163.6701202392578,0.0010000000474974,0.0,1,46.199846,0,-35.3632619,149.1652372
1778788439.199766,112385028,0,6,417257200,2418,10,1.21,-35.3632619,149.1652372,599.08,0.0020000000949949,158.8625030517578,0.0010000000474974,0.0,1,46.399766,0,-35.3632619,149.1652372
1778788439.399686,112584948,0,6,417257400,2418,10,1.21,-35.3632619,149.1652373,599.08,0.0020000000949949,153.43399047851562,0.0,0.0,1,46.599686,0,-35.3632619,149.1652373
1778788439.599606,112784868,0,6,417257600,2418,10,1.21,-35.3632619,149.1652373,599.08,0.0020000000949949,153.49057006835938,0.0,0.0,1,46.799606,0,-35.3632619,149.1652373
1778788439.799526,112984788,0,6,417257800,2418,10,1.21,-35.3632619,149.1652373,599.08,0.0020000000949949,163.42999267578125,0.0,0.0,1,46.999526,0,-35.3632619,149.1652373
1778788439.999446,113184708,0,6,417258000,2418,10,1.21,-35.3632619,149.1652373,599.08,0.0010000000474974,184.13877868652344,0.0,0.0,1,47.199446,0,-35.3632619,149.1652373
1778788440.199366,113384628,0,6,417258200,2418,10,1.21,-35.3632619,149.1652373,599.08,0.0010000000474974,214.6865081787109,0.0,0.0,1,47.399366,0,-35.3632619,149.1652373
1778788440.399286,113584548,0,6,417258400,2418,10,1.21,-35.3632619,149.1652373,599.08,0.0020000000949949,237.25848388671875,0.0,0.0,1,47.599286,0,-35.3632619,149.1652373
1778788440.600039,113785301,0,6,417258600,2418,10,1.21,-35.3632619,149.1652373,599.08,0.0020000000949949,247.46603393554688,-0.0010000000474974,0.0,1,47.800039,0,-35.3632619,149.1652373
1778788440.7999587,113985221,0,6,417258800,2418,10,1.21,-35.3632619,149.1652373,599.08,0.003000000026077,251.5711669921875,-0.0010000000474974,0.0,1,47.999959,0,-35.3632619,149.1652373
1778788440.9998791,114185141,0,6,417259000,2418,10,1.21,-35.3632619,149.1652373,599.08,0.0040000001899898,253.209228515625,-0.0010000000474974,0.0,1,48.199879,0,-35.3632619,149.1652373
1778788441.199799,114385061,0,6,417259200,2418,10,1.21,-35.3632619,149.1652373,599.09,0.006000000052154,252.12518310546875,-0.0010000000474974,0.0,1,48.399799,0,-35.3632619,149.1652373
1778788441.399719,114584981,0,6,417259400,2418,10,1.21,-35.3632619,149.1652373,599.09,0.006000000052154,249.16156005859372,-0.0010000000474974,0.0,1,48.599719,0,-35.3632619,149.1652373
1778788441.5996387,114784901,0,6,417259600,2418,10,1.21,-35.3632619,149.1652373,599.09,0.006000000052154,246.28890991210935,-0.0010000000474974,0.0,1,48.799639,0,-35.3632619,149.1652373
1778788441.799559,114984821,0,6,417259800,2418,10,1.21,-35.3632619,149.1652373,599.09,0.006000000052154,244.37826538085935,0.0,0.0,1,48.999559,0,-35.3632619,149.1652373
1778788441.999479,115184741,0,6,417260000,2418,10,1.21,-35.3632619,149.1652373,599.09,0.006000000052154,243.2901611328125,0.0,0.0,1,49.199479,0,-35.3632619,149.1652373
1778788442.1993988,115384661,0,6,417260200,2418,10,1.21,-35.3632619,149.1652373,599.09,0.0050000003539025,244.34078979492188,0.0,0.0,1,49.399399,0,-35.3632619,149.1652373
1778788442.3993187,115584581,0,6,417260400,2418,10,1.21,-35.3632619,149.1652372,599.09,0.0050000003539025,247.901123046875,0.0,0.0,1,49.599319,0,-35.3632619,149.1652372
1778788442.599239,115784501,0,6,417260600,2418,10,1.21,-35.3632619,149.1652372,599.09,0.0050000003539025,250.5731201171875,0.0,0.0,1,49.799239,0,-35.3632619,149.1652372
1778788442.799992,115985254,0,6,417260800,2418,10,1.21,-35.3632619,149.1652372,599.09,0.0050000003539025,249.5917053222656,0.0010000000474974,0.0,1,49.999992,0,-35.3632619,149.1652372
1778788442.999912,116185174,0,6,417261000,2418,10,1.21,-35.3632619,149.1652372,599.09,0.0050000003539025,245.0887451171875,0.0010000000474974,0.0,1,50.199912,0,-35.3632619,149.1652372
1778788443.199832,116385094,0,6,417261200,2418,10,1.21,-35.3632619,149.1652372,599.08,0.0050000003539025,240.41845703125,0.0010000000474974,0.0,1,50.399832,0,-35.3632619,149.1652372
1778788443.399752,116585014,0,6,417261400,2418,10,1.21,-35.3632619,149.1652372,599.08,0.0040000001899898,236.77618408203125,0.0010000000474974,0.0,1,50.599752,0,-35.3632619,149.1652372
1778788443.599672,116784934,0,6,417261600,2418,10,1.21,-35.3632619,149.1652372,599.08,0.0040000001899898,231.23745727539065,0.0010000000474974,0.0,1,50.799672,0,-35.3632619,149.1652372
1778788443.799592,116984854,0,6,417261800,2418,10,1.21,-35.3632619,149.1652372,599.08,0.003000000026077,223.9605407714844,0.0010000000474974,0.0,1,50.999592,0,-35.3632619,149.1652372
1778788443.999512,117184774,0,6,417262000,2418,10,1.21,-35.3632619,149.1652372,599.08,0.003000000026077,214.9494171142578,0.0,0.0,1,51.199512,0,-35.3632619,149.1652372
1778788444.199432,117384694,0,6,417262200,2418,10,1.21,-35.3632619,149.1652372,599.08,0.0020000000949949,203.92376708984372,0.0,0.0,1,51.399432,0,-35.3632619,149.1652372
1778788444.399352,117584614,0,6,417262400,2418,10,1.21,-35.3632619,149.1652372,599.08,0.0020000000949949,196.73382568359372,0.0,0.0,1,51.599352,0,-35.3632619,149.1652372
1778788444.599272,117784534,0,6,417262600,2418,10,1.21,-35.3632619,149.1652372,599.08,0.0020000000949949,201.5851287841797,0.0,0.0,1,51.799272,0,-35.3632619,149.1652372
1778788444.8000247,117985287,0,6,417262800,2418,10,1.21,-35.3632619,149.1652372,599.08,0.0020000000949949,216.46290588378903,-0.0010000000474974,0.0,1,52.000025,0,-35.3632619,149.1652372
1778788444.9999447,118185207,0,6,417263000,2418,10,1.21,-35.3632619,149.1652372,599.08,0.0020000000949949,225.218017578125,-0.0010000000474974,0.0,1,52.199945,0,-35.3632619,149.1652372
1778788445.199865,118385127,0,6,417263200,2418,10,1.21,-35.3632619,149.1652372,599.08,0.0020000000949949,220.05723571777344,-0.0010000000474974,0.0,1,52.399865,0,-35.3632619,149.1652372
1778788445.399785,118585047,0,6,417263400,2418,10,1.21,-35.3632619,149.1652372,599.08,0.0020000000949949,207.42832946777344,-0.0010000000474974,0.0,1,52.599785,0,-35.3632619,149.1652372
1778788445.5997047,118784967,0,6,417263600,2418,10,1.21,-35.3632619,149.1652371,599.09,0.0010000000474974,192.63597106933597,-0.0010000000474974,0.0,1,52.799705,0,-35.3632619,149.1652371
1778788445.7996247,118984887,0,6,417263800,2418,10,1.21,-35.3632619,149.165237,599.09,0.0010000000474974,184.54183959960935,-0.0010000000474974,0.0,1,52.999625,0,-35.3632619,149.165237
1778788445.999545,119184807,0,6,417264000,2418,10,1.21,-35.363262,149.165237,599.09,0.0010000000474974,185.9955291748047,-0.0010000000474974,0.0,1,53.199545,0,-35.363262,149.165237
1778788446.199465,119384727,0,6,417264200,2418,10,1.21,-35.363262,149.165237,599.09,0.0020000000949949,182.16380310058597,0.0,0.0,1,53.399465,0,-35.363262,149.165237
1778788446.3993847,119584647,0,6,417264400,2418,10,1.21,-35.363262,149.165237,599.09,0.0020000000949949,163.33197021484375,0.0,0.0,1,53.599385,0,-35.363262,149.165237
1778788446.5993052,119784567,0,6,417264600,2418,10,1.21,-35.363262,149.165237,599.09,0.0020000000949949,129.8195037841797,0.0,0.0,1,53.799305,0,-35.363262,149.165237
1778788446.799225,119984487,0,6,417264800,2418,10,1.21,-35.363262,149.165237,599.09,0.003000000026077,101.27703094482422,0.0,0.0,1,53.999225,0,-35.363262,149.165237
1778788446.999978,120185240,0,6,417265000,2418,10,1.21,-35.363262,149.165237,599.09,0.0050000003539025,84.44903564453125,0.0010000000474974,0.0,1,54.199978,0,-35.363262,149.165237
1778788447.199898,120385160,0,6,417265200,2418,10,1.21,-35.363262,149.165237,599.09,0.0080000003799796,76.11296081542969,0.0010000000474974,0.0,1,54.399898,0,-35.363262,149.165237
1778788447.399818,120585080,0,6,417265400,2418,10,1.21,-35.363262,149.165237,599.09,0.0090000005438923,71.5267105102539,0.0010000000474974,0.0,1,54.599818,0,-35.363262,149.165237
1778788447.599738,120785000,0,6,417265600,2418,10,1.21,-35.363262,149.165237,599.09,0.0100000007078051,67.83309173583984,0.0010000000474974,0.0,1,54.799738,0,-35.363262,149.165237
1778788447.799658,120984920,0,6,417265800,2418,10,1.21,-35.363262,149.1652371,599.08,0.0100000007078051,64.98405456542969,0.0010000000474974,0.0,1,54.999658,0,-35.363262,149.1652371
1778788447.999578,121184840,0,6,417266000,2418,10,1.21,-35.363262,149.1652372,599.08,0.0110000008717179,64.03305053710938,0.0010000000474974,0.0,1,55.199578,0,-35.363262,149.1652372
1778788448.199498,121384760,0,6,417266200,2418,10,1.21,-35.363262,149.1652372,599.08,0.0110000008717179,63.5323371887207,0.0010000000474974,0.0,1,55.399498,0,-35.363262,149.1652372
1778788448.399418,121584680,0,6,417266400,2418,10,1.21,-35.363262,149.1652372,599.08,0.0110000008717179,61.83736801147461,0.0010000000474974,0.0,1,55.599418,0,-35.363262,149.1652372
1778788448.599338,121784600,0,6,417266600,2418,10,1.21,-35.363262,149.1652372,599.08,0.0100000007078051,58.08583831787109,0.0,0.0,1,55.799338,0,-35.363262,149.1652372
1778788448.799258,121984520,0,6,417266800,2418,10,1.21,-35.363262,149.1652372,599.08,0.0080000003799796,49.63356018066406,0.0,0.0,1,55.999258,0,-35.363262,149.1652372
1778788449.0000107,122185273,0,6,417267000,2418,10,1.21,-35.363262,149.1652373,599.08,0.006000000052154,35.098087310791016,0.0,0.0,1,56.200011,0,-35.363262,149.1652373
1778788449.1999311,122385193,0,6,417267200,2418,10,1.21,-35.363262,149.1652373,599.08,0.0050000003539025,19.23569869995117,0.0,0.0,1,56.399931,0,-35.363262,149.1652373
1778788449.399851,122585113,0,6,417267400,2418,10,1.21,-35.363262,149.1652373,599.08,0.0050000003539025,7.482649803161621,-0.0010000000474974,0.0,1,56.599851,0,-35.363262,149.1652373
1778788449.599771,122785033,0,6,417267600,2418,10,1.21,-35.363262,149.1652373,599.08,0.0050000003539025,356.85992431640625,-0.0010000000474974,0.0,1,56.799771,0,-35.363262,149.1652373
1778788449.7996907,122984953,0,6,417267800,2418,10,1.21,-35.3632619,149.1652373,599.08,0.006000000052154,346.3274841308594,-0.0010000000474974,0.0,1,56.999691,0,-35.3632619,149.1652373
1778788449.9996111,123184873,0,6,417268000,2418,10,1.21,-35.3632619,149.1652373,599.08,0.006000000052154,338.5806884765625,-0.0010000000474974,0.0,1,57.199611,0,-35.3632619,149.1652373
1778788450.199531,123384793,0,6,417268200,2418,10,1.21,-35.3632619,149.1652373,599.08,0.0070000002160668,333.7529296875,-0.0010000000474974,0.0,1,57.399531,0,-35.3632619,149.1652373
1778788450.399451,123584713,0,6,417268400,2418,10,1.21,-35.3632619,149.1652373,599.09,0.006000000052154,328.7947692871094,-0.0010000000474974,0.0,1,57.599451,0,-35.3632619,149.1652373
1778788450.5993707,123784633,0,6,417268600,2418,10,1.21,-35.3632619,149.1652373,599.09,0.006000000052154,320.9779052734375,-0.0010000000474974,0.0,1,57.799371,0,-35.3632619,149.1652373
1778788450.7992911,123984553,0,6,417268800,2418,10,1.21,-35.3632619,149.1652373,599.09,0.0050000003539025,310.9984741210937,0.0,0.0,1,57.999291,0,-35.3632619,149.1652373
1778788450.999211,124184473,0,6,417269000,2418,10,1.21,-35.3632619,149.1652373,599.09,0.0050000003539025,297.7771301269531,0.0,0.0,1,58.199211,0,-35.3632619,149.1652373
1778788451.199964,124385226,0,6,417269200,2418,10,1.21,-35.3632619,149.1652373,599.09,0.0050000003539025,282.6011657714844,0.0,0.0,1,58.399964,0,-35.3632619,149.1652373
1778788451.399884,124585146,0,6,417269400,2418,10,1.21,-35.3632619,149.1652373,599.09,0.0050000003539025,272.9697265625,0.0,0.0,1,58.599884,0,-35.3632619,149.1652373
1778788451.599804,124785066,0,6,417269600,2418,10,1.21,-35.3632619,149.1652373,599.09,0.0050000003539025,267.5623779296875,0.0010000000474974,0.0,1,58.799804,0,-35.3632619,149.1652373
1778788451.799724,124984986,0,6,417269800,2418,10,1.21,-35.3632619,149.1652373,599.09,0.006000000052154,263.58160400390625,0.0010000000474974,0.0,1,58.999724,0,-35.3632619,149.1652373
1778788451.999644,125184906,0,6,417270000,2418,10,1.21,-35.3632619,149.1652373,599.09,0.006000000052154,262.8655090332031,0.0010000000474974,0.0,1,59.199644,0,-35.3632619,149.1652373
1778788452.199564,125384826,0,6,417270200,2418,10,1.21,-35.3632619,149.1652372,599.08,0.006000000052154,264.2065734863281,0.0010000000474974,0.0,1,59.399564,0,-35.3632619,149.1652372
1778788452.399484,125584746,0,6,417270400,2418,10,1.21,-35.3632619,149.1652372,599.08,0.006000000052154,265.09820556640625,0.0010000000474974,0.0,1,59.599484,0,-35.3632619,149.1652372
1778788452.599404,125784666,0,6,417270600,2418,10,1.21,-35.3632619,149.1652372,599.08,0.006000000052154,265.6856384277344,0.0010000000474974,0.0,1,59.799404,0,-35.3632619,149.1652372
1778788452.799324,125984586,0,6,417270800,2418,10,1.21,-35.3632619,149.1652372,599.08,0.0050000003539025,266.5223083496094,0.0010000000474974,0.0,1,59.999324,0,-35.3632619,149.1652372
1778788452.999244,126184506,0,6,417271000,2418,10,1.21,-35.3632619,149.1652372,599.08,0.0040000001899898,267.00555419921875,0.0,0.0,1,60.199244,0,-35.3632619,149.1652372
1778788453.1999967,126385259,0,6,417271200,2418,10,1.21,-35.3632619,149.1652372,599.08,0.0040000001899898,265.6494140625,0.0,0.0,1,60.399997,0,-35.3632619,149.1652372
1778788453.3999171,126585179,0,6,417271400,2418,10,1.21,-35.3632619,149.1652372,599.08,0.003000000026077,262.8592529296875,0.0,0.0,1,60.599917,0,-35.3632619,149.1652372
1778788453.599837,126785099,0,6,417271600,2418,10,1.21,-35.3632619,149.1652372,599.08,0.0020000000949949,259.6993713378906,0.0,0.0,1,60.799837,0,-35.3632619,149.1652372
1778788453.799757,126985019,0,6,417271800,2418,10,1.21,-35.3632619,149.1652372,599.08,0.0020000000949949,253.3047332763672,0.0,0.0,1,60.999757,0,-35.3632619,149.1652372
1778788453.9996767,127184939,0,6,417272000,2418,10,1.21,-35.3632619,149.1652372,599.08,0.0020000000949949,240.57659912109372,-0.0010000000474974,0.0,1,61.199677,0,-35.3632619,149.1652372
1778788454.1995971,127384859,0,6,417272200,2418,10,1.21,-35.3632619,149.1652372,599.08,0.0020000000949949,229.8658599853516,-0.0010000000474974,0.0,1,61.399597,0,-35.3632619,149.1652372
1778788454.399517,127584779,0,6,417272400,2418,10,1.21,-35.3632619,149.1652372,599.08,0.0010000000474974,228.688720703125,-0.0010000000474974,0.0,1,61.599517,0,-35.3632619,149.1652372
1778788454.599437,127784699,0,6,417272600,2418,10,1.21,-35.3632619,149.1652371,599.08,0.0010000000474974,231.20571899414065,-0.0010000000474974,0.0,1,61.799437,0,-35.3632619,149.1652371
1778788454.7993567,127984619,0,6,417272800,2418,10,1.21,-35.3632619,149.165237,599.09,0.0010000000474974,229.73507690429688,-0.0010000000474974,0.0,1,61.999357,0,-35.3632619,149.165237
1778788454.999277,128184539,0,6,417273000,2418,10,1.21,-35.3632619,149.165237,599.09,0.0010000000474974,225.897216796875,-0.0010000000474974,0.0,1,62.199277,0,-35.3632619,149.165237
1778788455.20003,128385292,0,6,417273200,2418,10,1.21,-35.3632619,149.165237,599.09,0.0020000000949949,218.9937896728516,0.0,0.0,1,62.40003,0,-35.3632619,149.165237
1778788455.39995,128585212,0,6,417273400,2418,10,1.21,-35.3632619,149.165237,599.09,0.0020000000949949,195.04412841796875,0.0,0.0,1,62.59995,0,-35.3632619,149.165237
1778788455.59987,128785132,0,6,417273600,2418,10,1.21,-35.3632619,149.165237,599.09,0.0020000000949949,157.07582092285156,0.0,0.0,1,62.79987,0,-35.3632619,149.165237
1778788455.79979,128985052,0,6,417273800,2418,10,1.21,-35.3632619,149.165237,599.09,0.003000000026077,128.28857421875,0.0,0.0,1,62.99979,0,-35.3632619,149.165237
1778788455.99971,129184972,0,6,417274000,2418,10,1.21,-35.3632619,149.165237,599.09,0.0040000001899898,110.4953842163086,0.0,0.0,1,63.19971,0,-35.3632619,149.165237
1778788456.19963,129384892,0,6,417274200,2418,10,1.21,-35.3632619,149.165237,599.09,0.006000000052154,99.93460845947266,0.0,0.0,1,63.39963,0,-35.3632619,149.165237
1778788456.39955,129584812,0,6,417274400,2418,10,1.21,-35.3632619,149.165237,599.09,0.0080000003799796,96.2513656616211,0.0010000000474974,0.0,1,63.59955,0,-35.3632619,149.165237
1778788456.59947,129784732,0,6,417274600,2418,10,1.21,-35.3632619,149.165237,599.09,0.0090000005438923,97.45034790039062,0.0010000000474974,0.0,1,63.79947,0,-35.3632619,149.165237
1778788456.79939,129984652,0,6,417274800,2418,10,1.21,-35.3632619,149.165237,599.08,0.0090000005438923,100.17694091796876,0.0010000000474974,0.0,1,63.99939,0,-35.3632619,149.165237
1778788456.99931,130184572,0,6,417275000,2418,10,1.21,-35.3632619,149.1652371,599.08,0.0090000005438923,102.33897399902344,0.0010000000474974,0.0,1,64.19931,0,-35.3632619,149.1652371
1778788457.19923,130384492,0,6,417275200,2418,10,1.21,-35.3632619,149.1652372,599.08,0.0090000005438923,104.3421401977539,0.0010000000474974,0.0,1,64.39923,0,-35.3632619,149.1652372
1778788457.3999827,130585245,0,6,417275400,2418,10,1.21,-35.3632619,149.1652372,599.08,0.0090000005438923,105.49333953857422,0.0010000000474974,0.0,1,64.599983,0,-35.3632619,149.1652372
1778788457.599903,130785165,0,6,417275600,2418,10,1.21,-35.3632619,149.1652372,599.08,0.0080000003799796,104.66218566894533,0.0,0.0,1,64.799903,0,-35.3632619,149.1652372
1778788457.799823,130985085,0,6,417275800,2418,10,1.21,-35.3632619,149.1652372,599.08,0.0070000002160668,103.99942016601562,0.0,0.0,1,64.999823,0,-35.3632619,149.1652372
1778788457.9997427,131185005,0,6,417276000,2418,10,1.21,-35.3632619,149.1652372,599.08,0.0050000003539025,106.6400375366211,0.0,0.0,1,65.199743,0,-35.3632619,149.1652372
1778788458.1996627,131384925,0,6,417276200,2418,10,1.21,-35.3632619,149.1652372,599.08,0.0040000001899898,114.05117797851562,0.0,0.0,1,65.399663,0,-35.3632619,149.1652372
1778788458.399583,131584845,0,6,417276400,2418,10,1.21,-35.3632619,149.1652372,599.08,0.0020000000949949,127.48301696777344,0.0,0.0,1,65.599583,0,-35.3632619,149.1652372
1778788458.599503,131784765,0,6,417276600,2418,10,1.21,-35.3632619,149.1652373,599.08,0.0010000000474974,154.6212615966797,-0.0010000000474974,0.0,1,65.799503,0,-35.3632619,149.1652373
1778788458.7994227,131984685,0,6,417276800,2418,10,1.21,-35.3632619,149.1652373,599.08,0.0010000000474974,202.6582794189453,-0.0010000000474974,0.0,1,65.999423,0,-35.3632619,149.1652373
1778788458.999343,132184605,0,6,417277000,2418,10,1.21,-35.3632619,149.1652373,599.08,0.0020000000949949,225.9011993408203,-0.0010000000474974,0.0,1,66.199343,0,-35.3632619,149.1652373
1778788459.199263,132384525,0,6,417277200,2418,10,1.21,-35.3632619,149.1652373,599.09,0.003000000026077,231.7219390869141,-0.0010000000474974,0.0,1,66.399263,0,-35.3632619,149.1652373
1778788459.400016,132585278,0,6,417277400,2418,10,1.21,-35.3632619,149.1652373,599.09,0.003000000026077,233.90370178222656,-0.0010000000474974,0.0,1,66.600016,0,-35.3632619,149.1652373
1778788459.599936,132785198,0,6,417277600,2418,10,1.21,-35.3632619,149.1652373,599.09,0.0040000001899898,236.50128173828125,-0.0010000000474974,0.0,1,66.799936,0,-35.3632619,149.1652373
1778788459.799856,132985118,0,6,417277800,2418,10,1.21,-35.3632619,149.1652373,599.09,0.0040000001899898,240.29702758789065,0.0,0.0,1,66.999856,0,-35.3632619,149.1652373
1778788459.999776,133185038,0,6,417278000,2418,10,1.21,-35.3632619,149.1652373,599.09,0.0050000003539025,245.08480834960935,0.0,0.0,1,67.199776,0,-35.3632619,149.1652373
1778788460.199696,133384958,0,6,417278200,2418,10,1.21,-35.3632619,149.1652373,599.09,0.006000000052154,249.4906005859375,0.0,0.0,1,67.399696,0,-35.3632619,149.1652373
1778788460.399616,133584878,0,6,417278400,2418,10,1.21,-35.3632619,149.1652373,599.09,0.006000000052154,252.5091094970703,0.0,0.0,1,67.599616,0,-35.3632619,149.1652373
