timestamp,TimeUS,I,GyrX,GyrY,GyrZ,AccX,AccY,AccZ,EG,EA,T,GH,AH,GHz,AHz,TimeSec,AttackActive_IMU,GyrZ_attacked
1778627314.4,54605649,0,0.0007621713448315,0.0007464044028893,0.0008045530994422,-0.0016368229407817,-0.0009166816598735,-9.817384719848633,0,0,28.221546173095703,1,1,1000,1000,0.0,0,0.0008045530994422
1778627314.4,54605649,1,0.0008958132239058,0.0009595470037311,0.0008400095975957,-0.0009316150681115,0.0001748023787513,-9.818760871887209,0,0,28.221546173095703,1,1,760,800,0.0,0,0.0008400095975957
1778627314.439984,54645633,0,0.0007561526726931,0.000727906008251,0.0006991310510784,-0.0010391267715021,-0.0001624229334993,-9.817513465881348,0,0,28.223783493041992,1,1,1000,1000,0.039984,0,0.0006991310510784
1778627314.439984,54645633,1,0.0008820737130008,0.000674074573908,0.0008326278766617,-0.0027284412644803,0.0003767177986446,-9.817137718200684,0,0,28.223783493041992,1,1,760,800,0.039984,0,0.0008326278766617
1778627314.479968,54685617,0,0.0007664449512958,0.0008223361801356,0.0007152702892199,-0.0012908626813441,-0.0011661614989861,-9.818693161010742,0,0,28.22601890563965,1,1,1000,1000,0.079968,0,0.0007152702892199
1778627314.479968,54685617,1,0.0008552761864848,0.0009141573682427,0.0008636125712655,-0.0003466502821538,-0.0012247862759977,-9.81658172607422,0,0,28.22601890563965,1,1,760,800,0.079968,0,0.0008636125712655
1778627314.519952,54725601,0,0.0007407722878269,0.0007561487145721,0.0006874857353977,-0.0002592925739008,-0.001295965979807,-9.817179679870604,0,0,28.228256225585938,1,1,1000,1000,0.119952,0,0.0006874857353977
1778627314.519952,54725601,1,0.0007429469842463,0.0008596171392127,0.0007406161166727,0.0002597603597678,-0.0003483250620774,-9.81707000732422,0,0,28.228256225585938,1,1,760,800,0.119952,0,0.0007406161166727
1778627314.559936,54765585,0,0.0006930320523679,0.0008019024389795,0.0007390644168481,-0.0002283317298861,-0.0001271478977287,-9.81558609008789,0,0,28.230491638183597,1,1,1000,1000,0.159936,0,0.0007390644168481
1778627314.559936,54765585,1,0.0007861219346523,0.0006291283643804,0.0008280631154775,-0.0021873374935239,-0.0007236102828755,-9.81782341003418,0,0,28.230491638183597,1,1,760,800,0.159936,0,0.0008280631154775
1778627314.59992,54805569,0,0.0007153604528866,0.0006910663796588,0.0008845624397508,-0.0011454437626525,-0.0024789609014987,-9.817925453186035,0,0,28.23272705078125,1,1,1000,1000,0.19992,0,0.0008845624397508
1778627314.59992,54805569,1,0.0005420793895609,0.0005514329532161,0.0009412296931259,0.000361760467058,-0.0025070796255022,-9.817121505737305,0,0,28.23272705078125,1,1,760,800,0.19992,0,0.0009412296931259
1778627314.639904,54845553,0,0.0007534229662269,0.0007936532492749,0.0008263419149443,-0.0012447668705135,-0.0016474908916279,-9.81739616394043,0,0,28.234962463378903,1,1,1000,1000,0.239904,0,0.0008263419149443
1778627314.639904,54845553,1,0.0006995175499469,0.0009388071484863,0.000742194650229,-0.0016684879083186,-0.0015766377327963,-9.81494140625,0,0,28.234962463378903,1,1,760,800,0.239904,0,0.000742194650229
1778627314.679888,54885537,0,0.0007886161911301,0.0008177086128853,0.0006787759484723,-0.0010044258087873,-0.0006870939978398,-9.81670379638672,0,0,28.23719787597656,1,1,1000,1000,0.279888,0,0.0006787759484723
1778627314.679888,54885537,1,0.0007764011970721,0.0008013120968826,0.0007765075424686,-0.002396211028099,-0.0002747719408944,-9.818931579589844,0,0,28.23719787597656,1,1,760,800,0.279888,0,0.0007765075424686
1778627314.719872,54925521,0,0.0008129019406624,0.0006770651089027,0.0007757026469334,-0.0006827113684266,-0.0011298712342977,-9.81682586669922,0,0,28.23943328857422,1,1,1000,1000,0.319872,0,0.0007757026469334
1778627314.719872,54925521,1,0.000803587725386,0.0008541657589375,0.0008136369287967,-0.0019162993412464,-0.0013126629637554,-9.816179275512695,0,0,28.23943328857422,1,1,760,800,0.319872,0,0.0008136369287967
1778627314.759856,54965505,0,0.0008990227943286,0.0007444192888215,0.0007986003765836,-0.0001883615477709,1.174160024675075e-05,-9.816993713378906,0,0,28.241668701171875,1,1,1000,1000,0.359856,0,0.0007986003765836
1778627314.759856,54965505,1,0.0007339140865951,0.0007266237516887,0.0005607597413472,-0.0010800289455801,-4.227029785397463e-05,-9.819928169250488,0,0,28.241668701171875,1,1,760,800,0.359856,0,0.0005607597413472
1778627314.7998402,55005489,0,0.0006827876786701,0.0007192873745225,0.0007832128321751,-0.0011262603802606,0.0002198323491029,-9.816884994506836,0,0,28.2439022064209,1,1,1000,1000,0.39984,0,0.0007832128321751
1778627314.7998402,55005489,1,0.0006845822790637,0.000732391141355,0.0005813178722746,-0.0009831173811107,-0.0018446303438395,-9.819158554077148,0,0,28.2439022064209,1,1,760,800,0.39984,0,0.0005813178722746
1778627314.8398242,55045473,0,0.000840654829517,0.0008060145773924,0.0007205670699477,-0.0007335685077123,-0.0005874970811419,-9.817597389221191,0,0,28.24613571166992,1,1,1000,1000,0.439824,0,0.0007205670699477
1778627314.8398242,55045473,1,0.0007959227077662,0.0007155067287385,0.0010662885615602,-0.0022626733407378,-0.0003039485309273,-9.817903518676758,0,0,28.24608039855957,1,1,760,800,0.439824,0,0.0010662885615602
1778627314.879808,55085457,0,0.0007695298991166,0.000753779313527,0.0006882324232719,-0.0008345888345502,-0.0007961556548252,-9.818022727966309,0,0,28.248369216918945,1,1,1000,1000,0.479808,0,0.0006882324232719
1778627314.879808,55085457,1,0.0006774699431844,0.0007478928309865,0.0009334998321719,0.001132130739279,-0.0009668067796155,-9.81611156463623,0,0,28.248313903808597,1,1,760,800,0.479808,0,0.0009334998321719
1778627314.919792,55125441,0,0.0007300854776985,0.0007559378282167,0.000849045231007,-0.0011473872000351,-0.0014520179247483,-9.81739616394043,0,0,28.25060272216797,1,1,1000,1000,0.519792,0,0.000849045231007
1778627314.919792,55125441,1,0.0008574410458095,0.0007349798106588,0.0006661632214672,-0.0006853964296169,-0.0030714848544448,-9.81692886352539,0,0,28.250545501708984,1,1,760,800,0.519792,0,0.0006661632214672
1778627314.959776,55165425,0,0.0007691886858083,0.0007660385454073,0.0007837377488613,-0.0011790374992415,-0.0010930560529232,-9.81696891784668,0,0,28.252836227416992,1,1,1000,1000,0.559776,0,0.0007837377488613
1778627314.959776,55165425,1,0.0004507210105657,0.000883791304659,0.0007963625248521,0.0002020408574026,0.0009919379372149,-9.817506790161133,0,0,28.25278091430664,1,1,760,800,0.559776,0,0.0007963625248521
1778627314.99976,55205409,0,0.0008044833084568,0.0007394371205009,0.0007224658038467,-0.0013886267552152,-0.0002950135676655,-9.817049026489258,0,0,28.255069732666016,1,1,1000,1000,0.59976,0,0.0007224658038467
1778627314.99976,55205409,1,0.0007228977628983,0.0006342391134239,0.0012476342963054,-0.0004229747573845,-0.0013702693395316,-9.816826820373535,0,0,28.25501251220703,1,1,760,800,0.59976,0,0.0012476342963054
1778627315.039744,55245393,0,0.0008225730853155,0.0007968040299601,0.0007218778482638,-0.0012520235031843,-0.0011368263512849,-9.81627082824707,0,0,28.257301330566406,1,1,1000,1000,0.639744,0,0.0007218778482638
1778627315.039744,55245393,1,0.0006742811528965,0.0007631613407284,0.0008777729817666,-0.0017503303242847,0.0003461654414422,-9.818918228149414,0,0,28.257244110107425,1,1,760,800,0.639744,0,0.0008777729817666
1778627315.079728,55285377,0,0.0007352795801125,0.0007280583376996,0.000771865597926,-0.0012601127382367,-0.0012956229038536,-9.817628860473633,0,0,28.2595329284668,1,1,1000,1000,0.679728,0,0.000771865597926
1778627315.079728,55285377,1,0.0010089605348184,0.0008200402371585,0.0006857240223325,-0.0017207950586453,-0.0018676946638152,-9.81685733795166,0,0,28.259477615356445,1,1,760,800,0.679728,0,0.0006857240223325
1778627315.119712,55325361,0,0.0008501361589878,0.0007300493889488,0.0008260930771939,-0.0018880835268646,-0.0011550248600542,-9.817134857177734,0,0,28.261764526367188,1,1,1000,1000,0.719712,0,0.0008260930771939
1778627315.119712,55325361,1,0.0006188974366523,0.0008078443352133,0.0006746960571035,-0.0003361286362633,-0.0005264222854748,-9.81771183013916,0,0,28.26170921325684,1,1,760,800,0.719712,0,0.0006746960571035
1778627315.159696,55365345,0,0.0007503015222027,0.0007119330111891,0.0008299692999571,-0.0009959393646568,-0.0012627015821635,-9.818302154541016,0,0,28.263996124267575,1,1,1000,1000,0.759696,0,0.0008299692999571
1778627315.159696,55365345,1,0.0006811522180214,0.0008807266131043,0.0007240670965984,-0.0006831286591477,-0.0009542850311845,-9.819029808044434,0,0,28.263940811157227,1,1,760,800,0.759696,0,0.0007240670965984
1778627315.19968,55405329,0,0.0008337479666806,0.0008595556719228,0.0008617039420641,-0.0011611054651439,-0.0012651954311877,-9.817551612854004,0,0,28.26622772216797,1,1,1000,1000,0.79968,0,0.0008617039420641
1778627315.19968,55405329,1,0.000849595235195,0.0008210478699766,0.0007889490807428,-0.0019029274117201,-0.0018040461000055,-9.819618225097656,0,0,28.266172409057617,1,1,760,800,0.79968,0,0.0007889490807428
1778627315.239664,55445313,0,0.0007554235053248,0.0006682507228106,0.0008133045630529,-0.0008544540032744,-0.0018993316916748,-9.818082809448242,0,0,28.26845932006836,1,1,1000,1000,0.839664,0,0.0008133045630529
1778627315.239664,55445313,1,0.0006806541932746,0.000945778330788,0.0009239466162398,-0.0014226110652089,-0.0007379101589322,-9.81686782836914,0,0,28.268404006958008,1,1,760,800,0.839664,0,0.0009239466162398
1778627315.279648,55485297,0,0.0008585394825786,0.000822385889478,0.0007570573943667,-0.0003876221599057,-0.0004014680162072,-9.81694793701172,0,0,28.27069091796875,1,1,1000,1000,0.879648,0,0.0007570573943667
1778627315.279648,55485297,1,0.0006606150418519,0.0007340803858824,0.0010811031097546,-0.0009992005070671,0.0005109884077683,-9.817840576171877,0,0,28.27063369750977,1,1,760,800,0.879648,0,0.0010811031097546
1778627315.319632,55525281,0,0.0007598584634251,0.0007516122423112,0.0008083565044216,-0.001532670110464,-0.0018278055358678,-9.816536903381348,0,0,28.272920608520508,1,1,1000,1000,0.919632,0,0.0008083565044216
1778627315.319632,55525281,1,0.0006131249829195,0.0008230023668147,0.0009821063140407,-0.0006799719412811,0.0012055062688887,-9.817479133605955,0,0,28.27286529541016,1,1,760,800,0.919632,0,0.0009821063140407
1778627315.359616,55565265,0,0.000821518828161,0.0007575367344543,0.0008125199819914,-0.0003249374858569,-0.0003143345820717,-9.817187309265137,0,0,28.275150299072266,1,1,1000,1000,0.959616,0,0.0008125199819914
1778627315.359616,55565265,1,0.0008192224777303,0.0006017057457938,0.0007934761233627,-0.0003323841374367,-0.0010494370944797,-9.818464279174805,0,0,28.275094985961918,1,1,760,800,0.959616,0,0.0007934761233627
1778627315.3996,55605249,0,0.0008295072475448,0.0007525345426984,0.0007671806961297,-0.0010728677734732,-0.0006493480177596,-9.816607475280762,0,0,28.277379989624023,1,1,1000,1000,0.9996,0,0.0007671806961297
1778627315.3996,55605249,1,0.0007348068756982,0.0005489219911396,0.000603453896474,-0.0015339023666456,-0.0013170248130336,-9.815590858459473,0,0,28.277324676513672,1,1,760,800,0.9996,0,0.000603453896474
1778627315.439584,55645233,0,0.0008408575667999,0.0007362935575656,0.0007771480595692,-0.0006881947047077,-6.638457125518471e-05,-9.817255973815918,0,0,28.27955436706543,1,1,1000,1000,1.039584,0,0.0007771480595692
1778627315.439584,55645233,1,0.0008129321504384,0.0007397112203761,0.0007576391799375,-0.0036212445702403,-0.0003167740651406,-9.815861701965332,0,0,28.27955436706543,1,1,760,800,1.039584,0,0.0007576391799375
1778627315.479568,55685217,0,0.0008316278690472,0.000820112763904,0.0007777594728395,-0.0013630371540784,-0.0007908948464319,-9.818620681762695,0,0,28.281784057617188,1,1,1000,1000,1.079568,0,0.0007777594728395
1778627315.479568,55685217,1,0.0009247081470675,0.0007118677021935,0.0006614649901166,-0.0040473169647157,-0.0007596029900014,-9.817474365234377,0,0,28.281784057617188,1,1,760,800,1.079568,0,0.0006614649901166
1778627315.519552,55725201,0,0.0007033492438495,0.0007402357296086,0.0007559272344224,-0.001134020043537,-0.0009791671764105,-9.816900253295898,0,0,28.284011840820312,1,1,1000,1000,1.119552,0,0.0007559272344224
1778627315.519552,55725201,1,0.0007559140212833,0.0005467747687362,0.001013959525153,-0.0003780197876039,-0.0011453565675765,-9.817718505859377,0,0,28.284011840820312,1,1,760,800,1.119552,0,0.001013959525153
1778627315.5595362,55765185,0,0.0007782458560541,0.0007646807353012,0.0007248091278597,-0.0010546484263613,9.816682722885162e-05,-9.818553924560549,0,0,28.28624153137207,1,1,1000,1000,1.159536,0,0.0007248091278597
1778627315.5595362,55765185,1,0.0005123392911627,0.0008761105127632,0.0008283151546493,-0.0007143710972741,-0.0002382278034929,-9.817438125610352,0,0,28.28624153137207,1,1,760,800,1.159536,0,0.0008283151546493
1778627315.5995202,55805169,0,0.0008640549494884,0.0007204811554402,0.0008168189087882,-0.0005189914954826,-0.0007203215500339,-9.817261695861816,0,0,28.288469314575195,1,1,1000,1000,1.19952,0,0.0008168189087882
1778627315.5995202,55805169,1,0.0007898005424067,0.0009759542299434,0.0008620892185717,-0.0015393092762678,-0.0006501243333332,-9.818567276000977,0,0,28.288469314575195,1,1,760,800,1.19952,0,0.0008620892185717
1778627315.639504,55845153,0,0.0007908078841865,0.0008383811218664,0.0007900767377577,-0.0001631403720239,-0.0013067828258499,-9.817397117614746,0,0,28.29069709777832,1,1,1000,1000,1.239504,0,0.0007900767377577
1778627315.639504,55845153,1,0.0005474758800119,0.0009305931162089,0.0009217364131473,-0.0028714188374578,-0.0008077670354396,-9.819730758666992,0,0,28.29069709777832,1,1,760,800,1.239504,0,0.0009217364131473
1778627315.679488,55885137,0,0.0007866399828344,0.0008805120596662,0.0007482297951355,-0.0002562698500696,-0.0008214158006012,-9.817089080810549,0,0,28.292924880981445,1,1,1000,1000,1.279488,0,0.0007482297951355
1778627315.679488,55885137,1,0.0004295482940506,0.0007633392815478,0.0007912688888609,0.0007205606088973,-0.0010634530335664,-9.817254066467283,0,0,28.292924880981445,1,1,760,800,1.279488,0,0.0007912688888609
1778627315.719472,55925121,0,0.0008002697722986,0.0007876998279243,0.0008129109046421,-0.001046291552484,-0.001255111536011,-9.81760311126709,0,0,28.29515266418457,1,1,1000,1000,1.319472,0,0.0008129109046421
1778627315.719472,55925121,1,0.0007783034816384,0.0005998880369588,0.0005510097835212,0.0006539380992762,7.481287320842966e-05,-9.817501068115234,0,0,28.29515266418457,1,1,760,800,1.319472,0,0.0005510097835212
1778627315.759456,55965105,0,0.000810200930573,0.0007299571880139,0.0007504165405407,-0.0006975656142458,-0.0003477835271041,-9.817367553710938,0,0,28.29738044738769,1,1,1000,1000,1.359456,0,0.0007504165405407
1778627315.759456,55965105,1,0.0009222312364727,0.0008494950598105,0.0007403747877106,0.0003494419797789,-0.0023492574691772,-9.817405700683594,0,0,28.29738044738769,1,1,760,800,1.359456,0,0.0007403747877106
1778627315.79944,56005089,0,0.0007608797168359,0.0008104942389763,0.0007463631918653,-0.0014975832309573,-0.0013909402769058,-9.817874908447266,0,0,28.299606323242188,1,1,1000,1000,1.39944,0,0.0007463631918653
1778627315.79944,56005089,1,0.0010641202097758,0.0009603957878425,0.000819447916001,-0.0024543446488678,0.000420436321292,-9.817586898803713,0,0,28.299606323242188,1,1,760,800,1.39944,0,0.000819447916001
1778627315.839424,56045073,0,0.0007554809562861,0.0007498688064515,0.0008105122833512,-0.0020620911382138,-0.0014708150411024,-9.818971633911133,0,0,28.30183219909668,1,1,1000,1000,1.439424,0,0.0008105122833512
1778627315.839424,56045073,1,0.00075283809565,0.0006510952953249,0.0006034468533471,0.0004340076702646,0.0001714063982944,-9.818034172058104,0,0,28.30183219909668,1,1,760,800,1.439424,0,0.0006034468533471
1778627315.879408,56085057,0,0.0007428668322972,0.0007997465436346,0.0007683078292757,-0.0012505876366049,-0.0010064960224553,-9.817567825317385,0,0,28.30411529541016,1,1,1000,1000,1.479408,0,0.0007683078292757
1778627315.879408,56085057,1,0.0006801086710765,0.0008902609115466,0.0008295557345263,-0.0028789611533284,-0.0010119283106178,-9.817675590515137,0,0,28.30411529541016,1,1,760,800,1.479408,0,0.0008295557345263
1778627315.919392,56125041,0,0.0007921872311271,0.0007549361907877,0.0007528943242505,-0.0002933717623818,-0.0017191777005791,-9.816673278808594,0,0,28.30634117126465,1,1,1000,1000,1.519392,0,0.0007528943242505
1778627315.919392,56125041,1,0.0009464696631766,0.0006676776101812,0.0009333885391242,0.0001826154039008,0.000734303612262,-9.817724227905272,0,0,28.30634117126465,1,1,760,800,1.519392,0,0.0009333885391242
1778627315.959376,56165025,0,0.0007392109837383,0.0007589075248688,0.0008059670799411,-0.0016841382021084,-0.0002934160875156,-9.817112922668455,0,0,28.30856704711914,1,1,1000,1000,1.559376,0,0.0008059670799411
1778627315.959376,56165025,1,0.0008802617667242,0.0007563139079138,0.000600931525696,-0.0013500176137313,-0.0043393303640186,-9.818450927734377,0,0,28.30856704711914,1,1,760,800,1.559376,0,0.000600931525696
1778627315.99936,56205009,0,0.0007178515661507,0.0007171905017457,0.0007422663038596,-0.0008422478567808,-0.0016265751328319,-9.817341804504396,0,0,28.310792922973636,1,1,1000,1000,1.59936,0,0.0007422663038596
1778627315.99936,56205009,1,0.0007657759124413,0.0004580270906444,0.0006889840587973,-0.0018741794629022,-0.0002980750577989,-9.818016052246094,0,0,28.310792922973636,1,1,760,800,1.59936,0,0.0006889840587973
1778627316.039344,56244993,0,0.0008123654406517,0.0007801625179126,0.0008526393794454,-0.0008693650597706,-0.0002865181595552,-9.816572189331056,0,0,28.31296157836914,1,1,1000,1000,1.639344,0,0.0008526393794454
1778627316.039344,56244993,1,0.0007416098378598,0.0009887218475341,0.0006176343304105,-0.000894108088687,-0.0010441303020343,-9.81577491760254,0,0,28.31296157836914,1,1,760,800,1.639344,0,0.0006176343304105
1778627316.079328,56284977,0,0.0007960405200719,0.0008837785571813,0.0007838208111934,-0.0019025157671421,-0.0025472366251051,-9.81704807281494,0,0,28.315185546875,1,1,1000,1000,1.679328,0,0.0007838208111934
1778627316.079328,56284977,1,0.0007527606212534,0.0009799185208976,0.0007670982740819,0.0002010111347772,-0.0004773265973199,-9.820225715637209,0,0,28.315185546875,1,1,760,800,1.679328,0,0.0007670982740819
1778627316.119312,56324961,0,0.0007212396012619,0.0008077496895566,0.0008020267705433,-0.0012947716750204,-0.0009235187317244,-9.817919731140137,0,0,28.31741142272949,1,1,1000,1000,1.719312,0,0.0008020267705433
1778627316.119312,56324961,1,0.0009323899867013,0.0007746084593236,0.0008178191492334,-9.671006409917028e-05,-0.0017563386354595,-9.814857482910156,0,0,28.31741142272949,1,1,760,800,1.719312,0,0.0008178191492334
1778627316.159296,56364945,0,0.0009130220860242,0.000795254309196,0.0007963784155435,-0.0018813107162714,-0.0002068096073344,-9.818341255187988,0,0,28.31963539123535,1,1,1000,1000,1.759296,0,0.0007963784155435
1778627316.159296,56364945,1,0.0007348651415668,0.0008795470930635,0.000866419984959,0.0002221380127593,0.0005302096251398,-9.818643569946287,0,0,28.31963539123535,1,1,760,800,1.759296,0,0.000866419984959
1778627316.19928,56404929,0,0.0007648401078768,0.0008383094682358,0.0008339760242961,-0.0015963353216648,-0.0015286107081919,-9.816078186035156,0,0,28.32185935974121,1,1,1000,1000,1.79928,0,0.0008339760242961
1778627316.19928,56404929,1,0.0006427323096431,0.000691479537636,0.0007158747757785,-0.0001889941631816,-0.0011525190202519,-9.817102432250977,0,0,28.32185935974121,1,1,760,800,1.79928,0,0.0007158747757785
1778627316.239264,56444913,0,0.0007968212594278,0.0007494146702811,0.0007561921956948,-0.0005097172688692,-0.0015507282223552,-9.818428993225098,0,0,28.32408332824707,1,1,1000,1000,1.839264,0,0.0007561921956948
1778627316.239264,56444913,1,0.0007991313468664,0.0008325579110532,0.0006737782387062,0.0009207899565808,-0.0008467561565339,-9.814793586730955,0,0,28.32408332824707,1,1,760,800,1.839264,0,0.0006737782387062
1778627316.279248,56484897,0,0.0007463775109499,0.0007333756657317,0.0008342913351953,-0.0011053275084123,-0.0013366756029427,-9.816429138183594,0,0,28.326305389404297,1,1,1000,1000,1.879248,0,0.0008342913351953
1778627316.279248,56484897,1,0.000864710076712,0.000983104808256,0.0007481745560653,-0.0001112594109144,-0.001991220517084,-9.816715240478516,0,0,28.326305389404297,1,1,760,800,1.879248,0,0.0007481745560653
1778627316.319232,56524881,0,0.0008568154880777,0.0008935084915719,0.0007538839709013,-0.0020737661980092,-0.0002025848370976,-9.816635131835938,0,0,28.32852935791016,1,1,1000,1000,1.919232,0,0.0007538839709013
1778627316.319232,56524881,1,0.0006142867496237,0.0008905724971555,0.0010264137526974,-0.0008313682628795,-0.0019146262202411,-9.818211555480955,0,0,28.32852935791016,1,1,760,800,1.919232,0,0.0010264137526974
1778627316.3592162,56564865,0,0.0007687608012929,0.0008032355690374,0.0008491993648931,-0.0008887880831025,-0.0005922095733694,-9.81740379333496,0,0,28.330751419067383,1,1,1000,1000,1.959216,0,0.0008491993648931
1778627316.3592162,56564865,1,0.0006423494196496,0.0008148188935592,0.0007578613003715,-0.0004180840041954,-0.0005449017044156,-9.81537914276123,0,0,28.330751419067383,1,1,760,800,1.959216,0,0.0007578613003715
1778627316.3992002,56604849,0,0.0008480669930577,0.0008174524991773,0.0007999496883712,-0.0008594012469984,-0.0004335188132245,-9.817493438720703,0,0,28.33297348022461,1,1,1000,1000,1.9992,0,0.0007999496883712
1778627316.3992002,56604849,1,0.0007972108433023,0.000722732336726,0.000887329922989,-0.0007932444568723,-0.0012897381093353,-9.81903076171875,0,0,28.33297348022461,1,1,760,800,1.9992,0,0.000887329922989
1778627316.439184,56644833,0,0.0007797569269314,0.0008256341097876,0.0007980845402926,-0.0002321310166735,-0.0009486862691119,-9.816900253295898,0,0,28.33519744873047,1,1,1000,1000,2.039184,0,0.0007980845402926
1778627316.439184,56644833,1,0.0007854636060073,0.0010024143848568,0.0007150273886509,-0.0003693219623528,-0.0018303000833839,-9.819570541381836,0,0,28.33519744873047,1,1,760,800,2.039184,0,0.0007150273886509
1778627316.4800012,56685650,0,0.0009079173905774,0.0008637957507744,0.0008004111587069,-0.0004107224813196,-0.0009297777432948,-9.81781768798828,0,0,28.337474822998047,1,1,1000,1000,2.080001,0,0.0008004111587069
1778627316.4800012,56685650,1,0.0006369233597069,0.0008073762292042,0.0007129153818823,-0.0030254162847995,-0.0024063184391707,-9.816951751708984,0,0,28.337474822998047,1,1,760,800,2.080001,0,0.0007129153818823
1778627316.5199852,56725634,0,0.0007748531061224,0.0008357648621313,0.0007360113086178,-0.0002792182494886,-0.0015068261418491,-9.817493438720703,0,0,28.33969497680664,1,1,1000,1000,2.119985,0,0.0007360113086178
1778627316.5199852,56725634,1,0.0010807841317728,0.0005910370964556,0.0007861862541176,0.0018825677689164,-0.0031610885635018,-9.81757354736328,0,0,28.33969497680664,1,1,760,800,2.119985,0,0.0007861862541176
1778627316.5599692,56765618,0,0.0007517311023548,0.0008188606007024,0.0008196115959435,-0.0011987010948359,-0.0012579399626702,-9.817455291748049,0,0,28.341917037963867,1,1,1000,1000,2.159969,0,0.0008196115959435
1778627316.5599692,56765618,1,0.0008186993654817,0.0008325321250595,0.0008107150788418,-0.0014442922547459,-0.0025896844454109,-9.81735610961914,0,0,28.341917037963867,1,1,760,800,2.159969,0,0.0008107150788418
1778627316.5999532,56805602,0,0.0007237188983708,0.0008163985330611,0.0007632633787579,-0.0007284284220077,0.0003251299785915,-9.816780090332031,0,0,28.34413719177246,1,1,1000,1000,2.199953,0,0.0007632633787579
1778627316.5999532,56805602,1,0.0009352242341265,0.0006629152921959,0.0009064078330993,-0.0034190423320978,-0.0003511791874188,-9.816819190979004,0,0,28.34413719177246,1,1,760,800,2.199953,0,0.0009064078330993
1778627316.6399372,56845586,0,0.0007624726276844,0.0007322971941903,0.0008339195046573,-0.001211637398228,-0.0006272278260439,-9.817051887512209,0,0,28.34635734558105,1,1,1000,1000,2.239937,0,0.0008339195046573
1778627316.6399372,56845586,1,0.0008035185164771,0.0006678916979581,0.0007415294530801,-0.0011026982683688,0.0016253544017672,-9.81701374053955,0,0,28.34635734558105,1,1,760,800,2.239937,0,0.0007415294530801
1778627316.6799212,56885570,0,0.0007919372874312,0.0008341390639543,0.0008279238827526,-0.0004479652561713,-0.0010911696590483,-9.817663192749023,0,0,28.34857749938965,1,1,1000,1000,2.279921,0,0.0008279238827526
1778627316.6799212,56885570,1,0.0006255992921069,0.0006843588198535,0.0006146663799881,5.53216741536744e-05,-0.0001981308305403,-9.816564559936523,0,0,28.34857749938965,1,1,760,800,2.279921,0,0.0006146663799881
1778627316.7199051,56925554,0,0.0007614186033606,0.0008185533224605,0.000863057503011,-0.0006393285002559,-0.0004983062972314,-9.817901611328123,0,0,28.35079765319824,1,1,1000,1000,2.319905,0,0.000863057503011
1778627316.7199051,56925554,1,0.0009492937242612,0.0008360807551071,0.0007765076588839,0.0002149704960174,0.0004702560254372,-9.816349029541016,0,0,28.35079765319824,1,1,760,800,2.319905,0,0.0007765076588839
1778627316.7598891,56965538,0,0.0008644924964755,0.000846856739372,0.0007550619193352,-0.0007710298523306,-0.0004030133713968,-9.81745147705078,0,0,28.35301780700684,1,1,1000,1000,2.359889,0,0.0007550619193352
1778627316.7598891,56965538,1,0.0008401315426453,0.0011899959063157,0.0009962117765098,0.0002054110809694,-0.0010445438092574,-9.81628704071045,0,0,28.35301780700684,1,1,760,800,2.359889,0,0.0009962117765098
1778627316.799873,57005522,0,0.0008123003062792,0.0007098270580172,0.0007814137497916,-0.0006948127993382,-0.0002717372844927,-9.816852569580078,0,0,28.35523796081543,1,1,1000,1000,2.399873,0,0.0007814137497916
1778627316.799873,57005522,1,0.0007459300686605,0.0009589234832674,0.0009188610129058,-0.0021468552295118,-0.0006329718744382,-9.81582260131836,0,0,28.35523796081543,1,1,760,800,2.399873,0,0.0009188610129058
1778627316.839857,57045506,0,0.0008838794892653,0.0008870111196301,0.0007640346884727,-0.0003785958106163,-0.0011813816381618,-9.816482543945312,0,0,28.35745620727539,1,1,1000,1000,2.439857,0,0.0007640346884727
1778627316.839857,57045506,1,0.0007220595143735,0.0008554670494049,0.0008214808185584,-0.0019493086729198,-0.0012362787965685,-9.817925453186035,0,0,28.35745620727539,1,1,760,800,2.439857,0,0.0008214808185584
1778627316.879841,57085490,0,0.000747060868889,0.0008086603484116,0.0008442067191936,-0.0017488657031208,-0.0004296094703022,-9.81816864013672,0,0,28.359676361083984,1,1,1000,1000,2.479841,0,0.0008442067191936
1778627316.879841,57085490,1,0.0005948996404185,0.0005593306850641,0.0007333206594921,4.996187271899544e-05,0.0008842394454404,-9.814959526062012,0,0,28.359676361083984,1,1,760,800,2.479841,0,0.0007333206594921
1778627316.919825,57125474,0,0.0007988514262251,0.0008397947531193,0.0008156342664733,-0.0005313618457876,-0.0011076829396188,-9.817144393920898,0,0,28.361894607543945,1,1,1000,1000,2.519825,0,0.0008156342664733
1778627316.919825,57125474,1,0.0009917716961354,0.0010379457380622,0.0007851923583075,-0.000424566300353,-0.0033399432431906,-9.818126678466797,0,0,28.361839294433597,1,1,760,800,2.519825,0,0.0007851923583075
1778627316.959809,57165458,0,0.0008173757232725,0.0008115275413729,0.0008203011238947,-0.0012915281113237,-0.0014449530281126,-9.817756652832031,0,0,28.364112854003903,1,1,1000,1000,2.559809,0,0.0008203011238947
1778627316.959809,57165458,1,0.0005025084246881,0.0008705467917025,0.0007617708179168,-0.0025043345522135,-0.0012891477672383,-9.816882133483888,0,0,28.364057540893555,1,1,760,800,2.559809,0,0.0007617708179168
1778627316.999793,57205442,0,0.0007449355907738,0.0007987633580341,0.0007407742086797,3.6484569136518985e-05,-0.0009678443311713,-9.81812572479248,0,0,28.366331100463867,1,1,1000,1000,2.599793,0,0.0007407742086797
1778627316.999793,57205442,1,0.0008243911433964,0.0006567909149453,0.0008642759639769,-0.0017720886971801,-0.0021601389162242,-9.818574905395508,0,0,28.36627578735352,1,1,760,800,2.599793,0,0.0008642759639769
1778627317.039777,57245426,0,0.0008056429796852,0.0007513914024457,0.0008612196543253,-0.001184094697237,-0.0016668124590069,-9.817974090576172,0,0,28.368547439575195,1,1,1000,1000,2.639777,0,0.0008612196543253
1778627317.039777,57245426,1,0.0008900030516088,0.0008041699184104,0.0007200631080195,-0.003287048311904,0.0005847978172823,-9.818666458129885,0,0,28.368492126464844,1,1,760,800,2.639777,0,0.0007200631080195
1778627317.079761,57285410,0,0.000828563584946,0.0008064489229582,0.0007516026380471,-0.0015691379085183,-0.0002675941505003,-9.817657470703123,0,0,28.37076568603516,1,1,1000,1000,2.679761,0,0.0007516026380471
1778627317.079761,57285410,1,0.0007018061587586,0.0008753588190302,0.0007373997941613,-0.0016056728782132,-0.0013725637691095,-9.816444396972656,0,0,28.370710372924805,1,1,760,800,2.679761,0,0.0007373997941613
1778627317.119745,57325394,0,0.0007447270327247,0.0008389101712964,0.0007592846523039,-0.0016850028187036,-0.0002233574050478,-9.817362785339355,0,0,28.372982025146484,1,1,1000,1000,2.719745,0,0.0007592846523039
1778627317.119745,57325394,1,0.0007797477883286,0.0008292224374599,0.0005291296984069,-0.0018453847151249,-0.000924946158193,-9.817914962768556,0,0,28.372926712036133,1,1,760,800,2.719745,0,0.0005291296984069
1778627317.159729,57365378,0,0.0007454595761373,0.0007926649414002,0.0007650396437384,-0.0003317194350529,-0.0002813892788253,-9.817359924316406,0,0,28.375200271606445,1,1,1000,1000,2.759729,0,0.0007650396437384
1778627317.159729,57365378,1,0.0007399054593406,0.0008817015914246,0.0009720767266117,-0.0003806821478065,-0.0004619968531187,-9.817655563354492,0,0,28.375144958496094,1,1,760,800,2.759729,0,0.0009720767266117
1778627317.1997128,57405362,0,0.0008245789213106,0.0008002400863915,0.0008362105581909,-0.0008078050450421,-0.000698133255355,-9.817463874816896,0,0,28.377416610717773,1,1,1000,1000,2.799713,0,0.0008362105581909
1778627317.1997128,57405362,1,0.0007398771704174,0.0009863377781584,0.0006109789246693,-0.0008472198387607,0.0007125058909878,-9.81966781616211,0,0,28.37735939025879,1,1,760,800,2.799713,0,0.0006109789246693
1778627317.2396972,57445346,0,0.0007893899455666,0.0007717558182775,0.0008244001655839,-0.0011525222798809,-0.0012684676330536,-9.81856918334961,0,0,28.3796329498291,1,1,1000,1000,2.839697,0,0.0008244001655839
1778627317.2396972,57445346,1,0.0008597640553489,0.0010409128153696,0.0008685915963724,-0.0008603325113654,-0.0053720097057521,-9.817562103271484,0,0,28.37957572937012,1,1,760,800,2.839697,0,0.0008685915963724
1778627317.2796812,57485330,0,0.000778940913733,0.0007571188034489,0.0008045978611335,-0.001359099522233,6.539872993016616e-05,-9.81753158569336,0,0,28.3818473815918,1,1,1000,1000,2.879681,0,0.0008045978611335
1778627317.2796812,57485330,1,0.0006149822147563,0.0008684810018166,0.0009815514786168,0.00125913543161,-0.0013913734583184,-9.817533493041992,0,0,28.381792068481445,1,1,760,800,2.879681,0,0.0009815514786168
1778627317.3196652,57525314,0,0.0008599905413575,0.0008402083767578,0.0008941746200434,-0.0007413332350552,-0.0011726747034117,-9.818087577819824,0,0,28.384063720703125,1,1,1000,1000,2.919665,0,0.0008941746200434
1778627317.3196652,57525314,1,0.0007189311436377,0.0007663971045985,0.0008405526168644,-0.0021780761890113,-0.0035651482176035,-9.818005561828612,0,0,28.384008407592773,1,1,760,800,2.919665,0,0.0008405526168644
1778627317.3596492,57565298,0,0.0007752868114039,0.0008405072148889,0.0007799629238434,-0.001017595292069,-0.0014979711268097,-9.817081451416016,0,0,28.38627815246582,1,1,1000,1000,2.959649,0,0.0007799629238434
1778627317.3596492,57565298,1,0.0006197734037414,0.000772283936385,0.0007666710880585,-0.0025615016929805,-0.0013322612503543,-9.818170547485352,0,0,28.38622283935547,1,1,760,800,2.959649,0,0.0007666710880585
1778627317.3996332,57605282,0,0.00080182030797,0.0008531931089237,0.0007859111065044,-0.0012911799130961,-0.0019322920124977,-9.81747055053711,0,0,28.38849449157715,1,1,1000,1000,2.999633,0,0.0007859111065044
1778627317.3996332,57605282,1,0.0009413518710061,0.0007353271939791,0.0010389785747975,-0.0017171807121485,-0.0011605848558247,-9.816730499267578,0,0,28.3884391784668,1,1,760,800,2.999633,0,0.0010389785747975
1778627317.4396172,57645266,0,0.0008505955338478,0.0008190318476408,0.0007988279685378,-0.0008273031562566,-0.0015287209535017,-9.816726684570312,0,0,28.390708923339844,1,1,1000,1000,3.039617,0,0.0007988279685378
1778627317.4396172,57645266,1,0.0004747593193314,0.0006755415233783,0.0007279260316863,-0.0007399120368063,0.0002598454884719,-9.816079139709473,0,0,28.39065361022949,1,1,760,800,3.039617,0,0.0007279260316863
1778627317.4796011,57685250,0,0.0008598560816608,0.0007750765653327,0.000821616500616,2.367948036408052e-05,-0.0020475937053561,-9.81849479675293,0,0,28.39292335510254,1,1,1000,1000,3.079601,0,0.000821616500616
1778627317.4796011,57685250,1,0.000832429388538,0.0008926793816499,0.0006687372224405,0.0018706497503444,0.0002224831841886,-9.819122314453123,0,0,28.392868041992188,1,1,760,800,3.079601,0,0.0006687372224405
1778627317.5195851,57725234,0,0.0007309382781386,0.0008218053844757,0.0007456224411725,-0.0005249257665127,-0.0014998086262494,-9.816837310791016,0,0,28.3951358795166,1,1,1000,1000,3.119585,0,0.0007456224411725
1778627317.5195851,57725234,1,0.0007952463929541,0.0006927865906618,0.0006611583521589,0.0014495734358206,-0.0014964193105697,-9.81635856628418,0,0,28.395082473754883,1,1,760,800,3.119585,0,0.0006611583521589
1778627317.5595691,57765218,0,0.0008552751969546,0.0008675177814438,0.0007793436525389,-0.0014223026810213,-0.0016267246101051,-9.817030906677246,0,0,28.397294998168945,1,1,1000,1000,3.159569,0,0.0007793436525389
1778627317.5595691,57765218,1,0.0009891389636322,0.0008533493382856,0.0007399465539492,-0.0021901798900216,-0.0028422933537513,-9.81741714477539,0,0,28.397294998168945,1,1,760,800,3.159569,0,0.0007399465539492
1778627317.599553,57805202,0,0.0007771849632263,0.0007466716924682,0.000830395030789,-0.0004628565511666,-0.0007817898876965,-9.816896438598633,0,0,28.39950942993164,1,1,1000,1000,3.199553,0,0.000830395030789
1778627317.599553,57805202,1,0.0006592641002498,0.0008961426210589,0.00080918247113,-0.0010811740066856,0.0006842953152954,-9.818011283874512,0,0,28.39950942993164,1,1,760,800,3.199553,0,0.00080918247113
1778627317.639537,57845186,0,0.0008133906521834,0.0008556804968975,0.0007631658809259,-0.0013112956658005,-0.001576542854309,-9.817421913146973,0,0,28.401721954345703,1,1,1000,1000,3.239537,0,0.0007631658809259
1778627317.639537,57845186,1,0.0008626867784187,0.0010374787962064,0.0007572109461762,-0.0026118529494851,5.044890713179484e-06,-9.818662643432615,0,0,28.401721954345703,1,1,760,800,3.239537,0,0.0007572109461762
1778627317.679521,57885170,0,0.0007788548246026,0.0007989988080225,0.0007845801883377,-0.0006982488557696,-0.0007013558060862,-9.817498207092283,0,0,28.40393447875977,1,1,1000,1000,3.279521,0,0.0007845801883377
1778627317.679521,57885170,1,0.0005550138885155,0.001086306059733,0.0009322165278717,-0.0017555106896907,0.0012109541567042,-9.81586456298828,0,0,28.40393447875977,1,1,760,800,3.279521,0,0.0009322165278717
1778627317.719505,57925154,0,0.0007828082889318,0.0008042227709665,0.0008136334363371,-0.0008310721023008,-0.0008338698535226,-9.817774772644045,0,0,28.406147003173828,1,1,1000,1000,3.319505,0,0.0008136334363371
1778627317.719505,57925154,1,0.0007319895667023,0.0005823486717417,0.0008987519540823,0.0002087054599542,0.0003481385065242,-9.814254760742188,0,0,28.406147003173828,1,1,760,800,3.319505,0,0.0008987519540823
1778627317.759489,57965138,0,0.0007955130422487,0.0008342229411937,0.000843328773044,-0.0018604381475597,-0.0010721299331635,-9.818408012390137,0,0,28.40835952758789,1,1,1000,1000,3.359489,0,0.000843328773044
1778627317.759489,57965138,1,0.0009696310735307,0.0007551025482825,0.0006696560885757,-0.0021671252325177,-0.0012039700523018,-9.8158540725708,0,0,28.40835952758789,1,1,760,800,3.359489,0,0.0006696560885757
1778627317.799473,58005122,0,0.0007403877680189,0.0007868531392887,0.0008633183315396,-0.0013343661557883,-0.0021535214036703,-9.818015098571776,0,0,28.410572052001957,1,1,1000,1000,3.399473,0,0.0008633183315396
1778627317.799473,58005122,1,0.0006975794094614,0.0007096360204741,0.0007520203362219,-0.0016266298480331,-0.0013416574802249,-9.816410064697266,0,0,28.410572052001957,1,1,760,800,3.399473,0,0.0007520203362219
1778627317.839457,58045106,0,0.00087305722991,0.000857834063936,0.0008228789665736,-0.0012322660768404,-0.000591927091591,-9.817256927490234,0,0,28.412784576416016,1,1,1000,1000,3.439457,0,0.0008228789665736
1778627317.839457,58045106,1,0.0007095277542248,0.0007006946252658,0.0008315359009429,-0.0002966029569506,-0.0027257208712399,-9.815927505493164,0,0,28.412784576416016,1,1,760,800,3.439457,0,0.0008315359009429
1778627317.879441,58085090,0,0.0008083194843493,0.0008556848042644,0.0008320398628711,-0.0002032154006883,-0.0014711504336446,-9.81727409362793,0,0,28.414995193481445,1,1,1000,1000,3.479441,0,0.0008320398628711
1778627317.879441,58085090,1,0.0008235402638092,0.0008052130579017,0.0006519858725368,-0.0006873010424897,-0.0009549603564664,-9.820384979248049,0,0,28.414995193481445,1,1,760,800,3.479441,0,0.0006519858725368
1778627317.919425,58125074,0,0.000847817165777,0.0007591093890368,0.0007728206692263,-0.00139243574813,-0.0009297071956098,-9.817476272583008,0,0,28.417207717895508,1,1,1000,1000,3.519425,0,0.0007728206692263
1778627317.919425,58125074,1,0.0006487888749688,0.0008143373997882,0.0009291663300246,-9.81539415079169e-05,8.755675662541762e-05,-9.820561408996582,0,0,28.417207717895508,1,1,760,800,3.519425,0,0.0009291663300246
1778627317.959409,58165058,0,0.00086682185065,0.0007776974816806,0.0007818757439963,-0.0007408511009998,-0.0023263213224709,-9.817144393920898,0,0,28.41947364807129,1,1,1000,1000,3.559409,0,0.0007818757439963
1778627317.959409,58165058,1,0.0006970306276343,0.0010329713113605,0.0007201269618235,-0.0003343896823935,-0.001245170016773,-9.82008934020996,0,0,28.41947364807129,1,1,760,800,3.559409,0,0.0007201269618235
1778627317.9993927,58205042,0,0.0008006555144675,0.0008131936774589,0.0008739710319787,-2.302306893398054e-05,-0.001388014992699,-9.816967964172363,0,0,28.42168426513672,1,1,1000,1000,3.599393,0,0.0008739710319787
1778627317.9993927,58205042,1,0.000842162349727,0.000614782969933,0.0006729082087986,-0.0016295376699417,0.0007420244510285,-9.818370819091797,0,0,28.42168426513672,1,1,760,800,3.599393,0,0.0006729082087986
1778627318.0393772,58245026,0,0.0007978935027495,0.0008405407425016,0.0007880257326178,-0.0008933871285989,-0.0023549227043986,-9.818202018737791,0,0,28.42389297485352,1,1,1000,1000,3.639377,0,0.0007880257326178
1778627318.0393772,58245026,1,0.0009017183328978,0.000905665976461,0.0009172168793156,-0.0006090821116231,5.497292659129016e-05,-9.817469596862791,0,0,28.42389297485352,1,1,760,800,3.639377,0,0.0009172168793156
1778627318.0793612,58285010,0,0.00091285596136,0.0007940066279843,0.0007778892759233,4.797818837687373e-05,-0.0009293116163462,-9.818195343017578,0,0,28.426103591918945,1,1,1000,1000,3.679361,0,0.0007778892759233
1778627318.0793612,58285010,1,0.0009416723041795,0.0006758536328561,0.0005868480657227,0.0017869514413177,-0.0047564031556248,-9.820233345031738,0,0,28.426103591918945,1,1,760,800,3.679361,0,0.0005868480657227
1778627318.1193452,58324994,0,0.0008388441056013,0.0007625923026353,0.0008116363314911,-0.0011077744420617,-0.0006764055578969,-9.817547798156738,0,0,28.428258895874023,1,1,1000,1000,3.719345,0,0.0008116363314911
1778627318.1193452,58324994,1,0.0005751578719355,0.0007855789735913,0.000813816091977,-0.0009320575045421,-0.0028748856857419,-9.816741943359377,0,0,28.428258895874023,1,1,760,800,3.719345,0,0.000813816091977
1778627318.1593292,58364978,0,0.000841706409119,0.0008241310133598,0.0008137837867252,-0.0015586405061185,-0.0007256497628986,-9.817066192626951,0,0,28.43046760559082,1,1,1000,1000,3.759329,0,0.0008137837867252
1778627318.1593292,58364978,1,0.0007473893929272,0.0008294148137792,0.000764463446103,0.0004602388653438,-0.0024426109157502,-9.816479682922363,0,0,28.43046760559082,1,1,760,800,3.759329,0,0.000764463446103
1778627318.1993132,58404962,0,0.0008374762837775,0.0007925560930743,0.0008365673129446,-0.0004883294459432,-0.0013479969929903,-9.817896842956545,0,0,28.432676315307617,1,1,1000,1000,3.799313,0,0.0008365673129446
1778627318.1993132,58404962,1,0.0008139571291394,0.000736448506359,0.0007309343200176,-0.004687666427344,-0.0036315058823674,-9.817138671875,0,0,28.432676315307617,1,1,760,800,3.799313,0,0.0007309343200176
1778627318.2392972,58444946,0,0.0007572388276457,0.0007443961803801,0.0008563999435864,-0.0008653861004859,-0.0006135945441201,-9.817124366760254,0,0,28.43488502502441,1,1,1000,1000,3.839297,0,0.0008563999435864
1778627318.2392972,58444946,1,0.0008000927628017,0.0008201059536077,0.0006890172953717,-0.0013927127001807,-0.0024827518500387,-9.820390701293944,0,0,28.43488502502441,1,1,760,800,3.839297,0,0.0006890172953717
1778627318.2792811,58484930,0,0.0008581067668274,0.0007956617046147,0.0008510906482115,-0.0015439447015523,-0.0004771574749611,-9.8181734085083,0,0,28.437095642089844,1,1,1000,1000,3.879281,0,0.0008510906482115
1778627318.2792811,58484930,1,0.0008096697274595,0.0008218140574172,0.0008737468160688,0.0003712548932526,-0.0001895084569696,-9.818918228149414,0,0,28.437095642089844,1,1,760,800,3.879281,0,0.0008737468160688
1778627318.3192651,58524914,0,0.0008883529226295,0.0008058256935328,0.0007443739450536,-0.0004366086213849,-0.0004798538866452,-9.81733226776123,0,0,28.439302444458008,1,1,1000,1000,3.919265,0,0.0007443739450536
1778627318.3192651,58524914,1,0.0008637271821498,0.0007921067299321,0.0009067095234058,-0.0001699348649708,-0.0021608411334455,-9.818562507629396,0,0,28.439302444458008,1,1,760,800,3.919265,0,0.0009067095234058
1778627318.359249,58564898,0,0.0008828355930745,0.0007316332194022,0.0008023949339985,0.0001328424405073,-0.001695271814242,-9.817586898803713,0,0,28.44150924682617,1,1,1000,1000,3.959249,0,0.0008023949339985
1778627318.359249,58564898,1,0.0011578418780118,0.0009949574014171,0.0008343781228177,-0.0034267578739672,-0.0034009048249572,-9.817522048950195,0,0,28.44150924682617,1,1,760,800,3.959249,0,0.0008343781228177
1778627318.399233,58604882,0,0.0008965827291831,0.0007189933094196,0.0008493014611303,-0.0001983031106647,-0.0008498977986164,-9.81689453125,0,0,28.44371795654297,1,1,1000,1000,3.999233,0,0.0008493014611303
1778627318.399233,58604882,1,0.0005555868847295,0.0009178302716463,0.0008545311866328,-0.0011498611420392,0.0006563815986737,-9.81671905517578,0,0,28.44371795654297,1,1,760,800,3.999233,0,0.0008545311866328
1778627318.439217,58644866,0,0.0007804479100741,0.0007620441028848,0.0007970742881298,-0.0013367284554988,-0.0001329775841441,-9.817447662353516,0,0,28.44592666625977,1,1,1000,1000,4.039217,0,0.0007970742881298
1778627318.439217,58644866,1,0.0007160024833865,0.0005391666200011,0.0008181818993762,0.0003828750632237,-0.0022007031366229,-9.818726539611816,0,0,28.44592666625977,1,1,760,800,4.039217,0,0.0008181818993762
1778627318.479201,58684850,0,0.0007875657174736,0.0008121053688228,0.0007431627018377,-0.002386552747339,-0.0007163220434449,-9.817184448242188,0,0,28.448131561279297,1,1,1000,1000,4.079201,0,0.0007431627018377
1778627318.479201,58684850,1,0.0005340003990568,0.0004847369855269,0.0007135621272027,0.0002066635643132,-0.0018135677091777,-9.81705379486084,0,0,28.448131561279297,1,1,760,800,4.079201,0,0.0007135621272027
1778627318.519185,58724834,0,0.0008653876720927,0.0008356880862265,0.0008461390389129,-0.0008557351538911,-0.0012057127896696,-9.818402290344238,0,0,28.45033836364746,1,1,1000,1000,4.119185,0,0.0008461390389129
1778627318.519185,58724834,1,0.0008186046034097,0.0006265311967581,0.0007429920369759,-0.001942231087014,-0.0002875048085115,-9.81764793395996,0,0,28.45033836364746,1,1,760,800,4.119185,0,0.0007429920369759
1778627318.560002,58765651,0,0.0008093737997114,0.0008123769075609,0.0008534163935109,-0.001476660836488,-0.0016471080016344,-9.816940307617188,0,0,28.45260238647461,1,1,1000,1000,4.160002,0,0.0008534163935109
1778627318.560002,58765651,1,0.0008779539493843,0.0009203611989505,0.0009347090381197,-0.0001155883437604,-0.001543671824038,-9.8163423538208,0,0,28.45260238647461,1,1,760,800,4.160002,0,0.0009347090381197
1778627318.599986,58805635,0,0.0007958139758557,0.0008490771870128,0.0008658215519972,-0.0010341699235141,-0.0005340280476957,-9.817754745483398,0,0,28.45480728149414,1,1,1000,1000,4.199986,0,0.0008658215519972
1778627318.599986,58805635,1,0.0006764329737052,0.0008653822587803,0.0010332686360925,-0.0021394225768744,-0.0020514926873147,-9.81649684906006,0,0,28.45480728149414,1,1,760,800,4.199986,0,0.0010332686360925
1778627318.63997,58845619,0,0.0007931606378406,0.0008281980408355,0.0007970773149281,-0.0008343742229044,-0.0006818004185333,-9.81764030456543,0,0,28.457014083862305,1,1,1000,1000,4.23997,0,0.0007970773149281
1778627318.63997,58845619,1,0.0008712003473192,0.000602321291808,0.0010081887012347,-0.0005449579330161,-0.0001408771495334,-9.812179565429688,0,0,28.457014083862305,1,1,760,800,4.23997,0,0.0010081887012347
1778627318.679954,58885603,0,0.0008166275219991,0.0008840531227178,0.000863300578203,-0.001185497501865,-0.0001657498069107,-9.81649398803711,0,0,28.45921897888184,1,1,1000,1000,4.279954,0,0.000863300578203
1778627318.679954,58885603,1,0.0006212340667843,0.0008756460738368,0.0007294785464182,-0.0001000332122202,-0.0013357133138924,-9.816448211669922,0,0,28.45921897888184,1,1,760,800,4.279954,0,0.0007294785464182
1778627318.719938,58925587,0,0.0008108919137157,0.000781285110861,0.0008631814271211,-0.0009738956578075,-0.0009188640397042,-9.817306518554688,0,0,28.461423873901367,1,1,1000,1000,4.319938,0,0.0008631814271211
1778627318.719938,58925587,1,0.00104105041828,0.0007305584149435,0.0008377109188586,0.000931944407057,-0.0019373559625819,-9.814109802246094,0,0,28.461423873901367,1,1,760,800,4.319938,0,0.0008377109188586
1778627318.759922,58965571,0,0.0008183340542018,0.0008581303991377,0.0008637128048576,-0.0009046223713085,-0.0003627440310083,-9.817034721374512,0,0,28.4636287689209,1,1,1000,1000,4.359922,0,0.0008637128048576
1778627318.759922,58965571,1,0.0008976501412689,0.0008792240987531,0.0007943691452965,-0.0017403272213414,-0.0014893047045916,-9.820246696472168,0,0,28.4636287689209,1,1,760,800,4.359922,0,0.0007943691452965
1778627318.799906,59005555,0,0.0008171626250259,0.0008052831981331,0.0008606609189882,-0.0005251042312011,-0.0003295775386504,-9.817512512207031,0,0,28.46583366394043,1,1,1000,1000,4.399906,0,0.0008606609189882
1778627318.799906,59005555,1,0.0010293116793036,0.0008018825901672,0.0007631024345755,-0.0002293497382197,-0.0024881232529878,-9.817273139953612,0,0,28.46583366394043,1,1,760,800,4.399906,0,0.0007631024345755
1778627318.83989,59045539,0,0.000742976902984,0.0008430377347394,0.0007579935481771,-0.0016301344148814,-0.0019102292135357,-9.817384719848633,0,0,28.46803855895996,1,1,1000,1000,4.43989,0,0.0007579935481771
1778627318.83989,59045539,1,0.0009711575694382,0.0008964876178652,0.0009158335160464,0.0013287446927279,-0.0004291018121875,-9.818881034851074,0,0,28.46803855895996,1,1,760,800,4.43989,0,0.0009158335160464
1778627318.879874,59085523,0,0.0008704360225237,0.0008958826656453,0.0008621283341199,-0.0008441359386779,-0.0024401985574513,-9.81752586364746,0,0,28.47024154663086,1,1,1000,1000,4.479874,0,0.0008621283341199
1778627318.879874,59085523,1,0.0007557341596111,0.0010136859491467,0.0007990110316313,-0.0019419958116486,-0.0005254415445961,-9.816558837890623,0,0,28.47024154663086,1,1,760,800,4.479874,0,0.0007990110316313
1778627318.9198582,59125507,0,0.0008727958193048,0.0007957156049087,0.0007821211474947,-0.0013321106089279,-0.0005140684079378,-9.816182136535645,0,0,28.47244644165039,1,1,1000,1000,4.519858,0,0.0007821211474947
1778627318.9198582,59125507,1,0.0008430955349467,0.0008742142817936,0.000969337648712,-0.0021631007548421,-0.0011074708309024,-9.81863021850586,0,0,28.47244644165039,1,1,760,800,4.519858,0,0.000969337648712
1778627318.9598422,59165491,0,0.0008881635149009,0.0007590059540234,0.0008508558385074,-0.0028487667441368,-0.0006073318654671,-9.817726135253906,0,0,28.47464942932129,1,1,1000,1000,4.559842,0,0.0008508558385074
1778627318.9598422,59165491,1,0.0008330337004736,0.0006112762494012,0.0005746351671405,-0.0037981097120791,-0.0017121472628787,-9.81692123413086,0,0,28.47464942932129,1,1,760,800,4.559842,0,0.0005746351671405
1778627318.999826,59205475,0,0.0007765094051137,0.0008879006491042,0.0008343841182067,-0.0007990674930624,-0.0010571859311312,-9.817761421203612,0,0,28.476852416992188,1,1,1000,1000,4.599826,0,0.0008343841182067
1778627318.999826,59205475,1,0.0005991258658468,0.0007462576613761,0.0007213616045191,-0.0031051950063556,0.0001871135900728,-9.81753158569336,0,0,28.47679710388184,1,1,760,800,4.599826,0,0.0007213616045191
1778627319.03981,59245459,0,0.0008632591343484,0.0008296488085761,0.0008827134734019,-0.0011921767145395,0.0006148261018097,-9.816973686218262,0,0,28.47905540466309,1,1,1000,1000,4.63981,0,0.0008827134734019
1778627319.03981,59245459,1,0.0008782256627455,0.0007979222573339,0.0007818292360752,-0.0011631111847236,0.002870409283787,-9.81717586517334,0,0,28.47900009155273,1,1,760,800,4.63981,0,0.0007818292360752
1778627319.079794,59285443,0,0.0008068074239417,0.0007718653068877,0.0008208652143366,-0.0008541665156371,-0.0016189189627766,-9.817411422729492,0,0,28.481258392333984,1,1,1000,1000,4.679794,0,0.0008208652143366
1778627319.079794,59285443,1,0.0008956128731369,0.00074562150985,0.0007651977939531,-0.002141810953617,0.0012181894853711,-9.816944122314451,0,0,28.481203079223636,1,1,760,800,4.679794,0,0.0007651977939531
1778627319.119778,59325427,0,0.0008179430733434,0.0007319893920794,0.000816760584712,-0.0002616657875478,0.0001775556738721,-9.818373680114746,0,0,28.483461380004883,1,1,1000,1000,4.719778,0,0.000816760584712
1778627319.119778,59325427,1,0.0007838804740458,0.0005606364575214,0.0009849349735304,-0.0023252388928085,-0.0018157231388613,-9.81698226928711,0,0,28.48340606689453,1,1,760,800,4.719778,0,0.0009849349735304
1778627319.159762,59365411,0,0.0008327127434313,0.0008536666864529,0.0008167645428329,-0.0005989141063764,-0.0005015072529204,-9.818166732788086,0,0,28.48566246032715,1,1,1000,1000,4.759762,0,0.0008167645428329
1778627319.159762,59365411,1,0.0008269096724689,0.0009589925175532,0.0009529251838102,-0.0022883252240717,-0.0015471598599106,-9.81944179534912,0,0,28.4856071472168,1,1,760,800,4.759762,0,0.0009529251838102
1778627319.199746,59405395,0,0.0007895181188359,0.0007679177215322,0.0008289171964861,-0.0011789316777139,-0.001418633153662,-9.817734718322754,0,0,28.487865447998047,1,1,1000,1000,4.799746,0,0.0008289171964861
1778627319.199746,59405395,1,0.0008026750292629,0.000931845861487,0.0007771665696054,-0.0028247924055904,-0.0005574218230322,-9.81683349609375,0,0,28.48781013488769,1,1,760,800,4.799746,0,0.0007771665696054
1778627319.23973,59445379,0,0.0008812876185402,0.0008787387050688,0.0007915119640529,-0.0004490199207793,-0.0004410909023135,-9.817447662353516,0,0,28.49006462097168,1,1,1000,1000,4.83973,0,0.0007915119640529
1778627319.23973,59445379,1,0.0009124373318627,0.0008307592361234,0.0009642166551202,0.0007586705032736,0.000410984706832,-9.816680908203123,0,0,28.49001121520996,1,1,760,800,4.83973,0,0.0009642166551202
1778627319.279714,59485363,0,0.0008245825883932,0.0009327360312454,0.0008097635582089,-0.0004208642349112,-0.0010555131593719,-9.817283630371094,0,0,28.492267608642575,1,1,1000,1000,4.879714,0,0.0008097635582089
1778627319.279714,59485363,1,0.0007965029217302,0.0008579684072174,0.0009179351036436,-0.0023818146437406,-0.0010536722838878,-9.816530227661133,0,0,28.492212295532227,1,1,760,800,4.879714,0,0.0009179351036436
1778627319.319698,59525347,0,0.0009040627046488,0.0008314314181916,0.0009302472462877,-0.0004189188184682,-0.0007547982968389,-9.816821098327637,0,0,28.494468688964844,1,1,1000,1000,4.919698,0,0.0009302472462877
1778627319.319698,59525347,1,0.0007187722949311,0.0008682908955961,0.0008723774226382,-0.0005632602260448,0.0018757623620331,-9.816962242126465,0,0,28.49441337585449,1,1,760,800,4.919698,0,0.0008723774226382
1778627319.359682,59565331,0,0.0007745657349005,0.0008764344966039,0.000877882936038,-0.0014722821069881,-0.0011582114966586,-9.818156242370604,0,0,28.49666786193848,1,1,1000,1000,4.959682,0,0.000877882936038
1778627319.359682,59565331,1,0.00073313631583,0.0009025229373946,0.0008130143978632,-0.0018505733460187,-0.0003404780873097,-9.81648063659668,0,0,28.496612548828125,1,1,760,800,4.959682,0,0.0008130143978632
1778627319.399666,59605315,0,0.0008255206630565,0.0008282177150249,0.0008657707367092,-0.0015720383962616,0.0004323426110204,-9.817619323730469,0,0,28.498868942260746,1,1,1000,1000,4.999666,0,0.0008657707367092
1778627319.399666,59605315,1,0.0004718356940429,0.0006651563453488,0.0008873330662027,0.0014498878736048,0.0003762523119803,-9.818167686462402,0,0,28.49881362915039,1,1,760,800,4.999666,0,0.0008873330662027
1778627319.43965,59645299,0,0.0008664192864671,0.0008202285971492,0.0008425506530329,-0.0013139051152393,-0.0008009411394596,-9.817298889160156,0,0,28.501070022583008,1,1,1000,1000,5.03965,0,0.0008425506530329
1778627319.43965,59645299,1,0.0009305650601163,0.0008657807484269,0.0009217211627401,-0.0036441329866647,-0.0010828655213117,-9.818639755249023,0,0,28.501012802124023,1,1,760,800,5.03965,0,0.0009217211627401
1778627319.479634,59685283,0,0.0008651987882331,0.0007598934462293,0.0007771853706799,-0.0007125828415155,-0.0006778652896173,-9.817965507507324,0,0,28.50326919555664,1,1,1000,1000,5.079634,0,0.0007771853706799
1778627319.479634,59685283,1,0.0009556857985444,0.0010518466588109,0.0006924921763129,-0.0035437957849353,-0.0013478160835802,-9.815658569335938,0,0,28.50321388244629,1,1,760,800,5.079634,0,0.0006924921763129
1778627319.519618,59725267,0,0.0008678098092786,0.0008075557998381,0.0008636290440335,-0.0001460607891203,-0.0006549681420437,-9.817878723144531,0,0,28.505468368530277,1,1,1000,1000,5.119618,0,0.0008636290440335
1778627319.519618,59725267,1,0.0007534754113294,0.0010596627835184,0.0009259568178094,-0.0001857245515566,0.0006267788121476,-9.81614112854004,0,0,28.50541305541992,1,1,760,800,5.119618,0,0.0009259568178094
1778627319.559602,59765251,0,0.0008059063111431,0.0009148949757218,0.000885595625732,-0.0016925241798162,-0.0015671378932893,-9.81640911102295,0,0,28.507667541503903,1,1,1000,1000,5.159602,0,0.000885595625732
1778627319.559602,59765251,1,0.0008460363605991,0.0007383353076875,0.0009596642339602,-0.000887956644874,-0.0018444819143041,-9.817466735839844,0,0,28.507612228393555,1,1,760,800,5.159602,0,0.0009596642339602
1778627319.599586,59805235,0,0.0008736595627851,0.0007933917222544,0.0007794412085786,-0.0015454590320587,-0.0003059052978642,-9.81643772125244,0,0,28.50986671447754,1,1,1000,1000,5.199586,0,0.0007794412085786
1778627319.599586,59805235,1,0.0007644932484254,0.0010036090388894,0.0010122878011316,-0.0006035681581124,-0.0013804039917886,-9.817052841186523,0,0,28.509811401367188,1,1,760,800,5.199586,0,0.0010122878011316
1778627319.63957,59845219,0,0.0008375839679501,0.0008657211437821,0.0008040039101615,-0.0011360074859112,-0.0007080809446051,-9.81820011138916,0,0,28.512008666992188,1,1,1000,1000,5.23957,0,0.0008040039101615
1778627319.63957,59845219,1,0.0007841574843041,0.0007217096281237,0.0008173758396878,0.0018371504265815,-0.0002679133322089,-9.818277359008787,0,0,28.512008666992188,1,1,760,800,5.23957,0,0.0008173758396878
1778627319.679554,59885203,0,0.0008031885372474,0.0008085822337307,0.0008266518707387,-0.0006718669901601,-0.0009960836032405,-9.816848754882812,0,0,28.51420783996582,1,1,1000,1000,5.279554,0,0.0008266518707387
1778627319.679554,59885203,1,0.000683314865455,0.0009087734506465,0.0010815251152962,-0.0013284580782055,0.0005236986326053,-9.817645072937012,0,0,28.51420783996582,1,1,760,800,5.279554,0,0.0010815251152962
1778627319.7195382,59925187,0,0.0008229672093875,0.00083201052621,0.0007755739497952,-0.0015819675754755,-0.0013553390745073,-9.817927360534668,0,0,28.51640510559082,1,1,1000,1000,5.319538,0,0.0007755739497952
1778627319.7195382,59925187,1,0.0007242360152304,0.0007617904921062,0.000834914506413,0.0005660774186253,-0.0015936506679281,-9.817453384399414,0,0,28.51640510559082,1,1,760,800,5.319538,0,0.000834914506413
1778627319.7595222,59965171,0,0.0009176979074254,0.0008414055919274,0.0008315853774547,-0.0005500162369571,-0.000997501425445,-9.817404747009276,0,0,28.518604278564453,1,1,1000,1000,5.359522,0,0.0008315853774547
1778627319.7595222,59965171,1,0.0008065904839895,0.0008801046060398,0.000841159839183,-0.0029203165322542,-0.0026798730250447,-9.81471061706543,0,0,28.518604278564453,1,1,760,800,5.359522,0,0.000841159839183
1778627319.799506,60005155,0,0.0008904721471481,0.00082307663979,0.0008597510750405,-0.0015705678379163,-0.0014538583345711,-9.816946029663086,0,0,28.520801544189453,1,1,1000,1000,5.399506,0,0.0008597510750405
1778627319.799506,60005155,1,0.0008754459558986,0.0006504788761958,0.0008159364806488,-0.0006043572211638,-0.0014385480899363,-9.817030906677246,0,0,28.520801544189453,1,1,760,800,5.399506,0,0.0008159364806488
1778627319.83949,60045139,0,0.0007591105531901,0.0008359503117389,0.0008231350802816,-0.0010056600440293,-0.001663725124672,-9.816923141479492,0,0,28.522998809814453,1,1,1000,1000,5.43949,0,0.0008231350802816
1778627319.83949,60045139,1,0.0009828526526689,0.0011765896342694,0.001141054672189,-0.0015991928521543,-0.0010387754300609,-9.816621780395508,0,0,28.522998809814453,1,1,760,800,5.43949,0,0.001141054672189
1778627319.879474,60085123,0,0.0008203196339309,0.0009104468626901,0.0008970805210992,-0.0014772134600207,-0.0014360153581947,-9.81706428527832,0,0,28.525196075439453,1,1,1000,1000,5.479474,0,0.0008970805210992
1778627319.879474,60085123,1,0.0008030327153392,0.0007266922038979,0.0008839303045533,0.0001002680000965,-0.0011879536323249,-9.818243980407717,0,0,28.525196075439453,1,1,760,800,5.479474,0,0.0008839303045533
1778627319.919458,60125107,0,0.0008604091126471,0.0008692535338923,0.0008658411097712,-0.0014987315516918,-0.0008248045342043,-9.81658172607422,0,0,28.52739143371582,1,1,1000,1000,5.519458,0,0.0008658411097712
1778627319.919458,60125107,1,0.0009017084375955,0.0008707248489372,0.0007570999441668,0.0012069063959643,-0.0002792741579469,-9.821176528930664,0,0,28.52739143371582,1,1,760,800,5.519458,0,0.0007570999441668
1778627319.959442,60165091,0,0.0008425841806456,0.0007559146615676,0.0008774156449362,-0.001774204429239,-0.001256903167814,-9.817338943481444,0,0,28.529586791992188,1,1,1000,1000,5.559442,0,0.0008774156449362
1778627319.959442,60165091,1,0.0008286595111712,0.0008547519682906,0.0006938509177416,-0.0016891633858904,-0.0022601375821977,-9.816854476928713,0,0,28.529586791992188,1,1,760,800,5.559442,0,0.0006938509177416
1778627319.999426,60205075,0,0.0008863398688845,0.0009014679817482,0.000817320367787,-0.0013445619260892,-0.0012152858544141,-9.817527770996094,0,0,28.531782150268555,1,1,1000,1000,5.599426,0,0.000817320367787
1778627319.999426,60205075,1,0.0007831533439457,0.0008500465773977,0.0007440678891725,0.0023054941557347,0.0003504766791593,-9.818565368652344,0,0,28.531782150268555,1,1,760,800,5.599426,0,0.0007440678891725
1778627320.03941,60245059,0,0.0008364913519471,0.0008504814468324,0.0008973034564405,-0.0010783930774778,-0.0011643155012279,-9.817550659179688,0,0,28.534032821655277,1,1,1000,1000,5.63941,0,0.0008973034564405
1778627320.03941,60245059,1,0.00078905565897,0.0008115182863548,0.0007721100701019,-0.0010581745300441,0.0011400480289012,-9.818674087524414,0,0,28.534032821655277,1,1,760,800,5.63941,0,0.0007721100701019
1778627320.079394,60285043,0,0.0008487568120472,0.0008932638447731,0.0008312041172757,-0.0006355351652018,-0.0012077522696927,-9.818086624145508,0,0,28.53622817993164,1,1,1000,1000,5.679394,0,0.0008312041172757
1778627320.079394,60285043,1,0.0008429595036432,0.000639556266833,0.0008275305735878,-0.0010341659653931,-0.0005186349153518,-9.818511962890623,0,0,28.53622817993164,1,1,760,800,5.679394,0,0.0008275305735878
