timestamp,TimeUS,I,GyrX,GyrY,GyrZ,AccX,AccY,AccZ,EG,EA,T,GH,AH,GHz,AHz,TimeSec,AttackActive_IMU,GyrZ_attacked
1778785729.8992069,71084055,0,0.0010090712457895,0.0009509260999038,0.0010454015573486,-0.0012046624906361,-0.0013208541786298,-9.81886863708496,0,0,29.11833000183105,1,1,1000,1000,0.0,0,0.0010454015573486
1778785729.8992069,71084055,1,0.000778644985985,0.000882978667505,0.0011144919553771,-0.0010682875290513,-0.0012053588870912,-9.818501472473145,0,0,29.11827850341797,1,1,760,800,0.0,0,0.0011144919553771
1778785729.9391909,71124039,0,0.0010471893474459,0.0009929533116519,0.0009903905447572,-0.0013434009160846,-0.0002280321641592,-9.818078994750977,0,0,29.12044715881348,1,1,1000,1000,0.039984,0,0.0009903905447572
1778785729.9391909,71124039,1,0.0012745297281071,0.0010745726758614,0.0011561547871679,-0.0006269369041547,-0.0025167153216898,-9.815818786621094,0,0,29.12039375305176,1,1,760,800,0.039984,0,0.0011561547871679
1778785729.9791749,71164023,0,0.0010656882077455,0.0010040536290034,0.0009873957606032,-0.0017343164654448,-0.0012900936417281,-9.818352699279783,0,0,29.1225643157959,1,1,1000,1000,0.079968,0,0.0009873957606032
1778785729.9791749,71164023,1,0.0011783709051087,0.0011337511241436,0.0012374861398711,-0.0023283965419977,0.0003197448677383,-9.817682266235352,0,0,29.12251091003418,1,1,760,800,0.079968,0,0.0012374861398711
1778785730.0199919,71204840,0,0.0010453348513692,0.0009954946581274,0.001019618823193,-0.0011159324785694,-0.0003070007078349,-9.816993713378906,0,0,29.12468147277832,1,1,1000,1000,0.120785,0,0.001019618823193
1778785730.0199919,71204840,1,0.0007887027459219,0.0008882888359948,0.0011911893961951,0.002444181125611,-0.0006555998697876,-9.816713333129885,0,0,29.12468147277832,1,1,760,800,0.120785,0,0.0011911893961951
1778785730.0599759,71244824,0,0.0010513811139389,0.0010844056960195,0.0009857125114649,-0.0022637287620455,-0.0004593065823428,-9.816749572753906,0,0,29.12679672241211,1,1,1000,1000,0.160769,0,0.0009857125114649
1778785730.0599759,71244824,1,0.0009741971152834,0.0010941168293356,0.0009154576109722,-0.0024165962822735,-0.0019437584560364,-9.816041946411133,0,0,29.12679672241211,1,1,760,800,0.160769,0,0.0009154576109722
1778785730.0999599,71284808,0,0.0009896688861772,0.000950246816501,0.0010239639086648,-0.0022692398633807,-0.0021139131858944,-9.818608283996582,0,0,29.12891387939453,1,1,1000,1000,0.200753,0,0.0010239639086648
1778785730.0999599,71284808,1,0.0010639645624905,0.0010350898373872,0.0010123817482963,-0.0008606815827079,0.0002175698755308,-9.81680965423584,0,0,29.12891387939453,1,1,760,800,0.200753,0,0.0010123817482963
1778785730.1399438,71324792,0,0.0009874097304418,0.0010088888229802,0.0009932621615007,-0.0009257699130102,-0.0002645609492901,-9.816102981567385,0,0,29.131031036376957,1,1,1000,1000,0.240737,0,0.0009932621615007
1778785730.1399438,71324792,1,0.0010217365343123,0.0009846973698586,0.0010411444818601,-0.0025098929181694,-0.0016760777216404,-9.816109657287598,0,0,29.131031036376957,1,1,760,800,0.240737,0,0.0010411444818601
1778785730.1799278,71364776,0,0.0010058309417217,0.0010431540431454,0.0010039204498752,-0.0011588000925257,-0.0007655640365555,-9.81706428527832,0,0,29.133146286010746,1,1,1000,1000,0.280721,0,0.0010039204498752
1778785730.1799278,71364776,1,0.0009248058777302,0.0010235669324174,0.0010049936827272,-0.0026020121295005,-0.0007754341932013,-9.815725326538086,0,0,29.133146286010746,1,1,760,800,0.280721,0,0.0010049936827272
1778785730.2199118,71404760,0,0.0010668328031897,0.0010426617227494,0.0009773997589945,-0.0012350397882983,-0.0002564967726357,-9.816308975219728,0,0,29.13526153564453,1,1,1000,1000,0.320705,0,0.0009773997589945
1778785730.2199118,71404760,1,0.0008805012330412,0.0008975389646366,0.0008825003169476,-7.183891284512356e-05,-0.0013846503570675,-9.818187713623049,0,0,29.13526153564453,1,1,760,800,0.320705,0,0.0008825003169476
1778785730.259896,71444744,0,0.0009971170220524,0.0010079307248815,0.0009948688093572,-0.0016825690399855,-0.0004523991956375,-9.817102432250977,0,0,29.13737678527832,1,1,1000,1000,0.360689,0,0.0009948688093572
1778785730.259896,71444744,1,0.0007535484619438,0.0008849838050082,0.0013671871274709,-0.002210256177932,0.0010081033688038,-9.81946086883545,0,0,29.13737678527832,1,1,760,800,0.360689,0,0.0013671871274709
1778785730.29988,71484728,0,0.0009484565234743,0.0009517223807051,0.0009641959914006,-0.0009006334003061,-0.0004361647297628,-9.818422317504885,0,0,29.13949203491211,1,1,1000,1000,0.400673,0,0.0009641959914006
1778785730.29988,71484728,1,0.0009563901112414,0.0009896531701087,0.0009405673481523,4.278754204278812e-05,-0.0005251223919913,-9.818140983581545,0,0,29.13949203491211,1,1,760,800,0.400673,0,0.0009405673481523
1778785730.339864,71524712,0,0.0010416728910058,0.0009987723315134,0.0010444866493344,-0.000937350501772,-0.0004918727790936,-9.816542625427246,0,0,29.141605377197266,1,1,1000,1000,0.440657,0,0.0010444866493344
1778785730.339864,71524712,1,0.0008211858803406,0.0008781144279055,0.0009457950945943,-0.0018141911132261,-0.0012689979048445,-9.82095718383789,0,0,29.141605377197266,1,1,760,800,0.440657,0,0.0009457950945943
1778785730.379848,71564696,0,0.0009301770478487,0.0010155488271266,0.0011071464978158,-0.0006532419356517,-0.0003910770756192,-9.817618370056152,0,0,29.14372062683105,1,1,1000,1000,0.480641,0,0.0011071464978158
1778785730.379848,71564696,1,0.0009791085030883,0.0009173818398267,0.0010070216376334,-0.0009034790564328,-0.0038988168817013,-9.818017959594728,0,0,29.14372062683105,1,1,760,800,0.480641,0,0.0010070216376334
1778785730.419832,71604680,0,0.0010093817254528,0.0009678039932623,0.0009991666302084,-0.0013529709540307,-0.0008162150043062,-9.817392349243164,0,0,29.14583396911621,1,1,1000,1000,0.520625,0,0.0009991666302084
1778785730.419832,71604680,1,0.0008807111298665,0.0008810863364487,0.001132040284574,-0.0026232269592583,-0.0011382387019693,-9.817253112792969,0,0,29.14583396911621,1,1,760,800,0.520625,0,0.001132040284574
1778785730.459816,71644664,0,0.0010033239377662,0.001049903454259,0.0010729702189564,-0.0005531618953682,-0.0012967870570719,-9.817606925964355,0,0,29.14794921875,1,1,1000,1000,0.560609,0,0.0010729702189564
1778785730.459816,71644664,1,0.0009982358897104,0.0011206886265426,0.0009881041478365,-0.0002441690594423,-0.0033460999839007,-9.820394515991213,0,0,29.14794921875,1,1,760,800,0.560609,0,0.0009881041478365
1778785730.4998,71684648,0,0.0010090086143463,0.0009399205446243,0.0009876283584162,-0.0006561866612173,-0.0017057966906577,-9.818910598754885,0,0,29.15006256103516,1,1,1000,1000,0.600593,0,0.0009876283584162
1778785730.4998,71684648,1,0.0009693230967968,0.0010574404150247,0.0008330940036103,-0.0037757540121674,0.0006949998787604,-9.816906929016112,0,0,29.15006256103516,1,1,760,800,0.600593,0,0.0008330940036103
1778785730.539784,71724632,0,0.0010611183242872,0.0011057128431275,0.001012269873172,0.0001273943635169,-0.0009775222279131,-9.816672325134276,0,0,29.152175903320312,1,1,1000,1000,0.640577,0,0.001012269873172
1778785730.539784,71724632,1,0.000816568150185,0.0010263957083225,0.0012959167361259,-0.0015446873148903,-0.0011383213568478,-9.817630767822266,0,0,29.152175903320312,1,1,760,800,0.640577,0,0.0012959167361259
1778785730.579768,71764616,0,0.0008866262505762,0.0009594367584213,0.0010458412580192,-0.002168915932998,-0.0009721817914396,-9.817861557006836,0,0,29.15428733825684,1,1,1000,1000,0.680561,0,0.0010458412580192
1778785730.579768,71764616,1,0.0010960050858557,0.0010739200515672,0.0010160863166674,-0.0023038641083985,-0.0014306813245639,-9.818792343139648,0,0,29.15428733825684,1,1,760,800,0.680561,0,0.0010160863166674
1778785730.619752,71804600,0,0.0010104663670063,0.0009891202207654,0.0010039056651294,-0.0021535158157348,-0.0001990832970477,-9.817282676696776,0,0,29.156400680541992,1,1,1000,1000,0.720545,0,0.0010039056651294
1778785730.619752,71804600,1,0.0007885413942858,0.0011131990468129,0.0010673715732991,-0.0012889985227957,-0.0007095073233358,-9.817169189453123,0,0,29.156400680541992,1,1,760,800,0.720545,0,0.0010673715732991
1778785730.659736,71844584,0,0.0010182941332459,0.0010250979103147,0.0010701577411964,-0.0009023420279845,0.0003853339876513,-9.81796646118164,0,0,29.15851211547852,1,1,1000,1000,0.760529,0,0.0010701577411964
1778785730.659736,71844584,1,0.0008713335264474,0.0009682544623501,0.000983327277936,-0.0023265182971954,-0.001661735586822,-9.817458152770996,0,0,29.15851211547852,1,1,760,800,0.760529,0,0.000983327277936
1778785730.69972,71884568,0,0.001057626795955,0.0009770522592589,0.0009925013873726,-0.0023724765051156,-0.0016900689806789,-9.816301345825195,0,0,29.160625457763672,1,1,1000,1000,0.800513,0,0.0009925013873726
1778785730.69972,71884568,1,0.000945670180954,0.0011582493316382,0.001192046678625,-0.0002013601188082,-0.0021962039172649,-9.817245483398438,0,0,29.160625457763672,1,1,760,800,0.800513,0,0.001192046678625
1778785730.739704,71924552,0,0.0010237933602184,0.0010617051739245,0.0010053213918581,-0.0005750731215812,-0.0015896779950708,-9.816997528076172,0,0,29.162736892700195,1,1,1000,1000,0.840497,0,0.0010053213918581
1778785730.739704,71924552,1,0.0010371441021561,0.0009223268134519,0.0009261587983928,-0.001382443588227,0.0001406222581863,-9.81746768951416,0,0,29.162736892700195,1,1,760,800,0.840497,0,0.0009261587983928
1778785730.779688,71964536,0,0.001027516555041,0.0010086323600262,0.0009871067013591,7.009296678006649e-05,-0.000519192428328,-9.818275451660156,0,0,29.16484832763672,1,1,1000,1000,0.880481,0,0.0009871067013591
1778785730.779688,71964536,1,0.0011622866149991,0.0010624508140608,0.0009919994045048,-0.0004889711271971,-0.0037212851457297,-9.81640338897705,0,0,29.16484832763672,1,1,760,800,0.880481,0,0.0009919994045048
1778785730.8196719,72004520,0,0.0010761646553874,0.0010147554567083,0.0010089094284921,-0.0002223410847363,-0.0004777158028446,-9.816996574401855,0,0,29.16695976257324,1,1,1000,1000,0.920465,0,0.0010089094284921
1778785730.8196719,72004520,1,0.0009661127696745,0.0009597592870704,0.0011503847781568,-0.0020401391666382,-0.0008759789634495,-9.81574821472168,0,0,29.16695976257324,1,1,760,800,0.920465,0,0.0011503847781568
1778785730.8596559,72044504,0,0.001056840759702,0.0010026306845247,0.0009668667335063,-0.0009067313512787,-0.0003798810357693,-9.818435668945312,0,0,29.16907119750977,1,1,1000,1000,0.960449,0,0.0009668667335063
1778785730.8596559,72044504,1,0.0010347553761675,0.0009731731843203,0.0011360875796526,-0.0013807751238346,-0.0028888152446597,-9.815546035766602,0,0,29.16907119750977,1,1,760,800,0.960449,0,0.0011360875796526
1778785730.8996398,72084488,0,0.0010389504022896,0.0010063850786536,0.0009805778972804,-5.8180656196782365e-05,-0.0004124859697185,-9.81833267211914,0,0,29.171180725097656,1,1,1000,1000,1.000433,0,0.0009805778972804
1778785730.8996398,72084488,1,0.0008711822447367,0.0010283663868904,0.0012337147491052,-0.0005410516750998,-0.0013195583596825,-9.818567276000977,0,0,29.171180725097656,1,1,760,800,1.000433,0,0.0012337147491052
1778785730.9396238,72124472,0,0.0009963456541299,0.0009932182729244,0.0010277178371325,-0.0009127446683123,-0.0010512153385207,-9.818178176879885,0,0,29.17329216003418,1,1,1000,1000,1.040417,0,0.0010277178371325
1778785730.9396238,72124472,1,0.0012480339501053,0.0009131660917773,0.0011851206654682,-0.0003544241772033,-0.0008110353373922,-9.817779541015623,0,0,29.17329216003418,1,1,760,800,1.040417,0,0.0011851206654682
1778785730.9796078,72164456,0,0.0010565733537077,0.0010517181362956,0.0010128567228093,-0.0018420343985781,-0.0001674995583016,-9.818565368652344,0,0,29.17540168762207,1,1,1000,1000,1.080401,0,0.0010128567228093
1778785730.9796078,72164456,1,0.0011189458891749,0.0010148793226107,0.0009999184403568,-0.0010280376300215,-0.0032335533760488,-9.81492805480957,0,0,29.17540168762207,1,1,760,800,1.080401,0,0.0009999184403568
1778785731.019592,72204440,0,0.0010455331066623,0.0010236361995339,0.0010845789220184,-0.0011259402381256,-0.001860779011622,-9.816255569458008,0,0,29.17751121520996,1,1,1000,1000,1.120385,0,0.0010845789220184
1778785731.019592,72204440,1,0.0007159874076023,0.0009368857135996,0.0010741270380094,-0.0001329744409304,-0.0029375804588198,-9.81820583343506,0,0,29.17751121520996,1,1,760,800,1.120385,0,0.0010741270380094
1778785731.059576,72244424,0,0.0010807779617607,0.0010019526816904,0.0009131322149187,-0.0003155797894578,-0.001770723843947,-9.816570281982422,0,0,29.17962074279785,1,1,1000,1000,1.160369,0,0.0009131322149187
1778785731.059576,72244424,1,0.001164288027212,0.0010140070226043,0.000653272611089,-0.0008784743258729,-0.0009140088804997,-9.816737174987791,0,0,29.17962074279785,1,1,760,800,1.160369,0,0.000653272611089
1778785731.09956,72284408,0,0.0010254803346469,0.0011196811683475,0.0010133974719792,-0.0008376673795282,-0.0004477657785173,-9.81809902191162,0,0,29.18172836303711,1,1,1000,1000,1.200353,0,0.0010133974719792
1778785731.09956,72284408,1,0.0010496017057448,0.0011556835379451,0.0011944085126742,-0.0012395191006362,-0.0015237771440297,-9.818058013916016,0,0,29.18172836303711,1,1,760,800,1.200353,0,0.0011944085126742
1778785731.139544,72324392,0,0.0010729011846706,0.0010432039853185,0.0010827368823811,-0.0026531335897743,-0.0006900517037138,-9.817501068115234,0,0,29.183839797973636,1,1,1000,1000,1.240337,0,0.0010827368823811
1778785731.139544,72324392,1,0.0010912803700193,0.0010903497459366,0.0010168589651584,0.0016368483193218,0.0007729436620138,-9.819509506225586,0,0,29.183839797973636,1,1,760,800,1.240337,0,0.0010168589651584
1778785731.179528,72364376,0,0.0009915137197822,0.0010421125916764,0.0009737773216329,-0.0016495094168931,-0.001862151781097,-9.817293167114258,0,0,29.18594741821289,1,1,1000,1000,1.280321,0,0.0009737773216329
1778785731.179528,72364376,1,0.0013229539617896,0.0011444403789937,0.0008301550988107,-0.0016419549938291,0.0001119113221648,-9.81870460510254,0,0,29.18594741821289,1,1,760,800,1.280321,0,0.0008301550988107
1778785731.219512,72404360,0,0.0009273147443309,0.0010916870087385,0.0010581410024315,-0.0011978681432083,-0.0002301243221154,-9.81747817993164,0,0,29.18805694580078,1,1,1000,1000,1.320305,0,0.0010581410024315
1778785731.219512,72404360,1,0.001092727528885,0.0011063772253692,0.0010052893776446,-0.0011183505412191,-0.0006868915515951,-9.817425727844238,0,0,29.18805694580078,1,1,760,800,1.320305,0,0.0010052893776446
1778785731.259496,72444344,0,0.0010296870023012,0.0010417974554002,0.0010524333920329,-0.0009885958861559,-0.0018299084622412,-9.817736625671388,0,0,29.19016456604004,1,1,1000,1000,1.360289,0,0.0010524333920329
1778785731.259496,72444344,1,0.001131952740252,0.001133166020736,0.001009355764836,-3.326204023323953e-06,-0.0018971469253301,-9.818758964538574,0,0,29.19016456604004,1,1,760,800,1.360289,0,0.001009355764836
1778785731.29948,72484328,0,0.0010124334366992,0.0010604634881019,0.0010059381602331,-0.0010998707730323,-0.0011498685926198,-9.818473815917969,0,0,29.192272186279297,1,1,1000,1000,1.400273,0,0.0010059381602331
1778785731.29948,72484328,1,0.001006540027447,0.0008630768861621,0.0010101988445967,-0.0038689072243869,-0.0019756634719669,-9.815507888793944,0,0,29.192272186279297,1,1,760,800,1.400273,0,0.0010101988445967
1778785731.339464,72524312,0,0.0009670810541138,0.0009944658959284,0.0010108522837981,0.0002840595261659,-0.0007923410157673,-9.816481590270996,0,0,29.194379806518555,1,1,1000,1000,1.440257,0,0.0010108522837981
1778785731.339464,72524312,1,0.0010107497218996,0.0010640906402841,0.001121147419326,3.8280453736661e-05,0.0004988596774637,-9.818472862243652,0,0,29.194379806518555,1,1,760,800,1.440257,0,0.001121147419326
1778785731.379448,72564296,0,0.0010058028856292,0.0009669446735642,0.0010574625339359,-0.0012153818970546,-0.0007903894293121,-9.818330764770508,0,0,29.19648742675781,1,1,1000,1000,1.480241,0,0.0010574625339359
1778785731.379448,72564296,1,0.0009016235126182,0.0009184021037071,0.0008975451346486,0.0019446088699623,-4.104485924472101e-06,-9.818137168884276,0,0,29.19648742675781,1,1,760,800,1.480241,0,0.0008975451346486
1778785731.419432,72604280,0,0.0009423966403119,0.0011284690117463,0.0010858576279133,-0.0006165640079416,-0.0010635324288159,-9.817774772644045,0,0,29.19859313964844,1,1,1000,1000,1.520225,0,0.0010858576279133
1778785731.419432,72604280,1,0.0008299548644572,0.000872335396707,0.001107336487621,-0.0012389400508254,-0.0014853801112622,-9.817930221557615,0,0,29.19859313964844,1,1,760,800,1.520225,0,0.001107336487621
1778785731.459416,72644264,0,0.0010669762268662,0.0010544219985604,0.0009870624635368,-0.0003486472123768,-0.0003140674380119,-9.817864418029783,0,0,29.20070075988769,1,1,1000,1000,1.560209,0,0.0009870624635368
1778785731.459416,72644264,1,0.0011368755949661,0.0010277749970555,0.0010451702401041,-0.0024775273632258,-0.0030413644853979,-9.817602157592772,0,0,29.20070075988769,1,1,760,800,1.560209,0,0.0010451702401041
1778785731.4994,72684248,0,0.0010166768915951,0.0010334756225347,0.0011499912943691,-0.0008694324060343,-0.0013702869182452,-9.817131996154783,0,0,29.20280647277832,1,1,1000,1000,1.600193,0,0.0011499912943691
1778785731.4994,72684248,1,0.0012119500897824,0.0009895004332065,0.0008087931782938,-0.0028867973014712,0.0002855049096979,-9.819931983947754,0,0,29.20280647277832,1,1,760,800,1.600193,0,0.0008087931782938
1778785731.539384,72724232,0,0.0010697273537516,0.0010126694105565,0.0009945683414116,-0.0012942443136125,-0.0005502130952663,-9.81791877746582,0,0,29.20486068725586,1,1,1000,1000,1.640177,0,0.0009945683414116
1778785731.539384,72724232,1,0.0010541330557316,0.0009314113412983,0.001024971017614,-0.0029571403283625,-0.0029608495533466,-9.820844650268556,0,0,29.20486068725586,1,1,760,800,1.640177,0,0.001024971017614
1778785731.5793679,72764216,0,0.0010911327553912,0.0010296980617567,0.0010374796111136,-0.0005929238395765,-0.0012581094633787,-9.816410064697266,0,0,29.206966400146484,1,1,1000,1000,1.680161,0,0.0010374796111136
1778785731.5793679,72764216,1,0.0008029649034142,0.001028332626447,0.0008702845079824,0.0020779047627002,0.0003193877055309,-9.817916870117188,0,0,29.206966400146484,1,1,760,800,1.680161,0,0.0008702845079824
1778785731.6193519,72804200,0,0.0010596262291073,0.0010836225701496,0.0010308177443221,-0.0020195373799651,-0.0009600714547559,-9.816699981689451,0,0,29.20907211303711,1,1,1000,1000,1.720145,0,0.0010308177443221
1778785731.6193519,72804200,1,0.0011649252846837,0.0010065790265798,0.0010675591183826,-0.0013560683000832,0.0005585397593677,-9.816272735595703,0,0,29.20907211303711,1,1,760,800,1.720145,0,0.0010675591183826
1778785731.6593359,72844184,0,0.0010127584682777,0.0009663557866588,0.0010471879504621,9.485648479312658e-05,-0.001168028335087,-9.817312240600586,0,0,29.21117782592773,1,1,1000,1000,1.760129,0,0.0010471879504621
1778785731.6593359,72844184,1,0.0008708937093615,0.0009932703105732,0.0009705083211883,-0.0002815423067659,-0.0016425900394096,-9.818309783935549,0,0,29.21117782592773,1,1,760,800,1.760129,0,0.0009705083211883
1778785731.6993198,72884168,0,0.0009744312264956,0.0010111393639817,0.0010311376536265,-0.0017961002886295,-0.0012530888197943,-9.816736221313477,0,0,29.213281631469727,1,1,1000,1000,1.800113,0,0.0010311376536265
1778785731.6993198,72884168,1,0.0008972610230557,0.0011252271942794,0.0009838364785537,-0.0035690311342477,-0.0021195206791162,-9.81986141204834,0,0,29.213281631469727,1,1,760,800,1.800113,0,0.0009838364785537
1778785731.7393038,72924152,0,0.0011398685164749,0.0010774453403428,0.001069689868018,-0.0009296051575802,-0.0013625812716782,-9.81712532043457,0,0,29.21538734436035,1,1,1000,1000,1.840097,0,0.001069689868018
1778785731.7393038,72924152,1,0.0012712939642369,0.001032464322634,0.0010639913380146,-0.0001048079720931,-0.0024040513671934,-9.816600799560549,0,0,29.21538734436035,1,1,760,800,1.840097,0,0.0010639913380146
1778785731.7792878,72964136,0,0.0010688983602449,0.0011050386819988,0.0010177710792049,-0.0004092855378985,-0.0010740616125985,-9.81773853302002,0,0,29.217491149902344,1,1,1000,1000,1.880081,0,0.0010177710792049
1778785731.7792878,72964136,1,0.0011282101040706,0.0008586514741182,0.0013004256179556,-0.0039300839416682,-0.0009503084002062,-9.818614959716797,0,0,29.217491149902344,1,1,760,800,1.880081,0,0.0013004256179556
1778785731.819272,73004120,0,0.000991994747892,0.0010975948534905,0.0010209903120994,-0.0004838336026296,-5.704027717001736e-05,-9.816332817077637,0,0,29.21959686279297,1,1,1000,1000,1.920065,0,0.0010209903120994
1778785731.819272,73004120,1,0.0010660522384569,0.0009350617765448,0.0011072556953877,0.000545949791558,-0.0009053736575879,-9.818044662475586,0,0,29.21959686279297,1,1,760,800,1.920065,0,0.0011072556953877
1778785731.859256,73044104,0,0.0009931086096912,0.0010190749308094,0.0010245752055197,-0.0006315693026408,-0.0016226943116635,-9.818265914916992,0,0,29.221698760986328,1,1,1000,1000,1.960049,0,0.0010245752055197
1778785731.859256,73044104,1,0.001065241638571,0.0011417291825637,0.0008574296953156,-0.0034003350883722,0.0002516258391551,-9.818406105041504,0,0,29.221698760986328,1,1,760,800,1.960049,0,0.0008574296953156
1778785731.89924,73084088,0,0.0010530980071052,0.0010440505575388,0.0010259042028337,-0.0005394731415435,6.788976315874606e-05,-9.817217826843262,0,0,29.223804473876957,1,1,1000,1000,2.000033,0,0.0010259042028337
1778785731.89924,73084088,1,0.0009082719334401,0.0009412151994183,0.0008261463954113,-0.0017693920526653,0.0003477805003058,-9.815836906433104,0,0,29.223804473876957,1,1,760,800,2.000033,0,0.0008261463954113
1778785731.939224,73124072,0,0.0010944252135232,0.0010229202453047,0.0010621617548167,-0.000604310655035,-0.0001396353472955,-9.816505432128906,0,0,29.225906372070312,1,1,1000,1000,2.040017,0,0.0010621617548167
1778785731.939224,73124072,1,0.0011087567545473,0.0010588662698864,0.0009524916531518,-0.0023634429089725,-0.0017542428104206,-9.818906784057615,0,0,29.225906372070312,1,1,760,800,2.040017,0,0.0009524916531518
1778785731.979208,73164056,0,0.0010029864497482,0.0011130003258585,0.0010518708731979,-0.0007791953976266,-0.0003567470412235,-9.81737232208252,0,0,29.22806167602539,1,1,1000,1000,2.080001,0,0.0010518708731979
1778785731.979208,73164056,1,0.0010327277705073,0.0008709382964298,0.000921057537198,-0.0007900053751654,-0.0029840564820915,-9.818352699279783,0,0,29.228010177612305,1,1,760,800,2.080001,0,0.000921057537198
1778785732.019192,73204040,0,0.0011019265512004,0.0010606455616652,0.0010304304305464,-0.0013370587257668,-0.0009758577216416,-9.818082809448242,0,0,29.230165481567383,1,1,1000,1000,2.119985,0,0.0010304304305464
1778785732.019192,73204040,1,0.0011921926634386,0.000976109993644,0.0010286520700901,-0.0011549724731594,-0.0019804348703473,-9.818242073059082,0,0,29.230113983154297,1,1,760,800,2.119985,0,0.0010286520700901
1778785732.059176,73244024,0,0.0010372914839535,0.0010357355931773,0.0010869796387851,-0.0016818935982882,-0.000703445461113,-9.81785011291504,0,0,29.232267379760746,1,1,1000,1000,2.159969,0,0.0010869796387851
1778785732.059176,73244024,1,0.0007231290801428,0.0012760864337906,0.0012465004110708,-0.0023560908157378,0.0001461385254515,-9.816980361938477,0,0,29.232215881347656,1,1,760,800,2.159969,0,0.0012465004110708
1778785732.0999928,73284841,0,0.0010119456565007,0.0009818506659939,0.0009753603953868,-1.498800702393055e-05,-0.0014134219381958,-9.817731857299805,0,0,29.23437118530273,1,1,1000,1000,2.200786,0,0.0009753603953868
1778785732.0999928,73284841,1,0.0010839705355465,0.0009190740529447,0.0011925119906663,-0.0026794490404427,-0.0008865989511832,-9.818262100219728,0,0,29.23437118530273,1,1,760,800,2.200786,0,0.0011925119906663
1778785732.1399767,73324825,0,0.0010876657906919,0.0010389434173703,0.0010465281084179,-0.0011923409765586,-0.0005872977199032,-9.81888484954834,0,0,29.23647117614746,1,1,1000,1000,2.24077,0,0.0010465281084179
1778785732.1399767,73324825,1,0.0008279327303171,0.0010667126625776,0.0011985846795141,-0.0024626636877655,-0.0009996893350034,-9.817716598510742,0,0,29.23647117614746,1,1,760,800,2.24077,0,0.0011985846795141
1778785732.1799607,73364809,0,0.0009840338025242,0.0009647059487178,0.0009488302166573,-0.0010018917964771,-0.0002747022081166,-9.818509101867676,0,0,29.23857307434082,1,1,1000,1000,2.280754,0,0.0009488302166573
1778785732.1799607,73364809,1,0.0009840091224759,0.0010262717260047,0.0013136349152773,0.0012189361732453,8.824032556731254e-05,-9.81808853149414,0,0,29.23857307434082,1,1,760,800,2.280754,0,0.0013136349152773
1778785732.2199447,73404793,0,0.0009411063510924,0.0010753960814327,0.0011142288567498,-0.0009376637171953,-0.0007681748247705,-9.817230224609377,0,0,29.24067497253418,1,1,1000,1000,2.320738,0,0.0011142288567498
1778785732.2199447,73404793,1,0.0007570706075057,0.0012023577000945,0.0010507602710276,0.0022092838771641,-0.0028654374182224,-9.816583633422852,0,0,29.24067497253418,1,1,760,800,2.320738,0,0.0010507602710276
1778785732.2599287,73444777,0,0.0010030893608927,0.0009957385482266,0.000998287461698,-0.0022542139049619,-0.0008705090731382,-9.818422317504885,0,0,29.24277687072754,1,1,1000,1000,2.360722,0,0.000998287461698
1778785732.2599287,73444777,1,0.0007183306152001,0.0009919041767716,0.0011547228787094,0.0003077019937336,0.0014335041632875,-9.818297386169434,0,0,29.24277687072754,1,1,760,800,2.360722,0,0.0011547228787094
1778785732.2999127,73484761,0,0.0010280897840857,0.0010066309478133,0.0010306329932063,0.0002430404128972,-0.0006832090439274,-9.81756591796875,0,0,29.244876861572266,1,1,1000,1000,2.400706,0,0.0010306329932063
1778785732.2999127,73484761,1,0.0007671164348721,0.0012164324289187,0.0010537595953792,-0.0001920393260661,-0.0004577035724651,-9.816593170166016,0,0,29.244876861572266,1,1,760,800,2.400706,0,0.0010537595953792
1778785732.339897,73524745,0,0.0010416507720947,0.0010035827290266,0.0010383625049144,-0.000650379457511,-0.0015091961249709,-9.817034721374512,0,0,29.246978759765625,1,1,1000,1000,2.44069,0,0.0010383625049144
1778785732.339897,73524745,1,0.0010372591204941,0.0010429669637233,0.0007769401418045,-0.0047136023640632,-0.0002210790698882,-9.816049575805664,0,0,29.246978759765625,1,1,760,800,2.44069,0,0.0007769401418045
1778785732.379881,73564729,0,0.001083516399376,0.0010297738481312,0.0010446145897731,0.0001169045863207,-0.0015084837796166,-9.816786766052246,0,0,29.24907684326172,1,1,1000,1000,2.480674,0,0.0010446145897731
1778785732.379881,73564729,1,0.0008123989100567,0.0009264867985621,0.0010381613392382,-0.0004110719310119,-0.002391165588051,-9.81557273864746,0,0,29.24907684326172,1,1,760,800,2.480674,0,0.0010381613392382
1778785732.419865,73604713,0,0.0010096435435116,0.0010294229723513,0.0010904818773269,-0.0020354881417006,-0.0007989847799763,-9.817282676696776,0,0,29.251176834106445,1,1,1000,1000,2.520658,0,0.0010904818773269
1778785732.419865,73604713,1,0.0009781329426914,0.0009568452951498,0.0013206772273406,-0.0026734764687716,-0.001511636422947,-9.819361686706545,0,0,29.251176834106445,1,1,760,800,2.520658,0,0.0013206772273406
1778785732.4598489,73644697,0,0.0010503048542886,0.0010575337801128,0.0010370645904913,-0.0016884820070117,-0.0009796830127015,-9.816886901855469,0,0,29.25327682495117,1,1,1000,1000,2.560642,0,0.0010370645904913
1778785732.4598489,73644697,1,0.0012862917501479,0.0010747812921181,0.0010475765448063,0.0001926516852108,0.000706240418367,-9.820446014404297,0,0,29.25327682495117,1,1,760,800,2.560642,0,0.0010475765448063
1778785732.4998329,73684681,0,0.0010666160378605,0.001084107439965,0.0010416838340461,-0.000437774695456,-0.0001793483097571,-9.818185806274414,0,0,29.2553768157959,1,1,1000,1000,2.600626,0,0.0010416838340461
1778785732.4998329,73684681,1,0.0012950751697644,0.0012368003372102,0.0010031969286501,-0.0028306548483669,0.0026695523411035,-9.8208646774292,0,0,29.2553768157959,1,1,760,800,2.600626,0,0.0010031969286501
1778785732.5398169,73724665,0,0.0010404833592474,0.0010013743303716,0.0010840962640941,-0.0015992706175893,-1.7404614482074976e-05,-9.818017959594728,0,0,29.257476806640625,1,1,1000,1000,2.64061,0,0.0010840962640941
1778785732.5398169,73724665,1,0.0010878108441829,0.0012267830315977,0.0009800373809412,-0.0014887382276356,3.5098470107186586e-05,-9.817445755004885,0,0,29.257476806640625,1,1,760,800,2.64061,0,0.0009800373809412
1778785732.5798008,73764649,0,0.0010663914727047,0.0010477507021278,0.0010493909940123,-0.0004935062024742,-0.0019750334322452,-9.81820297241211,0,0,29.25957489013672,1,1,1000,1000,2.680594,0,0.0010493909940123
1778785732.5798008,73764649,1,0.0010351325618103,0.0008899771491996,0.0009742427500896,-0.0029698521830141,0.0013258794788271,-9.81922721862793,0,0,29.25957489013672,1,1,760,800,2.680594,0,0.0009742427500896
1778785732.6197848,73804633,0,0.0010312950471416,0.0010159746743738,0.0010930004063993,-0.0009079666924662,-0.0009552389383316,-9.817499160766602,0,0,29.26167297363281,1,1,1000,1000,2.720578,0,0.0010930004063993
1778785732.6197848,73804633,1,0.0004804584023077,0.0010236809030175,0.0010980531806126,-0.0024212643038481,-0.001428794930689,-9.81560230255127,0,0,29.26167297363281,1,1,760,800,2.720578,0,0.0010980531806126
1778785732.6597688,73844617,0,0.0009732502512633,0.0010515566682443,0.0010568376164883,-0.0004933869931846,-0.0011216716375201,-9.816731452941896,0,0,29.263771057128903,1,1,1000,1000,2.760562,0,0.0010568376164883
1778785732.6597688,73844617,1,0.0010935377795249,0.0009424794116057,0.0011753411963582,-0.0019633113406598,0.0003579385811462,-9.818583488464355,0,0,29.263771057128903,1,1,760,800,2.760562,0,0.0011753411963582
1778785732.699753,73884601,0,0.0010647574672475,0.001016269205138,0.0010674891527742,-0.0011113514192402,-0.0011124704033136,-9.818685531616213,0,0,29.265869140625,1,1,1000,1000,2.800546,0,0.0010674891527742
1778785732.699753,73884601,1,0.0009712605387903,0.0013129846192896,0.0011907127918675,-0.0013892303686589,6.87198480591178e-05,-9.817813873291016,0,0,29.265869140625,1,1,760,800,2.800546,0,0.0011907127918675
1778785732.739737,73924585,0,0.001074134139344,0.0010378111619502,0.001044776989147,-0.0015369136817753,-0.0005932950880378,-9.817363739013672,0,0,29.267967224121094,1,1,1000,1000,2.84053,0,0.001044776989147
1778785732.739737,73924585,1,0.001144683570601,0.0010210229083895,0.0008640337618999,0.0004905707901343,-0.0009602830396033,-9.817615509033203,0,0,29.267967224121094,1,1,760,800,2.84053,0,0.0008640337618999
1778785732.779721,73964569,0,0.0010258720722049,0.0011108112521469,0.0011293715797364,-0.0014733769930899,-0.0006446603219956,-9.818148612976074,0,0,29.270065307617188,1,1,1000,1000,2.880514,0,0.0011293715797364
1778785732.779721,73964569,1,0.0010350360535085,0.0011469665914773,0.0010501084616407,-0.0018338738009333,0.000914690666832,-9.8157377243042,0,0,29.270065307617188,1,1,760,800,2.880514,0,0.0010501084616407
1778785732.819705,74004553,0,0.0010818941518664,0.0010740883881226,0.0010542292147874,-0.0012441009748727,0.0001601479016244,-9.818207740783691,0,0,29.27216148376465,1,1,1000,1000,2.920498,0,0.0010542292147874
1778785732.819705,74004553,1,0.0009145117364823,0.0012730553280562,0.0009579913457855,0.0004498144553508,-0.0016972715966403,-9.816694259643556,0,0,29.27216148376465,1,1,760,800,2.920498,0,0.0009579913457855
1778785732.859689,74044537,0,0.0010525721590965,0.0010339652653783,0.0010536848567426,-0.001203148625791,-0.0009399770060554,-9.816862106323242,0,0,29.27425765991211,1,1,1000,1000,2.960482,0,0.0010536848567426
1778785732.859689,74044537,1,0.0010754525428637,0.0010763746686279,0.0011349244741722,-0.0019585685804486,-0.0025094579905271,-9.81725025177002,0,0,29.27425765991211,1,1,760,800,2.960482,0,0.0011349244741722
1778785732.8996727,74084521,0,0.0011029249290004,0.001105613540858,0.0010067217517644,-0.0011788150295615,-0.0001486246765125,-9.817140579223633,0,0,29.276355743408203,1,1,1000,1000,3.000466,0,0.0010067217517644
1778785732.8996727,74084521,1,0.0009483277099207,0.0008580626454204,0.0012516252463683,-0.0010641593253239,0.0020578256808221,-9.818936347961426,0,0,29.276355743408203,1,1,760,800,3.000466,0,0.0012516252463683
1778785732.9396567,74124505,0,0.001018161419779,0.0010319226421415,0.0010995561024174,-0.0020152118522673,-0.0006658052443526,-9.817535400390623,0,0,29.278451919555664,1,1,1000,1000,3.04045,0,0.0010995561024174
1778785732.9396567,74124505,1,0.0009453894454054,0.0010817333823069,0.0011678849114105,0.0011427935678511,0.0004823240160476,-9.820655822753906,0,0,29.278451919555664,1,1,760,800,3.04045,0,0.0011678849114105
1778785732.9796407,74164489,0,0.0010822908952832,0.0011249784147366,0.0010524757672101,-0.0006415657117031,-0.0008678041631355,-9.817513465881348,0,0,29.280548095703125,1,1,1000,1000,3.080434,0,0.0010524757672101
1778785732.9796407,74164489,1,0.0007387233199551,0.0010779965668916,0.0008852152968756,-0.000731959065888,-0.0009930692613124,-9.818476676940918,0,0,29.280548095703125,1,1,760,800,3.080434,0,0.0008852152968756
1778785733.0196247,74204473,0,0.001040197093971,0.0010425001382827,0.0009994411375373,-0.0006994614377617,-0.0008866212447173,-9.817132949829102,0,0,29.282644271850582,1,1,1000,1000,3.120418,0,0.0009994411375373
1778785733.0196247,74204473,1,0.000867594149895,0.0012679556384682,0.0008653121767565,0.000543184345588,-0.001460648374632,-9.816522598266602,0,0,29.282644271850582,1,1,760,800,3.120418,0,0.0008653121767565
1778785733.0596087,74244457,0,0.0010076032485812,0.0010295381071045,0.0010554282926023,-0.0003955856664106,-0.0015561699401587,-9.816940307617188,0,0,29.284740447998047,1,1,1000,1000,3.160402,0,0.0010554282926023
1778785733.0596087,74244457,1,0.0011092836502939,0.0012252063024789,0.000981063931249,-0.0015109062660485,0.0023096222430467,-9.816534042358398,0,0,29.284740447998047,1,1,760,800,3.160402,0,0.000981063931249
1778785733.0995927,74284441,0,0.001075567677617,0.0010321931913495,0.0009842690778896,-0.0010402537882328,-0.0008697467856109,-9.818122863769531,0,0,29.286834716796875,1,1,1000,1000,3.200386,0,0.0009842690778896
1778785733.0995927,74284441,1,0.0011814322788268,0.0011675953865051,0.0011192591628059,-0.0022285999730229,0.0004613172786775,-9.817041397094728,0,0,29.286834716796875,1,1,760,800,3.200386,0,0.0011192591628059
1778785733.139577,74324425,0,0.0010933898156508,0.0011646945495158,0.0009924464393407,0.0001186290901387,-0.0013664946891367,-9.817474365234377,0,0,29.288928985595703,1,1,1000,1000,3.24037,0,0.0009924464393407
1778785733.139577,74324425,1,0.0009502893080934,0.0010596392676234,0.0012084989575669,-0.0026230935472995,0.0018605849472805,-9.818974494934082,0,0,29.288928985595703,1,1,760,800,3.24037,0,0.0012084989575669
1778785733.179561,74364409,0,0.0009845604654401,0.0011044829152524,0.0011675171554088,-0.000647634267807,-0.0009216592297889,-9.816497802734377,0,0,29.29102325439453,1,1,1000,1000,3.280354,0,0.0011675171554088
1778785733.179561,74364409,1,0.0011493848869577,0.001016090856865,0.0011729910038411,-0.000406517938245,-0.0036291216965764,-9.817925453186035,0,0,29.29102325439453,1,1,760,800,3.280354,0,0.0011729910038411
1778785733.219545,74404393,0,0.0010525486432015,0.0009762523695826,0.0010023846989497,-3.1006973586045206e-05,-0.0010947413975372,-9.817737579345703,0,0,29.29311752319336,1,1,1000,1000,3.320338,0,0.0010023846989497
1778785733.219545,74404393,1,0.0009804985020309,0.0011406155535951,0.0008822553791105,-0.0016556640621274,-0.0009874376701191,-9.81670379638672,0,0,29.29311752319336,1,1,760,800,3.320338,0,0.0008822553791105
1778785733.2595289,74444377,0,0.0010812066029757,0.0011402682866901,0.0009844289161264,-0.0009280447848141,-0.0008338071056641,-9.818486213684082,0,0,29.29521369934082,1,1,1000,1000,3.360322,0,0.0009844289161264
1778785733.2595289,74444377,1,0.0011025317944586,0.0007614558562636,0.0008638380095362,-0.0019170370651409,-0.0016437324229627,-9.818731307983398,0,0,29.29521369934082,1,1,760,800,3.360322,0,0.0008638380095362
1778785733.2995129,74484361,0,0.0010656070662662,0.001029334613122,0.0010717987315729,-0.0009153588907793,-0.0010502366349101,-9.818809509277344,0,0,29.297306060791016,1,1,1000,1000,3.400306,0,0.0010717987315729
1778785733.2995129,74484361,1,0.0011125425808131,0.0014139394043013,0.0009621466742828,-0.0014027134748175,0.0001357149594696,-9.817815780639648,0,0,29.297306060791016,1,1,760,800,3.400306,0,0.0009621466742828
1778785733.3394969,74524345,0,0.0010619339300319,0.0010545041877776,0.0010646488517522,-0.0015054628020152,-0.0008590290672145,-9.817814826965332,0,0,29.299400329589844,1,1,1000,1000,3.44029,0,0.0010646488517522
1778785733.3394969,74524345,1,0.0009943539043888,0.0010764217004179,0.0008001683745533,-0.0015630278503522,-0.0009112552506849,-9.818204879760742,0,0,29.299400329589844,1,1,760,800,3.44029,0,0.0008001683745533
1778785733.3794808,74564329,0,0.001065086456947,0.0010223874123767,0.0010692457435652,-0.0013829621020704,-0.0005403527757152,-9.816970825195312,0,0,29.30149269104004,1,1,1000,1000,3.480274,0,0.0010692457435652
1778785733.3794808,74564329,1,0.0009964088676497,0.001014013425447,0.0011018629884347,-0.0032740773167461,0.0003215590550098,-9.816904067993164,0,0,29.30149269104004,1,1,760,800,3.480274,0,0.0011018629884347
1778785733.4194648,74604313,0,0.001040389528498,0.0010673197684809,0.0010834843851625,-0.0011935055954381,-0.0011662525357678,-9.817985534667969,0,0,29.303586959838867,1,1,1000,1000,3.520258,0,0.0010834843851625
1778785733.4194648,74604313,1,0.0010132367024198,0.0009706259006634,0.0010001544142141,-0.0028275162912905,-0.0017238153377547,-9.818585395812988,0,0,29.303586959838867,1,1,760,800,3.520258,0,0.0010001544142141
1778785733.4594488,74644297,0,0.0010212966008111,0.0010224137222394,0.0010985063854604,-0.0017185611650347,-0.0005361912772059,-9.817222595214844,0,0,29.305679321289062,1,1,1000,1000,3.560242,0,0.0010985063854604
1778785733.4594488,74644297,1,0.0010167274158447,0.0012447701301425,0.0012926636263728,-0.0006116070435382,1.4816872862866148e-05,-9.817009925842283,0,0,29.305679321289062,1,1,760,800,3.560242,0,0.0012926636263728
1778785733.499433,74684281,0,0.0010179737582802,0.0010421073529869,0.0010103263193741,-0.0010877891909331,-0.0001412586279911,-9.818076133728027,0,0,29.307771682739254,1,1,1000,1000,3.600226,0,0.0010103263193741
1778785733.499433,74684281,1,0.0011029932647943,0.001053282059729,0.0012307870201766,-0.0002448956656735,-0.0021765879355371,-9.816864967346191,0,0,29.307771682739254,1,1,760,800,3.600226,0,0.0012307870201766
1778785733.539417,74724265,0,0.001097084255889,0.0010031613055616,0.0010839160531759,-0.0012412583455443,-0.0001777263387339,-9.816808700561523,0,0,29.309864044189453,1,1,1000,1000,3.64021,0,0.0010839160531759
1778785733.539417,74724265,1,0.0010801907628774,0.0012559057213366,0.0009260603110305,-0.0002087705652229,-0.0018384640570729,-9.814315795898438,0,0,29.309864044189453,1,1,760,800,3.64021,0,0.0009260603110305
1778785733.579401,74764249,0,0.0010390968527644,0.0009998213499784,0.0010956696933135,-0.001060141948983,-0.0009041656740009,-9.817707061767578,0,0,29.31195640563965,1,1,1000,1000,3.680194,0,0.0010956696933135
1778785733.579401,74764249,1,0.00095117429737,0.0010267604375258,0.0012206182582303,-0.0027902787551283,-0.0026772089768201,-9.81848430633545,0,0,29.31195640563965,1,1,760,800,3.680194,0,0.0012206182582303
1778785733.619385,74804233,0,0.0010906816460192,0.0010064106900244,0.000994675909169,-0.0007823603809811,-0.0011611237423494,-9.817581176757812,0,0,29.313995361328125,1,1,1000,1000,3.720178,0,0.000994675909169
1778785733.619385,74804233,1,0.0012061145389452,0.0012148052919656,0.0012101740576326,0.0017341268248856,-0.0014444824773818,-9.816607475280762,0,0,29.313995361328125,1,1,760,800,3.720178,0,0.0012101740576326
1778785733.6593688,74844217,0,0.0010594062041491,0.0009916501585394,0.0011018440127372,-0.0014124908484518,-0.000306021713186,-9.817821502685549,0,0,29.316085815429688,1,1,1000,1000,3.760162,0,0.0011018440127372
1778785733.6593688,74844217,1,0.0008817960624583,0.0011909052263945,0.0013544675894081,0.001514462986961,0.0008728465763852,-9.81829833984375,0,0,29.316085815429688,1,1,760,800,3.760162,0,0.0013544675894081
1778785733.6993527,74884201,0,0.001000766409561,0.0010304414900019,0.0010279003763571,-0.0012822056887671,-0.0021793888881802,-9.817999839782717,0,0,29.31817626953125,1,1,1000,1000,3.800146,0,0.0010279003763571
1778785733.6993527,74884201,1,0.0008908591116778,0.0011393995955586,0.0011127749457955,-0.0015425465535372,-0.0008818403584882,-9.81912612915039,0,0,29.31817626953125,1,1,760,800,3.800146,0,0.0011127749457955
1778785733.7393367,74924185,0,0.001071301405318,0.0010937995975837,0.0010579472873359,-0.0014198424760252,-0.0003562621423043,-9.817584991455078,0,0,29.32026672363281,1,1,1000,1000,3.84013,0,0.0010579472873359
1778785733.7393367,74924185,1,0.0009034214308485,0.0008464499842375,0.0011892332695424,-0.0001244651211891,-0.0018114272970706,-9.816052436828612,0,0,29.32026672363281,1,1,760,800,3.84013,0,0.0011892332695424
1778785733.7793207,74964169,0,0.0011110927443951,0.0010864129289984,0.00097671081312,-0.0014977499376982,0.0004681968712247,-9.817789077758787,0,0,29.32235717773437,1,1,1000,1000,3.880114,0,0.00097671081312
1778785733.7793207,74964169,1,0.0009113154374063,0.0009698177454993,0.0012092352844774,-0.002957459539175,-0.0007638919632881,-9.819031715393066,0,0,29.32235717773437,1,1,760,800,3.880114,0,0.0012092352844774
1778785733.8193047,75004153,0,0.0010446195956319,0.0010426770895719,0.0010840583126991,-0.0008956688689067,-0.0009010706562548,-9.817720413208008,0,0,29.32444953918457,1,1,1000,1000,3.920098,0,0.0010840583126991
1778785733.8193047,75004153,1,0.0010326083283871,0.0011288404930382,0.0010117463534697,-0.0019003609195351,-0.0002776772598735,-9.817564964294434,0,0,29.32444953918457,1,1,760,800,3.920098,0,0.0010117463534697
1778785733.8592887,75044137,0,0.0010306232143193,0.0010526209371164,0.0011011136230081,-0.0010495762107893,-0.0002427956205792,-9.816848754882812,0,0,29.3265380859375,1,1,1000,1000,3.960082,0,0.0011011136230081
1778785733.8592887,75044137,1,0.0009567687520757,0.0011313515715301,0.0011127640027552,-0.0020263195037841,-0.0023454250767827,-9.816920280456545,0,0,29.3265380859375,1,1,760,800,3.960082,0,0.0011127640027552
1778785733.899273,75084121,0,0.0011055769864469,0.0010575911728665,0.0010111288866028,-0.0015996398869901,-0.0002944492152892,-9.818191528320312,0,0,29.328628540039062,1,1,1000,1000,4.000066,0,0.0010111288866028
1778785733.899273,75084121,1,0.0012791069457307,0.0009337916853837,0.0010742383310571,0.0003182297514285,-0.0009577883756719,-9.816610336303713,0,0,29.328628540039062,1,1,760,800,4.000066,0,0.0010742383310571
1778785733.939257,75124105,0,0.0010926182148978,0.0010854651918634,0.0011269501410424,-0.0007493566954508,-0.0015743584372103,-9.81919288635254,0,0,29.330717086791992,1,1,1000,1000,4.04005,0,0.0011269501410424
1778785733.939257,75124105,1,0.0012873619562014,0.0012177750468254,0.0012304809642955,-0.0009232979500666,-0.0006210173014551,-9.815423965454102,0,0,29.330717086791992,1,1,760,800,4.04005,0,0.0012304809642955
1778785733.979241,75164089,0,0.0010946586262434,0.001080579822883,0.0011742940405383,-0.0004862878413405,-0.0011862217215821,-9.817790985107422,0,0,29.332807540893555,1,1,1000,1000,4.080034,0,0.0011742940405383
1778785733.979241,75164089,1,0.0009096946450881,0.0008820098009891,0.0010191226610913,-0.0019306781468912,-0.0003918105503544,-9.818723678588867,0,0,29.332807540893555,1,1,760,800,4.080034,0,0.0010191226610913
1778785734.019225,75204073,0,0.0010128227295354,0.0010858209570869,0.0010350436205044,-0.0014490046305581,-0.0002486433368176,-9.81760025024414,0,0,29.334896087646484,1,1,1000,1000,4.120018,0,0.0010350436205044
1778785734.019225,75204073,1,0.0010172431357204,0.000951892172452,0.0011872102040797,-0.0045284423977136,0.0003608588594943,-9.815633773803713,0,0,29.334896087646484,1,1,760,800,4.120018,0,0.0011872102040797
1778785734.0592089,75244057,0,0.0009558259625919,0.0010873733554035,0.001091175712645,-0.0023180625867098,0.0009856626857072,-9.8169584274292,0,0,29.3370361328125,1,1,1000,1000,4.160002,0,0.001091175712645
1778785734.0592089,75244057,1,0.0011187258642166,0.0009380474220961,0.0010326828341931,-5.432712350739166e-05,-0.0031529201660305,-9.813719749450684,0,0,29.33698463439941,1,1,760,800,4.160002,0,0.0010326828341931
1778785734.0991929,75284041,0,0.0009842158760875,0.0010345235932618,0.0010554812615737,-0.0007792937685735,-0.0010832012630999,-9.81828784942627,0,0,29.3391227722168,1,1,1000,1000,4.199986,0,0.0010554812615737
1778785734.0991929,75284041,1,0.0012316333595663,0.0010017341701313,0.0010354311671108,-0.0038621856365352,0.0003324764547869,-9.815752983093262,0,0,29.339073181152344,1,1,760,800,4.199986,0,0.0010354311671108
1778785734.1391768,75324025,0,0.0010747333290055,0.0010432584676891,0.0010607263538986,-0.0004941708757542,-0.0010183632839471,-9.817219734191896,0,0,29.34121322631836,1,1,1000,1000,4.23997,0,0.0010607263538986
1778785734.1391768,75324025,1,0.0009872537339106,0.0008751129498705,0.0012967428192496,-0.0019712501671165,-3.095266947639175e-05,-9.81948947906494,0,0,29.34115982055664,1,1,760,800,4.23997,0,0.0012967428192496
1778785734.1799939,75364842,0,0.0011059724492952,0.0010155421914532,0.0010859412141144,0.0001339022419415,-0.0013428914826363,-9.817617416381836,0,0,29.343299865722656,1,1,1000,1000,4.280787,0,0.0010859412141144
1778785734.1799939,75364842,1,0.0009463763562962,0.0008273946586996,0.0009375650552101,-0.0020439194049686,-0.0042799576185643,-9.817530632019045,0,0,29.343299865722656,1,1,760,800,4.280787,0,0.0009375650552101
1778785734.2199779,75404826,0,0.0010473566362634,0.0009875650284811,0.0010801984462887,-0.0016613856423646,-0.0011349165579304,-9.817249298095703,0,0,29.345386505126957,1,1,1000,1000,4.320771,0,0.0010801984462887
1778785734.2199779,75404826,1,0.0011669578962028,0.0010634702630341,0.0011826237896457,-0.0005890717147849,-0.0014939492102712,-9.816600799560549,0,0,29.345386505126957,1,1,760,800,4.320771,0,0.0011826237896457
1778785734.2599618,75444810,0,0.0010442842030897,0.0010849472600966,0.0010113117750734,-0.0006782303098589,-0.0013781046727672,-9.817944526672363,0,0,29.347475051879883,1,1,1000,1000,4.360755,0,0.0010113117750734
1778785734.2599618,75444810,1,0.0010802813339978,0.0009329725289717,0.0011586180189624,0.0002353917225264,-0.0030318091157823,-9.817034721374512,0,0,29.347475051879883,1,1,760,800,4.360755,0,0.0011586180189624
1778785734.2999458,75484794,0,0.0010474706068634,0.0010422968771308,0.0011148516787216,-0.0011288967216387,0.0003846405597869,-9.818503379821776,0,0,29.349559783935547,1,1,1000,1000,4.400739,0,0.0011148516787216
1778785734.2999458,75484794,1,0.0010301459114998,0.0008874427294358,0.0010192189365625,-0.0008802020456641,-0.0002331808791495,-9.818254470825195,0,0,29.349559783935547,1,1,760,800,4.400739,0,0.0010192189365625
1778785734.3399298,75524778,0,0.0011401891242712,0.0010533146560192,0.0011250779498368,-0.0011953517096117,-0.0007695418898947,-9.817577362060549,0,0,29.35164833068848,1,1,1000,1000,4.440723,0,0.0011250779498368
1778785734.3399298,75524778,1,0.0009276192868128,0.0013514157617464,0.0011211945675313,0.000674994662404,-0.0026022414676845,-9.81789779663086,0,0,29.35164833068848,1,1,760,800,4.440723,0,0.0011211945675313
1778785734.379914,75564762,0,0.0010268149198964,0.0010858175810426,0.0011052404297515,-0.0009237770573236,-0.0010017323074862,-9.817673683166504,0,0,29.35373306274414,1,1,1000,1000,4.480707,0,0.0011052404297515
1778785734.379914,75564762,1,0.0009509499650448,0.0010266891913488,0.0010322803864255,0.000113195987069,-0.0002907943562604,-9.818845748901367,0,0,29.35373306274414,1,1,760,800,4.480707,0,0.0010322803864255
1778785734.419898,75604746,0,0.0010864129289984,0.0010663627181202,0.0010721897706389,-0.0004071615112479,1.417556995875202e-05,-9.81756591796875,0,0,29.35581970214844,1,1,1000,1000,4.520691,0,0.0010721897706389
1778785734.419898,75604746,1,0.0013496843166649,0.0010025720112025,0.00111959525384,-0.0020740716718137,-0.0026546700391918,-9.819766998291016,0,0,29.35581970214844,1,1,760,800,4.520691,0,0.00111959525384
1778785734.459882,75644730,0,0.001090102829039,0.001124944537878,0.0010194693459197,-0.0008018881781026,-0.0004232443170621,-9.816650390625,0,0,29.35790634155273,1,1,1000,1000,4.560675,0,0.0010194693459197
1778785734.459882,75644730,1,0.0008018012158572,0.000975124828983,0.000907287641894,-0.0002145926700904,-0.0025536557659506,-9.817566871643066,0,0,29.35790634155273,1,1,760,800,4.560675,0,0.000907287641894
1778785734.499866,75684714,0,0.0011673150584101,0.0011493479833006,0.0010428370442241,-0.0001994637277675,-0.0016734577948227,-9.81626319885254,0,0,29.3599910736084,1,1,1000,1000,4.600659,0,0.0010428370442241
1778785734.499866,75684714,1,0.0012114752316847,0.0011431295424699,0.0008674169075675,-0.0015090142842382,-0.0026159840635955,-9.816368103027344,0,0,29.3599910736084,1,1,760,800,4.600659,0,0.0008674169075675
1778785734.53985,75724698,0,0.0010356595739722,0.0010000115726143,0.0010800653835758,-0.0003971381811425,-0.0029046989511698,-9.816965103149414,0,0,29.36207771301269,1,1,1000,1000,4.640643,0,0.0010800653835758
1778785734.53985,75724698,1,0.0011136528337374,0.0012101654428988,0.0009734309278428,-0.0027573120314627,-0.0027795862406492,-9.817779541015623,0,0,29.36207771301269,1,1,760,800,4.640643,0,0.0009734309278428
1778785734.579834,75764682,0,0.0010257853427901,0.0010800084564834,0.0010652132332324,-0.0018828262109309,-0.0010416631121188,-9.817153930664062,0,0,29.36416244506836,1,1,1000,1000,4.680627,0,0.0010652132332324
1778785734.579834,75764682,1,0.000880520849023,0.0009780777618288,0.000895464385394,-0.0020915661007165,-0.0005093900836072,-9.817482948303224,0,0,29.36416244506836,1,1,760,800,4.680627,0,0.000895464385394
1778785734.619818,75804666,0,0.0010646320879459,0.0011035173665732,0.0010493020527064,-0.0009181441855616,-0.0006305790157057,-9.81724452972412,0,0,29.36624526977539,1,1,1000,1000,4.720611,0,0.0010493020527064
1778785734.619818,75804666,1,0.0011531074997037,0.0013260503765195,0.0011504066642373,-0.0017688869265839,-0.0001528090797364,-9.816768646240234,0,0,29.36624526977539,1,1,760,800,4.720611,0,0.0011504066642373
1778785734.659802,75844650,0,0.0010516206966713,0.0010837311856448,0.0010262893047183,-0.0013144984841346,-0.0011170535581186,-9.817203521728516,0,0,29.36833000183105,1,1,1000,1000,4.760595,0,0.0010262893047183
1778785734.659802,75844650,1,0.0007985384436324,0.0011267635272815,0.0009251123992726,7.954981992952526e-05,0.0006133649731054,-9.818449020385742,0,0,29.36833000183105,1,1,760,800,4.760595,0,0.0009251123992726
1778785734.699786,75884634,0,0.0010662217391654,0.0010727893095463,0.0010121228406205,-0.0016697130631655,-0.0010236826492473,-9.816852569580078,0,0,29.37041473388672,1,1,1000,1000,4.800579,0,0.0010121228406205
1778785734.699786,75884634,1,0.0012530786916613,0.0012119875755161,0.0009982126066461,-0.0018953735707327,-0.0018057324923574,-9.817453384399414,0,0,29.37041473388672,1,1,760,800,4.800579,0,0.0009982126066461
1778785734.73977,75924618,0,0.0010919801425188,0.0011043635895475,0.001052998821251,-0.001053889747709,-0.0016335903201252,-9.817065238952637,0,0,29.372499465942383,1,1,1000,1000,4.840563,0,0.001052998821251
1778785734.73977,75924618,1,0.0010749497450888,0.0010575900087133,0.0010535434121266,-0.0002891584299504,-0.0005299129406921,-9.816849708557127,0,0,29.372499465942383,1,1,760,800,4.840563,0,0.0010535434121266
1778785734.779754,75964602,0,0.001088855206035,0.0011047630105167,0.0010621801484376,-0.001525193452835,-0.0008152684313245,-9.81821060180664,0,0,29.37458229064941,1,1,1000,1000,4.880547,0,0.0010621801484376
1778785734.779754,75964602,1,0.0008635495905764,0.0009566139779053,0.0012736519565805,-0.000103811151348,-0.0020660927984863,-9.817821502685549,0,0,29.37458229064941,1,1,760,800,4.880547,0,0.0012736519565805
1778785734.819738,76004586,0,0.0011041943216696,0.0010910778073593,0.0011209452059119,-0.0002762502699624,-0.0008781742653809,-9.81672477722168,0,0,29.376665115356445,1,1,1000,1000,4.920531,0,0.0011209452059119
1778785734.819738,76004586,1,0.000761195202358,0.0011453106999397,0.0011067362502217,-0.003702332265675,-0.0009705858537927,-9.818045616149902,0,0,29.376665115356445,1,1,760,800,4.920531,0,0.0011067362502217
1778785734.859722,76044570,0,0.0010966996196657,0.0010479361517354,0.0010591530008241,-0.0006287773139774,-0.0010497004259377,-9.81757354736328,0,0,29.37874794006348,1,1,1000,1000,4.960515,0,0.0010591530008241
1778785734.859722,76044570,1,0.0011181997833773,0.00102994882036,0.0009400065755471,-0.001096754334867,-0.0021013561636209,-9.819229125976562,0,0,29.37874794006348,1,1,760,800,4.960515,0,0.0009400065755471
1778785734.899706,76084554,0,0.0010631359182298,0.0010378480656072,0.0010691476054489,-0.0018167084781453,-0.001806448912248,-9.817997932434082,0,0,29.38083267211914,1,1,1000,1000,5.000499,0,0.0010691476054489
1778785734.899706,76084554,1,0.0007822157349437,0.0011595907853916,0.00108831259422,-2.9526001526392065e-05,0.0006500905146822,-9.818917274475098,0,0,29.38083267211914,1,1,760,800,5.000499,0,0.00108831259422
1778785734.9396899,76124538,0,0.0009981975890696,0.0010769078508019,0.0010725551983341,-0.0012356373481452,-0.001515973592177,-9.818538665771484,0,0,29.38291358947754,1,1,1000,1000,5.040483,0,0.0010725551983341
1778785734.9396899,76124538,1,0.0012506798375397,0.0012311263708397,0.0007310330984182,0.0036948747001588,-0.0024900881107896,-9.816177368164062,0,0,29.38291358947754,1,1,760,800,5.040483,0,0.0007310330984182
1778785734.9796739,76164522,0,0.0011152650695294,0.0010748328641057,0.0010545856785029,-0.0022010242100805,-0.000473492022138,-9.818157196044922,0,0,29.384994506835938,1,1,1000,1000,5.080467,0,0.0010545856785029
1778785734.9796739,76164522,1,0.0012286718701943,0.0011000521481037,0.0008977696998044,0.0005871792091056,-0.0019228856544941,-9.8157958984375,0,0,29.384994506835938,1,1,760,800,5.080467,0,0.0008977696998044
1778785735.0196579,76204506,0,0.0010925348615273,0.0010490443091839,0.0010133744217455,0.0001900421921163,8.269950922112912e-05,-9.817632675170898,0,0,29.38707733154297,1,1,1000,1000,5.120451,0,0.0010133744217455
1778785735.0196579,76204506,1,0.0012401385465636,0.0010877782478928,0.000997083261609,-0.0043720640242099,-0.0037675462663173,-9.816457748413086,0,0,29.38707733154297,1,1,760,800,5.120451,0,0.000997083261609
1778785735.0596418,76244490,0,0.0010760291479527,0.0010178830707445,0.0010608673328533,2.8764508897438645e-05,-0.0004234241205267,-9.817998886108398,0,0,29.38916015625,1,1,1000,1000,5.160435,0,0.0010608673328533
1778785735.0596418,76244490,1,0.0008893341291695,0.0012985162902623,0.0011570543283596,-0.0014306552475318,-0.0023153652437031,-9.818266868591309,0,0,29.38916015625,1,1,760,800,5.160435,0,0.0011570543283596
1778785735.0996258,76284474,0,0.0010299056302756,0.0010306598851457,0.0010630796896293,-0.0014158594422042,-0.0020228205248713,-9.81766128540039,0,0,29.3912410736084,1,1,1000,1000,5.200419,0,0.0010630796896293
1778785735.0996258,76284474,1,0.0010918482439592,0.0011899938108399,0.001040548318997,-0.002824084367603,-0.0012383462162688,-9.815593719482422,0,0,29.3912410736084,1,1,760,800,5.200419,0,0.001040548318997
1778785735.1396098,76324458,0,0.001090544858016,0.0010787758510559,0.0010393689153715,-0.0012672450393438,-0.0012553363339975,-9.818767547607422,0,0,29.3933219909668,1,1,1000,1000,5.240403,0,0.0010393689153715
1778785735.1396098,76324458,1,0.0011582393199205,0.0013253520010039,0.0011125628370791,-0.0014093709178268,-0.0017407800769433,-9.81863784790039,0,0,29.3933219909668,1,1,760,800,5.240403,0,0.0011125628370791
1778785735.179594,76364442,0,0.0011166023323312,0.0011132031213492,0.0010655506048351,-0.0009251944138668,-0.0005045369034633,-9.817566871643066,0,0,29.395402908325195,1,1,1000,1000,5.280387,0,0.0010655506048351
1778785735.179594,76364442,1,0.0011525698937475,0.0010795663110911,0.0010296379914507,-0.0040107802487909,-0.0014404037501662,-9.818081855773926,0,0,29.395402908325195,1,1,760,800,5.280387,0,0.0010296379914507
1778785735.219578,76404426,0,0.0010831500403583,0.0010049937991425,0.0011475821956992,-0.0012300508096814,8.1139340181835e-05,-9.817710876464844,0,0,29.397483825683597,1,1,1000,1000,5.320371,0,0.0011475821956992
1778785735.219578,76404426,1,0.0013304778840392,0.0013640988618135,0.0011985765304416,-0.00274303345941,-0.001254167756997,-9.818319320678713,0,0,29.397483825683597,1,1,760,800,5.320371,0,0.0011985765304416
1778785735.259562,76444410,0,0.0010597967775538,0.0010976723860949,0.0010696456301957,-0.0009474462713114,-0.0010605844436213,-9.817330360412598,0,0,29.39956283569336,1,1,1000,1000,5.360355,0,0.0010696456301957
1778785735.259562,76444410,1,0.0010265569435432,0.0009653543820604,0.0012739949161186,-0.0029982372652739,0.0015741919633001,-9.818197250366213,0,0,29.39956283569336,1,1,760,800,5.360355,0,0.0012739949161186
1778785735.299546,76484394,0,0.0011252223048359,0.0010930562857538,0.0010910632554441,-0.000566175323911,-0.0006243819370865,-9.817309379577637,0,0,29.40164375305176,1,1,1000,1000,5.400339,0,0.0010910632554441
1778785735.299546,76484394,1,0.0010842584306374,0.0008869642624631,0.0010268243495374,-0.0016169213922694,-0.000439361523604,-9.817599296569824,0,0,29.40164375305176,1,1,760,800,5.400339,0,0.0010268243495374
1778785735.33953,76524378,0,0.0011111273197457,0.0011046137660741,0.0011341063072904,-0.0017245301278308,-0.0010883830254897,-9.817350387573242,0,0,29.403722763061523,1,1,1000,1000,5.440323,0,0.0011341063072904
1778785735.33953,76524378,1,0.0012287432327866,0.0010155176278203,0.0010410574031993,-0.0017141754506155,-0.0002777142508421,-9.816611289978027,0,0,29.403722763061523,1,1,760,800,5.440323,0,0.0010410574031993
1778785735.379514,76564362,0,0.0010793826077133,0.001101131318137,0.0010606817668303,-0.0009771600598469,-0.0007709291530773,-9.81762981414795,0,0,29.40580177307129,1,1,1000,1000,5.480307,0,0.0010606817668303
1778785735.379514,76564362,1,0.001329842954874,0.0011794493766501,0.00120207935106,0.0013538338243961,0.0005455598002299,-9.81766414642334,0,0,29.40580177307129,1,1,760,800,5.480307,0,0.00120207935106
1778785735.419498,76604346,0,0.0011222690809518,0.0009903780883178,0.0010936446487903,0.0002175347472075,-0.0007654303335584,-9.817156791687012,0,0,29.407882690429688,1,1,1000,1000,5.520291,0,0.0010936446487903
1778785735.419498,76604346,1,0.0012352641206234,0.0009844965534284,0.001195169868879,0.0008168460335582,-0.0013043549843132,-9.816914558410645,0,0,29.407882690429688,1,1,760,800,5.520291,0,0.001195169868879
1778785735.459482,76644330,0,0.0010647239396348,0.0011509106261655,0.0009973056148737,-0.0020018436480313,-0.0013139876537024,-9.819127082824709,0,0,29.40995979309082,1,1,1000,1000,5.560275,0,0.0009973056148737
1778785735.459482,76644330,1,0.0011639549629762,0.0010284343734383,0.0010243258439004,0.0006940213497728,-0.001336190267466,-9.814746856689451,0,0,29.40995979309082,1,1,760,800,5.560275,0,0.0010243258439004
1778785735.499466,76684314,0,0.0011324912775307,0.0010817311704158,0.0011195584665983,-0.0013338616117835,-0.0002061886916635,-9.816727638244627,0,0,29.412038803100582,1,1,1000,1000,5.600259,0,0.0011195584665983
1778785735.499466,76684314,1,0.0011060687247663,0.0010832916013896,0.0010736177209764,-0.0006027651834301,-0.0014560018898919,-9.819517135620115,0,0,29.412038803100582,1,1,760,800,5.600259,0,0.0010736177209764
1778785735.53945,76724298,0,0.0010057446779683,0.0011244066990911,0.0011356739560142,-0.0014939620159566,0.00015786763106,-9.817102432250977,0,0,29.41411590576172,1,1,1000,1000,5.640243,0,0.0011356739560142
1778785735.53945,76724298,1,0.0012599640758708,0.0011679746676236,0.0010150911984965,-0.0039742356166243,-0.0001728151983115,-9.819466590881348,0,0,29.41411590576172,1,1,760,800,5.640243,0,0.0010150911984965
1778785735.579434,76764282,0,0.0011197009589523,0.0010520266368985,0.0010922639630734,-0.0004736757255159,-0.0020700474269688,-9.816311836242676,0,0,29.416194915771484,1,1,1000,1000,5.680227,0,0.0010922639630734
