timestamp,TimeUS,I,Alt,AltAMSL,Press,Temp,CRt,SMS,Offset,GndTemp,H,CPress,TimeSec,AttackActive_BARO,Alt_attacked
1778788392.760016,65945278,0,0.00372314453125,584.0936889648438,94502.828125,30.51,0.0,65945,0.0,28.02182960510254,1,94502.828125,0.0,0,0.00372314453125
1778788392.760016,65945278,1,0.00079345703125,584.0907592773438,94501.5859375,30.51,0.0,65945,0.0,28.02182960510254,1,94501.5859375,0.0,0,0.00079345703125
1778788392.859976,66045238,0,0.00372314453125,584.0936889648438,94502.828125,30.52,0.0,66045,0.0,28.02182960510254,1,94502.828125,0.09996,0,0.00372314453125
1778788392.859976,66045238,1,0.08038330078125,584.1703491210938,94500.6875,30.52,0.0,66045,0.0,28.02182960510254,1,94500.6875,0.09996,0,0.08038330078125
1778788392.959936,66145198,0,0.00372314453125,584.0936889648438,94502.828125,30.52,0.0,66145,0.0,28.02182960510254,1,94502.828125,0.19992,0,0.00372314453125
1778788392.959936,66145198,1,-0.07830810546875,584.0116577148438,94502.4921875,30.52,0.0,66145,0.0,28.02182960510254,1,94502.4921875,0.19992,0,-0.07830810546875
1778788393.059896,66245158,0,0.00372314453125,584.0936889648438,94502.828125,30.52,0.0,66245,0.0,28.02182960510254,1,94502.828125,0.29988,0,0.00372314453125
1778788393.059896,66245158,1,-0.0079345703125,584.08203125,94501.6953125,30.52,0.0,66245,0.0,28.02182960510254,1,94501.6953125,0.29988,0,-0.0079345703125
1778788393.159856,66345118,0,0.00372314453125,584.0936889648438,94502.828125,30.52,0.0,66345,0.0,28.02182960510254,1,94502.828125,0.39984,0,0.00372314453125
1778788393.159856,66345118,1,-0.02264404296875,584.0673217773438,94501.8515625,30.52,0.0,66345,0.0,28.02182960510254,1,94501.8515625,0.39984,0,-0.02264404296875
1778788393.259816,66445078,0,0.00372314453125,584.0936889648438,94502.828125,30.53,0.0,66445,0.0,28.02182960510254,1,94502.828125,0.4998,0,0.00372314453125
1778788393.259816,66445078,1,0.0863037109375,584.17626953125,94500.625,30.53,0.0,66445,0.0,28.02182960510254,1,94500.625,0.4998,0,0.0863037109375
1778788393.359776,66545038,0,0.00372314453125,584.0936889648438,94502.828125,30.53,0.0,66545,0.0,28.02182960510254,1,94502.828125,0.59976,0,0.00372314453125
1778788393.359776,66545038,1,-0.06365966796875,584.0263061523438,94502.3203125,30.53,0.0,66545,0.0,28.02182960510254,1,94502.3203125,0.59976,0,-0.06365966796875
1778788393.459736,66644998,0,0.00372314453125,584.0936889648438,94502.828125,30.53,0.0,66644,0.0,28.02182960510254,1,94502.828125,0.69972,0,0.00372314453125
1778788393.459736,66644998,1,-0.10223388671875,583.9877319335938,94502.75,30.53,0.0,66644,0.0,28.02182960510254,1,94502.75,0.69972,0,-0.10223388671875
1778788393.559696,66744958,0,0.00372314453125,584.0936889648438,94502.828125,30.53,0.0,66744,0.0,28.02182960510254,1,94502.828125,0.79968,0,0.00372314453125
1778788393.559696,66744958,1,-0.06951904296875,584.0204467773438,94502.390625,30.53,0.0,66744,0.0,28.02182960510254,1,94502.390625,0.79968,0,-0.06951904296875
1778788393.659656,66844918,0,0.00372314453125,584.0936889648438,94502.828125,30.54,0.0,66844,0.0,28.02182960510254,1,94502.828125,0.89964,0,0.00372314453125
1778788393.659656,66844918,1,-0.24627685546875,583.8436889648438,94504.3984375,30.54,0.0,66844,0.0,28.02182960510254,1,94504.3984375,0.89964,0,-0.24627685546875
1778788393.759616,66944878,0,0.00372314453125,584.0936889648438,94502.828125,30.54,0.0,66944,0.0,28.02182960510254,1,94502.828125,0.9996,0,0.00372314453125
1778788393.759616,66944878,1,-0.10809326171875,583.9818725585938,94502.828125,30.54,0.0,66944,0.0,28.02182960510254,1,94502.828125,0.9996,0,-0.10809326171875
1778788393.859576,67044838,0,0.00372314453125,584.0936889648438,94502.828125,30.54,0.0,67044,0.0,28.02182960510254,1,94502.828125,1.09956,0,0.00372314453125
1778788393.859576,67044838,1,-0.16375732421875,583.9262084960938,94503.4609375,30.54,0.0,67044,0.0,28.02182960510254,1,94503.4609375,1.09956,0,-0.16375732421875
1778788393.959536,67144798,0,0.00372314453125,584.0936889648438,94502.828125,30.54,0.0,67144,0.0,28.02182960510254,1,94502.828125,1.19952,0,0.00372314453125
1778788393.959536,67144798,1,-0.05487060546875,584.0350952148438,94502.2265625,30.54,0.0,67144,0.0,28.02182960510254,1,94502.2265625,1.19952,0,-0.05487060546875
1778788394.059496,67244758,0,0.00372314453125,584.0936889648438,94502.828125,30.54,0.0,67244,0.0,28.02182960510254,1,94502.828125,1.29948,0,0.00372314453125
1778788394.059496,67244758,1,0.08038330078125,584.1703491210938,94500.6875,30.54,0.0,67244,0.0,28.02182960510254,1,94500.6875,1.29948,0,0.08038330078125
1778788394.159456,67344718,0,0.00372314453125,584.0936889648438,94502.828125,30.55,0.0,67344,0.0,28.02182960510254,1,94502.828125,1.39944,0,0.00372314453125
1778788394.159456,67344718,1,-0.24627685546875,583.8436889648438,94504.3984375,30.55,0.0,67344,0.0,28.02182960510254,1,94504.3984375,1.39944,0,-0.24627685546875
1778788394.259416,67444678,0,0.00372314453125,584.0936889648438,94502.828125,30.55,0.0,67444,0.0,28.02182960510254,1,94502.828125,1.4994,0,0.00372314453125
1778788394.259416,67444678,1,-0.18719482421875,583.9027709960938,94503.7265625,30.55,0.0,67444,0.0,28.02182960510254,1,94503.7265625,1.4994,0,-0.18719482421875
1778788394.359376,67544638,0,0.00372314453125,584.0936889648438,94502.828125,30.55,0.0,67544,0.0,28.02182960510254,1,94502.828125,1.59936,0,0.00372314453125
1778788394.359376,67544638,1,0.09210205078125,584.1820678710938,94500.546875,30.55,0.0,67544,0.0,28.02182960510254,1,94500.546875,1.59936,0,0.09210205078125
1778788394.459336,67644598,0,0.00372314453125,584.0936889648438,94502.828125,30.55,0.0,67644,0.0,28.02182960510254,1,94502.828125,1.69932,0,0.00372314453125
1778788394.459336,67644598,1,-0.21942138671875,583.8705444335938,94504.0859375,30.55,0.0,67644,0.0,28.02182960510254,1,94504.0859375,1.69932,0,-0.21942138671875
1778788394.559296,67744558,0,0.00372314453125,584.0936889648438,94502.828125,30.56,0.0,67744,0.0,28.02182960510254,1,94502.828125,1.79928,0,0.00372314453125
1778788394.559296,67744558,1,-0.11981201171875,583.9701538085938,94502.953125,30.56,0.0,67744,0.0,28.02182960510254,1,94502.953125,1.79928,0,-0.11981201171875
1778788394.659256,67844518,0,0.00372314453125,584.0936889648438,94502.828125,30.56,0.0,67844,0.0,28.02182960510254,1,94502.828125,1.89924,0,0.00372314453125
1778788394.659256,67844518,1,-0.19891357421875,583.8910522460938,94503.8515625,30.56,0.0,67844,0.0,28.02182960510254,1,94503.8515625,1.89924,0,-0.19891357421875
1778788394.759216,67944478,0,0.00372314453125,584.0936889648438,94502.828125,30.56,0.0,67944,0.0,28.02182960510254,1,94502.828125,1.9992,0,0.00372314453125
1778788394.759216,67944478,1,-0.19598388671875,583.8939819335938,94503.8203125,30.56,0.0,67944,0.0,28.02182960510254,1,94503.8203125,1.9992,0,-0.19598388671875
1778788394.8600087,68045271,0,0.00372314453125,584.0936889648438,94502.828125,30.56,0.0,68045,0.0,28.02182960510254,1,94502.828125,2.099993,0,0.00372314453125
1778788394.8600087,68045271,1,0.00665283203125,584.0966186523438,94501.5234375,30.56,0.0,68045,0.0,28.02182960510254,1,94501.5234375,2.099993,0,0.00665283203125
1778788394.959969,68145231,0,0.00372314453125,584.0936889648438,94502.828125,30.56,0.0,68145,0.0,28.02182960510254,1,94502.828125,2.199953,0,0.00372314453125
1778788394.959969,68145231,1,-0.07244873046875,584.0175170898438,94502.421875,30.56,0.0,68145,0.0,28.02182960510254,1,94502.421875,2.199953,0,-0.07244873046875
1778788395.0599291,68245191,0,0.00372314453125,584.0936889648438,94502.828125,30.57,0.0,68245,0.0,28.02182960510254,1,94502.828125,2.299913,0,0.00372314453125
1778788395.0599291,68245191,1,-0.14910888671875,583.9408569335938,94503.296875,30.57,0.0,68245,0.0,28.02182960510254,1,94503.296875,2.299913,0,-0.14910888671875
1778788395.1598887,68345151,0,0.00372314453125,584.0936889648438,94502.828125,30.57,0.0,68345,0.0,28.02182960510254,1,94502.828125,2.399873,0,0.00372314453125
1778788395.1598887,68345151,1,-0.17547607421875,583.9144897460938,94503.59375,30.57,0.0,68345,0.0,28.02182960510254,1,94503.59375,2.399873,0,-0.17547607421875
1778788395.259849,68445111,0,0.00372314453125,584.0936889648438,94502.828125,30.57,0.0,68445,0.0,28.02182960510254,1,94502.828125,2.499833,0,0.00372314453125
1778788395.259849,68445111,1,-0.07830810546875,584.0116577148438,94502.4921875,30.57,0.0,68445,0.0,28.02182960510254,1,94502.4921875,2.499833,0,-0.07830810546875
1778788395.3598087,68545071,0,0.00372314453125,584.0936889648438,94502.828125,30.57,0.0,68545,0.0,28.02182960510254,1,94502.828125,2.599793,0,0.00372314453125
1778788395.3598087,68545071,1,-0.04608154296875,584.0438842773438,94502.125,30.57,0.0,68545,0.0,28.02182960510254,1,94502.125,2.599793,0,-0.04608154296875
1778788395.459769,68645031,0,0.00372314453125,584.0936889648438,94502.828125,30.57,0.0,68645,0.0,28.02182960510254,1,94502.828125,2.699753,0,0.00372314453125
1778788395.459769,68645031,1,0.03009033203125,584.1200561523438,94501.2578125,30.57,0.0,68645,0.0,28.02182960510254,1,94501.2578125,2.699753,0,0.03009033203125
1778788395.559729,68744991,0,0.00372314453125,584.0936889648438,94502.828125,30.58,0.0,68744,0.0,28.02182960510254,1,94502.828125,2.799713,0,0.00372314453125
1778788395.559729,68744991,1,0.05694580078125,584.1469116210938,94500.953125,30.58,0.0,68744,0.0,28.02182960510254,1,94500.953125,2.799713,0,0.05694580078125
1778788395.6596887,68844951,0,0.00372314453125,584.0936889648438,94502.828125,30.58,0.0,68844,0.0,28.02182960510254,1,94502.828125,2.899673,0,0.00372314453125
1778788395.6596887,68844951,1,-0.29315185546875,583.7968139648438,94504.921875,30.58,0.0,68844,0.0,28.02182960510254,1,94504.921875,2.899673,0,-0.29315185546875
1778788395.759649,68944911,0,0.00372314453125,584.0936889648438,94502.828125,30.58,0.0,68944,0.0,28.02182960510254,1,94502.828125,2.999633,0,0.00372314453125
1778788395.759649,68944911,1,-0.22869873046875,583.8612670898438,94504.1953125,30.58,0.0,68944,0.0,28.02182960510254,1,94504.1953125,2.999633,0,-0.22869873046875
1778788395.8596091,69044871,0,0.00372314453125,584.0936889648438,94502.828125,30.58,0.0,69044,0.0,28.02182960510254,1,94502.828125,3.099593,0,0.00372314453125
1778788395.8596091,69044871,1,-0.10809326171875,583.9818725585938,94502.828125,30.58,0.0,69044,0.0,28.02182960510254,1,94502.828125,3.099593,0,-0.10809326171875
1778788395.9595687,69144831,0,0.00372314453125,584.0936889648438,94502.828125,30.58,0.0,69144,0.0,28.02182960510254,1,94502.828125,3.199553,0,0.00372314453125
1778788395.9595687,69144831,1,-0.11688232421875,583.9730834960938,94502.921875,30.58,0.0,69144,0.0,28.02182960510254,1,94502.921875,3.199553,0,-0.11688232421875
1778788396.059529,69244791,0,0.00372314453125,584.0936889648438,94502.828125,30.59,0.0,69244,0.0,28.02182960510254,1,94502.828125,3.299513,0,0.00372314453125
1778788396.059529,69244791,1,0.00958251953125,584.0995483398438,94501.4921875,30.59,0.0,69244,0.0,28.02182960510254,1,94501.4921875,3.299513,0,0.00958251953125
1778788396.159489,69344751,0,0.00372314453125,584.0936889648438,94502.828125,30.59,0.0,69344,0.0,28.02182960510254,1,94502.828125,3.399473,0,0.00372314453125
1778788396.159489,69344751,1,-0.24334716796875,583.8466186523438,94504.359375,30.59,0.0,69344,0.0,28.02182960510254,1,94504.359375,3.399473,0,-0.24334716796875
1778788396.259449,69444711,0,0.00372314453125,584.0936889648438,94502.828125,30.59,0.0,69444,0.0,28.02182960510254,1,94502.828125,3.499433,0,0.00372314453125
1778788396.259449,69444711,1,-0.25213623046875,583.8378295898438,94504.4609375,30.59,0.0,69444,0.0,28.02182960510254,1,94504.4609375,3.499433,0,-0.25213623046875
1778788396.359409,69544671,0,0.00372314453125,584.0936889648438,94502.828125,30.59,0.0,69544,0.0,28.02182960510254,1,94502.828125,3.599393,0,0.00372314453125
1778788396.359409,69544671,1,-0.26971435546875,583.8202514648438,94504.65625,30.59,0.0,69544,0.0,28.02182960510254,1,94504.65625,3.599393,0,-0.26971435546875
1778788396.4593687,69644631,0,0.00372314453125,584.0936889648438,94502.828125,30.59,0.0,69644,0.0,28.02182960510254,1,94502.828125,3.699353,0,0.00372314453125
1778788396.4593687,69644631,1,-0.23748779296875,583.8524780273438,94504.2890625,30.6,0.0,69644,0.0,28.02182960510254,1,94504.2890625,3.699353,0,-0.23748779296875
1778788396.559329,69744591,0,0.00372314453125,584.0936889648438,94502.828125,30.6,0.0,69744,0.0,28.02182960510254,1,94502.828125,3.799313,0,0.00372314453125
1778788396.559329,69744591,1,-0.23748779296875,583.8524780273438,94504.2890625,30.6,0.0,69744,0.0,28.02182960510254,1,94504.2890625,3.799313,0,-0.23748779296875
1778788396.6592891,69844551,0,0.00372314453125,584.0936889648438,94502.828125,30.6,0.0,69844,0.0,28.02182960510254,1,94502.828125,3.899273,0,0.00372314453125
1778788396.6592891,69844551,1,0.0540771484375,584.14404296875,94500.984375,30.6,0.0,69844,0.0,28.02182960510254,1,94500.984375,3.899273,0,0.0540771484375
1778788396.7592487,69944511,0,0.00372314453125,584.0936889648438,94502.828125,30.6,0.0,69944,0.0,28.02182960510254,1,94502.828125,3.999233,0,0.00372314453125
1778788396.7592487,69944511,1,0.02130126953125,584.1112670898438,94501.3515625,30.6,0.0,69944,0.0,28.02182960510254,1,94501.3515625,3.999233,0,0.02130126953125
1778788396.859209,70044471,0,0.00372314453125,584.0936889648438,94502.828125,30.6,0.0,70044,0.0,28.02182960510254,1,94502.828125,4.099193,0,0.00372314453125
1778788396.859209,70044471,1,-0.24334716796875,583.8466186523438,94504.359375,30.6,0.0,70044,0.0,28.02182960510254,1,94504.359375,4.099193,0,-0.24334716796875
1778788396.960002,70145264,0,0.00372314453125,584.0936889648438,94502.828125,30.6,0.0,70145,0.0,28.02182960510254,1,94502.828125,4.199986,0,0.00372314453125
1778788396.960002,70145264,1,-0.06072998046875,584.0292358398438,94502.2890625,30.6,0.0,70145,0.0,28.02182960510254,1,94502.2890625,4.199986,0,-0.06072998046875
1778788397.059962,70245224,0,0.00372314453125,584.0936889648438,94502.828125,30.61,0.0,70245,0.0,28.02182960510254,1,94502.828125,4.299946,0,0.00372314453125
1778788397.059962,70245224,1,-0.26971435546875,583.8202514648438,94504.65625,30.61,0.0,70245,0.0,28.02182960510254,1,94504.65625,4.299946,0,-0.26971435546875
1778788397.159922,70345184,0,0.01544189453125,584.1054077148438,94502.6875,30.61,0.0036560159642249,70345,0.0,28.02182960510254,1,94502.6875,4.399906,0,0.01544189453125
1778788397.159922,70345184,1,-0.09637451171875,583.9935913085938,94502.6875,30.61,0.0036560159642249,70345,0.0,28.02182960510254,1,94502.6875,4.399906,0,-0.09637451171875
1778788397.259882,70445144,0,0.01544189453125,584.1054077148438,94502.6875,30.61,0.0182679239660501,70445,0.0,28.02182960510254,1,94502.6875,4.499866,0,0.01544189453125
1778788397.259882,70445144,1,-0.21063232421875,583.8793334960938,94503.9921875,30.61,0.0182679239660501,70445,0.0,28.02182960510254,1,94503.9921875,4.499866,0,-0.21063232421875
1778788397.359842,70545104,0,0.03350830078125,584.1234741210938,94502.4921875,30.61,0.0422148294746875,70545,0.0,28.02182960510254,1,94502.4921875,4.599826,0,0.03350830078125
1778788397.359842,70545104,1,0.07159423828125,584.1615600585938,94500.78125,30.61,0.0422148294746875,70545,0.0,28.02182960510254,1,94500.78125,4.599826,0,0.07159423828125
1778788397.459802,70645064,0,0.04815673828125,584.1381225585938,94502.3203125,30.61,0.0694043859839439,70645,0.0,28.02182960510254,1,94502.3203125,4.699786,0,0.04815673828125
1778788397.459802,70645064,1,-0.01678466796875,584.0731811523438,94501.7890625,30.61,0.0694043859839439,70645,0.0,28.02182960510254,1,94501.7890625,4.699786,0,-0.01678466796875
1778788397.559762,70745024,0,0.07452392578125,584.1644897460938,94502.0234375,30.62,0.1058960035443306,70745,0.0,28.02182960510254,1,94502.0234375,4.799746,0,0.07452392578125
1778788397.559762,70745024,1,-0.00213623046875,584.0878295898438,94501.6171875,30.62,0.1058960035443306,70745,0.0,28.02182960510254,1,94501.6171875,4.799746,0,-0.00213623046875
1778788397.659722,70844984,0,0.09503173828125,584.1849975585938,94501.7890625,30.62,0.1535510718822479,70844,0.0,28.02182960510254,1,94501.7890625,4.899706,0,0.09503173828125
1778788397.659722,70844984,1,-0.15789794921875,583.9320678710938,94503.390625,30.62,0.1535510718822479,70844,0.0,28.02182960510254,1,94503.390625,4.899706,0,-0.15789794921875
1778788397.759682,70944944,0,0.13604736328125,584.2260131835938,94501.3203125,30.62,0.2015756964683532,70944,0.0,28.02182960510254,1,94501.3203125,4.999666,0,0.13604736328125
1778788397.759682,70944944,1,-0.10809326171875,583.9818725585938,94502.828125,30.62,0.2015756964683532,70944,0.0,28.02182960510254,1,94502.828125,4.999666,0,-0.10809326171875
1778788397.859642,71044904,0,0.1981201171875,584.2880859375,94500.625,30.62,0.259287565946579,71044,0.0,28.02182960510254,1,94500.625,5.099626,0,0.1981201171875
1778788397.859642,71044904,1,-0.01385498046875,584.0761108398438,94501.7578125,30.62,0.259287565946579,71044,0.0,28.02182960510254,1,94501.7578125,5.099626,0,-0.01385498046875
1778788397.959602,71144864,0,0.30706787109375,584.3970336914062,94499.3828125,30.62,0.3701675534248352,71144,0.0,28.02182960510254,1,94499.3828125,5.199586,0,0.30706787109375
1778788397.959602,71144864,1,0.25091552734375,584.3408813476562,94498.75,30.62,0.3701675534248352,71144,0.0,28.02182960510254,1,94498.75,5.199586,0,0.25091552734375
1778788398.059562,71244824,0,0.4271240234375,584.51708984375,94498.015625,30.62,0.5711089968681335,71244,0.0,28.02182960510254,1,94498.015625,5.299546,0,0.4271240234375
1778788398.059562,71244824,1,0.2362060546875,584.326171875,94498.921875,30.62,0.5711089968681335,71244,0.0,28.02182960510254,1,94498.921875,5.299546,0,0.2362060546875
1778788398.159522,71344784,0,0.54486083984375,584.6348266601562,94496.6875,30.63,0.8295605778694153,71344,0.0,28.02182960510254,1,94496.6875,5.399506,0,0.54486083984375
1778788398.159522,71344784,1,0.48919677734375,584.5791625976562,94496.046875,30.62,0.8295605778694153,71344,0.0,28.02182960510254,1,94496.046875,5.399506,0,0.48919677734375
1778788398.259482,71444744,0,0.66839599609375,584.7583618164062,94495.2734375,30.63,1.0480117797851562,71444,0.0,28.02182960510254,1,94495.2734375,5.499466,0,0.66839599609375
1778788398.259482,71444744,1,0.40081787109375,584.4907836914062,94497.046875,30.63,1.0480117797851562,71444,0.0,28.02182960510254,1,94497.046875,5.499466,0,0.40081787109375
1778788398.359442,71544704,0,0.7744140625,584.8643798828125,94494.078125,30.63,1.158885836601257,71544,0.0,28.02182960510254,1,94494.078125,5.599426,0,0.7744140625
1778788398.359442,71544704,1,0.8330078125,584.9229736328125,94492.140625,30.63,1.158885836601257,71544,0.0,28.02182960510254,1,94492.140625,5.599426,0,0.8330078125
1778788398.459402,71644664,0,0.90673828125,584.9967041015625,94492.578125,30.63,1.1826132535934448,71644,0.0,28.02182960510254,1,94492.578125,5.699386,0,0.90673828125
1778788398.459402,71644664,1,0.96533203125,585.0552978515625,94490.640625,30.63,1.1826132535934448,71644,0.0,28.02182960510254,1,94490.640625,5.699386,0,0.96533203125
1778788398.559362,71744624,0,1.0390625,585.1290283203125,94491.0703125,30.63,1.1869430541992188,71744,0.0,28.02182960510254,1,94491.0703125,5.799346,0,1.0390625
1778788398.559362,71744624,1,0.91265869140625,585.0026245117188,94491.2421875,30.63,1.1869430541992188,71744,0.0,28.02182960510254,1,94491.2421875,5.799346,0,0.91265869140625
1778788398.659322,71844584,0,1.17437744140625,585.2643432617188,94489.5390625,30.63,1.2236785888671875,71844,0.0,28.02182960510254,1,94489.5390625,5.899306,0,1.17437744140625
1778788398.659322,71844584,1,0.90673828125,584.9967041015625,94491.3046875,30.63,1.2236785888671875,71844,0.0,28.02182960510254,1,94491.3046875,5.899306,0,0.90673828125
1778788398.759282,71944544,0,1.32427978515625,585.4142456054688,94487.828125,30.63,1.2895585298538208,71944,0.0,28.02182960510254,1,94487.828125,5.999266,0,1.32427978515625
1778788398.759282,71944544,1,1.3858642578125,585.475830078125,94485.875,30.63,1.2895585298538208,71944,0.0,28.02182960510254,1,94485.875,5.999266,0,1.3858642578125
1778788398.859242,72044504,0,1.48297119140625,585.5729370117188,94486.03125,30.63,1.3600730895996094,72044,0.0,28.02182960510254,1,94486.03125,6.099226,0,1.48297119140625
1778788398.859242,72044504,1,1.3682861328125,585.458251953125,94486.0625,30.63,1.3600730895996094,72044,0.0,28.02182960510254,1,94486.0625,6.099226,0,1.3682861328125
1778788398.960035,72145297,0,1.6597900390625,585.749755859375,94484.03125,30.63,1.4421627521514893,72145,0.0,28.02182960510254,1,94484.03125,6.200019,0,1.6597900390625
1778788398.960035,72145297,1,1.3682861328125,585.458251953125,94486.0625,30.63,1.4421627521514893,72145,0.0,28.02182960510254,1,94486.0625,6.200019,0,1.3682861328125
1778788399.0599947,72245257,0,1.83612060546875,585.9260864257812,94482.0234375,30.63,1.5461009740829468,72245,0.0,28.02182960510254,1,94482.0234375,6.299979,0,1.83612060546875
1778788399.0599947,72245257,1,1.71551513671875,585.8054809570312,94482.1328125,30.63,1.5461009740829468,72245,0.0,28.02182960510254,1,94482.1328125,6.299979,0,1.71551513671875
1778788399.159955,72345217,0,2.03289794921875,586.1228637695312,94479.7890625,30.64,1.656799554824829,72345,0.0,28.02182960510254,1,94479.7890625,6.399939,0,2.03289794921875
1778788399.159955,72345217,1,1.92108154296875,586.0110473632812,94479.7890625,30.64,1.656799554824829,72345,0.0,28.02182960510254,1,94479.7890625,6.399939,0,1.92108154296875
1778788399.259915,72445177,0,2.23614501953125,586.3261108398438,94477.484375,30.64,1.7638646364212036,72445,0.0,28.02182960510254,1,94477.484375,6.499899,0,2.23614501953125
1778788399.259915,72445177,1,2.02410888671875,586.1140747070312,94478.625,30.64,1.7638646364212036,72445,0.0,28.02182960510254,1,94478.625,6.499899,0,2.02410888671875
1778788399.3598747,72545137,0,2.44757080078125,586.5375366210938,94475.0859375,30.64,1.8725448846817017,72545,0.0,28.02182960510254,1,94475.0859375,6.599859,0,2.44757080078125
1778788399.3598747,72545137,1,2.35968017578125,586.4496459960938,94474.8125,30.64,1.8725448846817017,72545,0.0,28.02182960510254,1,94474.8125,6.599859,0,2.35968017578125
1778788399.459835,72645097,0,2.66241455078125,586.7523803710938,94472.65625,30.64,1.9777270555496216,72645,0.0,28.02182960510254,1,94472.65625,6.699819,0,2.66241455078125
1778788399.459835,72645097,1,2.53594970703125,586.6259155273438,94472.8125,30.64,1.9777270555496216,72645,0.0,28.02182960510254,1,94472.8125,6.699819,0,2.53594970703125
1778788399.5597951,72745057,0,2.9066162109375,586.99658203125,94469.8828125,30.64,2.0704269409179688,72745,0.0,28.02182960510254,1,94469.8828125,6.799779,0,2.9066162109375
1778788399.5597951,72745057,1,2.8240966796875,586.9140625,94469.5390625,30.64,2.0704269409179688,72745,0.0,28.02182960510254,1,94469.5390625,6.799779,0,2.8240966796875
1778788399.6597548,72845017,0,3.1478271484375,587.23779296875,94467.1484375,30.64,2.168102264404297,72845,0.0,28.02182960510254,1,94467.1484375,6.899739,0,3.1478271484375
1778788399.6597548,72845017,1,3.0828857421875,587.1728515625,94466.609375,30.64,2.168102264404297,72845,0.0,28.02182960510254,1,94466.609375,6.899739,0,3.0828857421875
1778788399.759715,72944977,0,3.39453125,587.4844970703125,94464.34375,30.64,2.2830817699432373,72944,0.0,28.02182960510254,1,94464.34375,6.999699,0,3.39453125
1778788399.759715,72944977,1,3.0946044921875,587.1845703125,94466.4765625,30.64,2.2830817699432373,72944,0.0,28.02182960510254,1,94466.4765625,6.999699,0,3.0946044921875
1778788399.8596747,73044937,0,3.64453125,587.7344970703125,94461.5,30.64,2.3859798908233643,73044,0.0,28.02182960510254,1,94461.5,7.099659,0,3.64453125
1778788399.8596747,73044937,1,3.400390625,587.4903564453125,94463.0078125,30.64,2.3859798908233643,73044,0.0,28.02182960510254,1,94463.0078125,7.099659,0,3.400390625
1778788399.959635,73144897,0,3.89459228515625,587.9845581054688,94458.6640625,30.64,2.449870109558105,73144,0.0,28.02182960510254,1,94458.6640625,7.199619,0,3.89459228515625
1778788399.959635,73144897,1,3.76226806640625,587.8522338867188,94458.8984375,30.64,2.449870109558105,73144,0.0,28.02182960510254,1,94458.8984375,7.199619,0,3.76226806640625
1778788400.059595,73244857,0,4.14752197265625,588.2374877929688,94455.7890625,30.64,2.482936143875122,73244,0.0,28.02182960510254,1,94455.7890625,7.299579,0,4.14752197265625
1778788400.059595,73244857,1,4.08258056640625,588.1725463867188,94455.265625,30.64,2.482936143875122,73244,0.0,28.02182960510254,1,94455.265625,7.299579,0,4.08258056640625
1778788400.1595547,73344817,0,4.40643310546875,588.4963989257812,94452.859375,30.64,2.503571033477783,73344,0.0,28.02182960510254,1,94452.859375,7.399539,0,4.40643310546875
1778788400.1595547,73344817,1,4.26531982421875,588.3552856445312,94453.1875,30.64,2.503571033477783,73344,0.0,28.02182960510254,1,94453.1875,7.399539,0,4.26531982421875
1778788400.259515,73444777,0,4.65350341796875,588.7434692382812,94450.0546875,30.64,2.5221095085144043,73444,0.0,28.02182960510254,1,94450.0546875,7.499499,0,4.65350341796875
1778788400.259515,73444777,1,4.51824951171875,588.6082153320312,94450.328125,30.64,2.5221095085144043,73444,0.0,28.02182960510254,1,94450.328125,7.499499,0,4.51824951171875
1778788400.3594751,73544737,0,4.906494140625,588.9964599609375,94447.1796875,30.64,2.5334548950195312,73544,0.0,28.02182960510254,1,94447.1796875,7.599459,0,4.906494140625
1778788400.3594751,73544737,1,4.823974609375,588.9139404296875,94446.8515625,30.64,2.5334548950195312,73544,0.0,28.02182960510254,1,94446.8515625,7.599459,0,4.823974609375
1778788400.4594347,73644697,0,5.156494140625,589.2464599609375,94444.3515625,30.64,2.527961492538452,73644,0.0,28.02182960510254,1,94444.3515625,7.699419,0,5.156494140625
1778788400.4594347,73644697,1,5.09747314453125,589.1874389648438,94443.75,30.64,2.527961492538452,73644,0.0,28.02182960510254,1,94443.75,7.699419,0,5.09747314453125
1778788400.559395,73744657,0,5.4061279296875,589.49609375,94441.515625,30.64,2.5149154663085938,73744,0.0,28.02182960510254,1,94441.515625,7.799379,0,5.4061279296875
1778788400.559395,73744657,1,5.3592529296875,589.44921875,94440.7734375,30.64,2.5149154663085938,73744,0.0,28.02182960510254,1,94440.7734375,7.799379,0,5.3592529296875
1778788400.6593547,73844617,0,5.6531982421875,589.7431640625,94438.7109375,30.64,2.5060651302337646,73844,0.0,28.02182960510254,1,94438.7109375,7.899339,0,5.6531982421875
1778788400.6593547,73844617,1,5.67376708984375,589.7637329101562,94437.203125,30.64,2.5060651302337646,73844,0.0,28.02182960510254,1,94437.203125,7.899339,0,5.67376708984375
1778788400.759315,73944577,0,5.90325927734375,589.9932250976562,94435.875,30.64,2.4980545043945312,73944,0.0,28.02182960510254,1,94435.875,7.999299,0,5.90325927734375
1778788400.759315,73944577,1,5.97357177734375,590.0635375976562,94433.8046875,30.64,2.4980545043945312,73944,0.0,28.02182960510254,1,94433.8046875,7.999299,0,5.97357177734375
1778788400.859275,74044537,0,6.15618896484375,590.2461547851562,94433.0,30.64,2.491645812988281,74044,0.0,28.02182960510254,1,94433.0,8.099259,0,6.15618896484375
1778788400.859275,74044537,1,6.14752197265625,590.2374877929688,94431.8359375,30.64,2.491645812988281,74044,0.0,28.02182960510254,1,94431.8359375,8.099259,0,6.14752197265625
1778788400.9592347,74144497,0,6.40631103515625,590.4962768554688,94430.171875,30.64,2.4950788021087646,74144,0.0,28.02182960510254,1,94430.171875,8.199219,0,6.40631103515625
1778788400.9592347,74144497,1,6.37359619140625,590.4635620117188,94429.2734375,30.64,2.4950788021087646,74144,0.0,28.02182960510254,1,94429.2734375,8.199219,0,6.37359619140625
1778788401.060028,74245290,0,6.64459228515625,590.7345581054688,94427.4609375,30.64,2.500408887863159,74245,0.0,28.02182960510254,1,94427.4609375,8.300012,0,6.64459228515625
1778788401.060028,74245290,1,6.7208251953125,590.810791015625,94425.3359375,30.64,2.500408887863159,74245,0.0,28.02182960510254,1,94425.3359375,8.300012,0,6.7208251953125
1778788401.159988,74345250,0,6.8941650390625,590.984130859375,94424.6328125,30.64,2.486408233642578,74345,0.0,28.02182960510254,1,94424.6328125,8.399972,0,6.8941650390625
1778788401.159988,74345250,1,6.7886962890625,590.878662109375,94424.5625,30.64,2.486408233642578,74345,0.0,28.02182960510254,1,94424.5625,8.399972,0,6.7886962890625
1778788401.259948,74445210,0,7.1324462890625,591.222412109375,94421.9375,30.64,2.456372737884521,74445,0.0,28.02182960510254,1,94421.9375,8.499932,0,7.1324462890625
1778788401.259948,74445210,1,7.144287109375,591.2342529296875,94420.5234375,30.64,2.456372737884521,74445,0.0,28.02182960510254,1,94420.5234375,8.499932,0,7.144287109375
1778788401.359908,74545170,0,7.388427734375,591.4783935546875,94419.03125,30.64,2.439100980758667,74545,0.0,28.02182960510254,1,94419.03125,8.599892,0,7.388427734375
1778788401.359908,74545170,1,7.218017578125,591.3079833984375,94419.6953125,30.64,2.439100980758667,74545,0.0,28.02182960510254,1,94419.6953125,8.599892,0,7.218017578125
1778788401.459868,74645130,0,7.635498046875,591.7254638671875,94416.2265625,30.64,2.448371171951294,74645,0.0,28.02182960510254,1,94416.2265625,8.699852,0,7.635498046875
1778788401.459868,74645130,1,7.67071533203125,591.7606811523438,94414.5546875,30.64,2.448371171951294,74645,0.0,28.02182960510254,1,94414.5546875,8.699852,0,7.67071533203125
1778788401.559828,74745090,0,7.87677001953125,591.9667358398438,94413.4921875,30.64,2.469671726226806,74745,0.0,28.02182960510254,1,94413.4921875,8.799812,0,7.87677001953125
1778788401.559828,74745090,1,7.68243408203125,591.7723999023438,94414.421875,30.64,2.469671726226806,74745,0.0,28.02182960510254,1,94414.421875,8.799812,0,7.68243408203125
1778788401.659788,74845050,0,8.12384033203125,592.2138061523438,94410.6875,30.64,2.4765396118164062,74845,0.0,28.02182960510254,1,94410.6875,8.899772,0,8.12384033203125
1778788401.659788,74845050,1,8.12054443359375,592.2105102539062,94409.4609375,30.64,2.4765396118164062,74845,0.0,28.02182960510254,1,94409.4609375,8.899772,0,8.12054443359375
1778788401.759748,74945010,0,8.36468505859375,592.4546508789062,94407.953125,30.64,2.4618148803710938,74945,0.0,28.02182960510254,1,94407.953125,8.999732,0,8.36468505859375
1778788401.759748,74945010,1,8.37933349609375,592.4692993164062,94406.515625,30.64,2.4618148803710938,74945,0.0,28.02182960510254,1,94406.515625,8.999732,0,8.37933349609375
1778788401.859708,75044970,0,8.61761474609375,592.7075805664062,94405.0859375,30.64,2.4482462406158447,75044,0.0,28.02182960510254,1,94405.0859375,9.099692,0,8.61761474609375
1778788401.859708,75044970,1,8.45013427734375,592.5401000976562,94405.71875,30.64,2.4482462406158447,75044,0.0,28.02182960510254,1,94405.71875,9.099692,0,8.45013427734375
1778788401.959668,75144930,0,8.86767578125,592.9576416015625,94402.2421875,30.64,2.4561266899108887,75144,0.0,28.02182960510254,1,94402.2421875,9.199652,0,8.86767578125
1778788401.959668,75144930,1,8.63818359375,592.7281494140625,94403.578125,30.64,2.4561266899108887,75144,0.0,28.02182960510254,1,94403.578125,9.199652,0,8.63818359375
1778788402.059628,75244890,0,9.10601806640625,593.1959838867188,94399.546875,30.64,2.4774410724639893,75244,0.0,28.02182960510254,1,94399.546875,9.299612,0,9.10601806640625
1778788402.059628,75244890,1,9.07965087890625,593.1696166992188,94398.578125,30.64,2.4774410724639893,75244,0.0,28.02182960510254,1,94398.578125,9.299612,0,9.07965087890625
1778788402.159588,75344850,0,9.3560791015625,593.446044921875,94396.703125,30.64,2.48372745513916,75344,0.0,28.02182960510254,1,94396.703125,9.399572,0,9.3560791015625
1778788402.159588,75344850,1,9.1676025390625,593.257568359375,94397.578125,30.64,2.48372745513916,75344,0.0,28.02182960510254,1,94397.578125,9.399572,0,9.1676025390625
1778788402.259548,75444810,0,9.6031494140625,593.693115234375,94393.90625,30.64,2.468534469604492,75444,0.0,28.02182960510254,1,94393.90625,9.499532,0,9.6031494140625
1778788402.259548,75444810,1,9.4586181640625,593.548583984375,94394.28125,30.64,2.468534469604492,75444,0.0,28.02182960510254,1,94394.28125,9.499532,0,9.4586181640625
1778788402.359508,75544770,0,9.84686279296875,593.9368286132812,94391.1484375,30.64,2.4590022563934326,75544,0.0,28.02182960510254,1,94391.1484375,9.599492,0,9.84686279296875
1778788402.359508,75544770,1,9.78826904296875,593.8782348632812,94390.5390625,30.64,2.4590022563934326,75544,0.0,28.02182960510254,1,94390.5390625,9.599492,0,9.78826904296875
1778788402.459468,75644730,0,10.096923828125,594.1868896484375,94388.3046875,30.64,2.4630355834960938,75644,0.0,28.02182960510254,1,94388.3046875,9.699452,0,10.096923828125
1778788402.459468,75644730,1,9.979248046875,594.0692138671875,94388.3671875,30.64,2.4630355834960938,75644,0.0,28.02182960510254,1,94388.3671875,9.699452,0,9.979248046875
1778788402.559428,75744690,0,10.34698486328125,594.4369506835938,94385.46875,30.65,2.4677658081054688,75744,0.0,28.02182960510254,1,94385.46875,9.799412,0,10.34698486328125
1778788402.559428,75744690,1,10.073486328125,594.1634521484375,94387.3046875,30.65,2.4677658081054688,75744,0.0,28.02182960510254,1,94387.3046875,9.799412,0,10.073486328125
1778788402.659388,75844650,0,10.58526611328125,594.6752319335938,94382.765625,30.65,2.4724197387695312,75844,0.0,28.02182960510254,1,94382.765625,9.899372,0,10.58526611328125
1778788402.659388,75844650,1,10.46759033203125,594.5575561523438,94382.828125,30.65,2.4724197387695312,75844,0.0,28.02182960510254,1,94382.828125,9.899372,0,10.46759033203125
1778788402.759348,75944610,0,10.8353271484375,594.92529296875,94379.9296875,30.65,2.471351861953736,75944,0.0,28.02182960510254,1,94379.9296875,9.999332,0,10.8353271484375
1778788402.759348,75944610,1,10.8734130859375,594.96337890625,94378.234375,30.64,2.471351861953736,75944,0.0,28.02182960510254,1,94378.234375,9.999332,0,10.8734130859375
1778788402.859308,76044570,0,11.0882568359375,595.17822265625,94377.0703125,30.65,2.4627110958099365,76044,0.0,28.02182960510254,1,94377.0703125,10.099292,1,16.0882568359375
1778788402.859308,76044570,1,11.02337646484375,595.1133422851562,94376.53125,30.65,2.4627110958099365,76044,0.0,28.02182960510254,1,94376.53125,10.099292,1,16.02337646484375
1778788402.959268,76144530,0,11.326171875,595.4161376953125,94374.3671875,30.65,2.4644851684570312,76144,0.0,28.02182960510254,1,94374.3671875,10.199252,1,16.326171875
1778788402.959268,76144530,1,11.33203125,595.4219970703125,94373.03125,30.65,2.4644851684570312,76144,0.0,28.02182960510254,1,94373.03125,10.199252,1,16.33203125
1778788403.059228,76244490,0,11.576171875,595.6661376953125,94371.53125,30.65,2.4721717834472656,76244,0.0,28.02182960510254,1,94371.53125,10.299212,1,16.576171875
1778788403.059228,76244490,1,11.62310791015625,595.7130737304688,94369.734375,30.64,2.4721717834472656,76244,0.0,28.02182960510254,1,94369.734375,10.299212,1,16.62310791015625
1778788403.160021,76345283,0,11.8145751953125,595.904541015625,94368.828125,30.65,2.4634358882904053,76345,0.0,28.02182960510254,1,94368.828125,10.400005,1,16.8145751953125
1778788403.160021,76345283,1,11.576171875,595.6661376953125,94370.2578125,30.65,2.4634358882904053,76345,0.0,28.02182960510254,1,94370.2578125,10.400005,1,16.576171875
1778788403.259981,76445243,0,12.0557861328125,596.145751953125,94366.1015625,30.65,2.4421474933624268,76445,0.0,28.02182960510254,1,94366.1015625,10.499965,1,17.0557861328125
1778788403.259981,76445243,1,11.7701416015625,595.860107421875,94368.0703125,30.65,2.4421474933624268,76445,0.0,28.02182960510254,1,94368.0703125,10.499965,1,16.7701416015625
1778788403.359941,76545203,0,12.29412841796875,596.3840942382812,94363.3984375,30.65,2.4208462238311768,76545,0.0,28.02182960510254,1,94363.3984375,10.599925,1,17.29412841796875
1778788403.359941,76545203,1,12.0084228515625,596.098388671875,94365.3671875,30.65,2.4208462238311768,76545,0.0,28.02182960510254,1,94365.3671875,10.599925,1,17.0084228515625
1778788403.459901,76645163,0,12.51434326171875,596.6043090820312,94360.8984375,30.65,2.397507905960083,76645,0.0,28.02182960510254,1,94360.8984375,10.699885,1,17.51434326171875
1778788403.459901,76645163,1,12.40252685546875,596.4924926757812,94360.8984375,30.65,2.397507905960083,76645,0.0,28.02182960510254,1,94360.8984375,10.699885,1,17.40252685546875
1778788403.5598607,76745123,0,12.73516845703125,596.8251342773438,94358.3984375,30.65,2.358670473098755,76745,0.0,28.02182960510254,1,94358.3984375,10.799845,1,17.73516845703125
1778788403.5598607,76745123,1,12.620361328125,596.7103271484375,94358.4296875,30.65,2.358670473098755,76745,0.0,28.02182960510254,1,94358.4296875,10.799845,1,17.620361328125
1778788403.659821,76845083,0,12.946533203125,597.0364990234375,94355.9921875,30.65,2.29476261138916,76845,0.0,28.02182960510254,1,94355.9921875,10.899805,1,17.946533203125
1778788403.659821,76845083,1,12.684814453125,596.7747802734375,94357.6875,30.65,2.29476261138916,76845,0.0,28.02182960510254,1,94357.6875,10.899805,1,17.684814453125
1778788403.7597811,76945043,0,13.13507080078125,597.2250366210938,94353.8515625,30.65,2.2152137756347656,76945,0.0,28.02182960510254,1,94353.8515625,10.999765,1,18.13507080078125
1778788403.7597811,76945043,1,12.92022705078125,597.0101928710938,94355.03125,30.65,2.2152137756347656,76945,0.0,28.02182960510254,1,94355.03125,10.999765,1,17.92022705078125
1778788403.8597407,77045003,0,13.3260498046875,597.416015625,94351.6953125,30.65,2.123432159423828,77045,0.0,28.02182960510254,1,94351.6953125,11.099725,1,18.3260498046875
1778788403.8597407,77045003,1,13.3055419921875,597.3955078125,94350.65625,30.65,2.123432159423828,77045,0.0,28.02182960510254,1,94350.65625,11.099725,1,18.3055419921875
1778788403.959701,77144963,0,13.5057373046875,597.595703125,94349.6640625,30.65,2.018740653991699,77144,0.0,28.02182960510254,1,94349.6640625,11.199685,1,18.5057373046875
1778788403.959701,77144963,1,13.2733154296875,597.36328125,94351.0234375,30.65,2.018740653991699,77144,0.0,28.02182960510254,1,94351.0234375,11.199685,1,18.2733154296875
1778788404.0596611,77244923,0,13.66448974609375,597.7544555664062,94347.859375,30.65,1.918640613555908,77244,0.0,28.02182960510254,1,94347.859375,11.299645,1,18.66448974609375
1778788404.0596611,77244923,1,13.5584716796875,597.6484375,94347.7890625,30.65,1.918640613555908,77244,0.0,28.02182960510254,1,94347.7890625,11.299645,1,18.5584716796875
1778788404.159621,77344883,0,13.8173828125,597.9073486328125,94346.125,30.65,1.820528268814087,77344,0.0,28.02182960510254,1,94346.125,11.399605,1,18.8173828125
1778788404.159621,77344883,1,13.60540771484375,597.6953735351562,94347.2578125,30.65,1.820528268814087,77344,0.0,28.02182960510254,1,94347.2578125,11.399605,1,18.60540771484375
1778788404.259581,77444843,0,13.96728515625,598.0572509765625,94344.421875,30.65,1.70601487159729,77444,0.0,28.02182960510254,1,94344.421875,11.499565,1,18.96728515625
1778788404.259581,77444843,1,13.66748046875,597.7574462890625,94346.5546875,30.65,1.70601487159729,77444,0.0,28.02182960510254,1,94346.5546875,11.499565,1,18.66748046875
1778788404.3595407,77544803,0,14.09375,598.1837158203125,94342.9921875,30.65,1.5905866622924805,77544,0.0,28.02182960510254,1,94342.9921875,11.599525,1,19.09375
1778788404.3595407,77544803,1,14.16998291015625,598.2599487304688,94340.859375,30.65,1.5905866622924805,77544,0.0,28.02182960510254,1,94340.859375,11.599525,1,19.16998291015625
1778788404.459501,77644763,0,14.21435546875,598.3043212890625,94341.625,30.65,1.4861925840377808,77644,0.0,28.02182960510254,1,94341.625,11.699485,1,19.21435546875
1778788404.459501,77644763,1,13.93798828125,598.0279541015625,94343.484375,30.65,1.4861925840377808,77644,0.0,28.02182960510254,1,94343.484375,11.699485,1,18.93798828125
1778788404.559461,77744723,0,14.32916259765625,598.4191284179688,94340.3203125,30.65,1.3764764070510864,77744,0.0,28.02182960510254,1,94340.3203125,11.799445,1,19.32916259765625
1778788404.559461,77744723,1,14.12310791015625,598.2130737304688,94341.390625,30.65,1.3764764070510864,77744,0.0,28.02182960510254,1,94341.390625,11.799445,1,19.12310791015625
1778788404.6594207,77844683,0,14.42584228515625,598.5158081054688,94339.21875,30.65,1.2636947631835938,77844,0.0,28.02182960510254,1,94339.21875,11.899405,1,19.42584228515625
1778788404.6594207,77844683,1,14.19635009765625,598.2863159179688,94340.5546875,30.65,1.2636947631835938,77844,0.0,28.02182960510254,1,94340.5546875,11.899405,1,19.19635009765625
1778788404.759381,77944643,0,14.51422119140625,598.6041870117188,94338.21875,30.65,1.1587905883789062,77944,0.0,28.02182960510254,1,94338.21875,11.999365,1,19.51422119140625
1778788404.759381,77944643,1,14.50836181640625,598.5983276367188,94337.0234375,30.65,1.1587905883789062,77944,0.0,28.02182960510254,1,94337.0234375,11.999365,1,19.50836181640625
1778788404.8593411,78044603,0,14.59674072265625,598.6867065429688,94337.2890625,30.66,1.0527420043945312,78044,0.0,28.02182960510254,1,94337.2890625,12.099325,1,19.59674072265625
1778788404.8593411,78044603,1,14.6378173828125,598.727783203125,94335.5546875,30.65,1.0527420043945312,78044,0.0,28.02182960510254,1,94335.5546875,12.099325,1,19.6378173828125
1778788404.9593008,78144563,0,14.66705322265625,598.7570190429688,94336.484375,30.66,0.9462928771972656,78144,0.0,28.02182960510254,1,94336.484375,12.199285,1,19.66705322265625
1778788404.9593008,78144563,1,14.69354248046875,598.7835083007812,94334.921875,30.66,0.9462928771972656,78144,0.0,28.02182960510254,1,94334.921875,12.199285,1,19.69354248046875
1778788405.059261,78244523,0,14.73504638671875,598.8250122070312,94335.7265625,30.66,0.8521080017089844,78244,0.0,28.02182960510254,1,94335.7265625,12.299245,1,19.73504638671875
1778788405.059261,78244523,1,14.5728759765625,598.662841796875,94336.28125,30.66,0.8521080017089844,78244,0.0,28.02182960510254,1,94336.28125,12.299245,1,19.5728759765625
1778788405.1592207,78344483,0,14.78778076171875,598.8777465820312,94335.1171875,30.66,0.7686232924461365,78344,0.0,28.02182960510254,1,94335.1171875,12.399205,1,19.78778076171875
1778788405.1592207,78344483,1,14.65838623046875,598.7483520507812,94335.3203125,30.66,0.7686232924461365,78344,0.0,28.02182960510254,1,94335.3203125,12.399205,1,19.65838623046875
1778788405.260014,78445276,0,14.82586669921875,598.9158325195312,94334.6875,30.66,0.6828517317771912,78445,0.0,28.02182960510254,1,94334.6875,12.499998,1,19.82586669921875
1778788405.260014,78445276,1,14.5347900390625,598.624755859375,94336.71875,30.66,0.6828517317771912,78445,0.0,28.02182960510254,1,94336.71875,12.499998,1,19.5347900390625
1778788405.359974,78545236,0,14.85272216796875,598.9426879882812,94334.390625,30.66,0.579935610294342,78545,0.0,28.02182960510254,1,94334.390625,12.599958,1,19.85272216796875
1778788405.359974,78545236,1,14.69940185546875,598.7893676757812,94334.8515625,30.66,0.579935610294342,78545,0.0,28.02182960510254,1,94334.8515625,12.599958,1,19.69940185546875
1778788405.459934,78645196,0,14.87615966796875,598.9661254882812,94334.125,30.66,0.4598812758922577,78645,0.0,28.02182960510254,1,94334.125,12.699918,1,19.87615966796875
1778788405.459934,78645196,1,14.65838623046875,598.7483520507812,94335.3203125,30.66,0.4598812758922577,78645,0.0,28.02182960510254,1,94335.3203125,12.699918,1,19.65838623046875
1778788405.559894,78745156,0,14.88787841796875,598.9778442382812,94333.984375,30.66,0.3458108603954315,78745,0.0,28.02182960510254,1,94333.984375,12.799878,1,19.88787841796875
1778788405.559894,78745156,1,14.71697998046875,598.8069458007812,94334.65625,30.66,0.3458108603954315,78745,0.0,28.02182960510254,1,94334.65625,12.799878,1,19.71697998046875
1778788405.659854,78845116,0,14.89666748046875,598.9866333007812,94333.890625,30.67,0.2538153827190399,78845,0.0,28.02182960510254,1,94333.890625,12.899838,1,19.89666748046875
1778788405.659854,78845116,1,14.7081298828125,598.798095703125,94334.7578125,30.67,0.2538153827190399,78845,0.0,28.02182960510254,1,94334.7578125,12.899838,1,19.7081298828125
1778788405.759814,78945076,0,14.89666748046875,598.9866333007812,94333.890625,30.67,0.1774030923843383,78945,0.0,28.02182960510254,1,94333.890625,12.999798,1,19.89666748046875
1778788405.759814,78945076,1,14.93475341796875,599.0247192382812,94332.1875,30.67,0.1774030923843383,78945,0.0,28.02182960510254,1,94332.1875,12.999798,1,19.93475341796875
1778788405.859774,79045036,0,14.88787841796875,598.9778442382812,94333.984375,30.67,0.106353759765625,79045,0.0,28.02182960510254,1,94333.984375,13.099758,1,19.88787841796875
1778788405.859774,79045036,1,14.86395263671875,598.9539184570312,94332.9921875,30.67,0.106353759765625,79045,0.0,28.02182960510254,1,94332.9921875,13.099758,1,19.86395263671875
1778788405.959734,79144996,0,14.88787841796875,598.9778442382812,94333.984375,30.67,0.0393860191106796,79144,0.0,28.02182960510254,1,94333.984375,13.199718,1,19.88787841796875
1778788405.959734,79144996,1,14.90252685546875,598.9924926757812,94332.5546875,30.67,0.0393860191106796,79144,0.0,28.02182960510254,1,94332.5546875,13.199718,1,19.90252685546875
1778788406.059694,79244956,0,14.87615966796875,598.9661254882812,94334.125,30.67,-0.01373291015625,79244,0.0,28.02182960510254,1,94334.125,13.299678,1,19.87615966796875
1778788406.059694,79244956,1,14.6143798828125,598.704345703125,94335.8203125,30.67,-0.01373291015625,79244,0.0,28.02182960510254,1,94335.8203125,13.299678,1,19.6143798828125
1778788406.159654,79344916,0,14.87615966796875,598.9661254882812,94334.125,30.67,-0.0431691594421863,79344,0.0,28.02182960510254,1,94334.125,13.399638,1,19.87615966796875
1778788406.159654,79344916,1,14.89373779296875,598.9837036132812,94332.6484375,30.67,-0.0431691594421863,79344,0.0,28.02182960510254,1,94332.6484375,13.399638,1,19.89373779296875
1778788406.259614,79444876,0,14.87615966796875,598.9661254882812,94334.125,30.67,-0.0505209639668464,79444,0.0,28.02182960510254,1,94334.125,13.499598,1,19.87615966796875
1778788406.259614,79444876,1,14.5963134765625,598.686279296875,94336.0234375,30.68,-0.0505209639668464,79444,0.0,28.02182960510254,1,94336.0234375,13.499598,1,19.5963134765625
1778788406.359574,79544836,0,14.86444091796875,598.9544067382812,94334.25,30.68,-0.0430833101272583,79544,0.0,28.02182960510254,1,94334.25,13.599558,1,19.86444091796875
1778788406.359574,79544836,1,14.61151123046875,598.7014770507812,94335.859375,30.68,-0.0430833101272583,79544,0.0,28.02182960510254,1,94335.859375,13.599558,1,19.61151123046875
1778788406.459534,79644796,0,14.86444091796875,598.9544067382812,94334.25,30.68,-0.0366333201527595,79644,0.0,28.02182960510254,1,94334.25,13.699518,1,19.86444091796875
1778788406.459534,79644796,1,14.76434326171875,598.8543090820312,94334.125,30.68,-0.0366333201527595,79644,0.0,28.02182960510254,1,94334.125,13.699518,1,19.76434326171875
1778788406.559494,79744756,0,14.86444091796875,598.9544067382812,94334.25,30.68,-0.040283203125,79744,0.0,28.02182960510254,1,94334.25,13.799478,1,19.86444091796875
1778788406.559494,79744756,1,14.71697998046875,598.8069458007812,94334.65625,30.68,-0.040283203125,79744,0.0,28.02182960510254,1,94334.65625,13.799478,1,19.71697998046875
1778788406.659454,79844716,0,14.86444091796875,598.9544067382812,94334.25,30.68,-0.03662109375,79844,0.0,28.02182960510254,1,94334.25,13.899438,1,19.86444091796875
1778788406.659454,79844716,1,14.78485107421875,598.8748168945312,94333.890625,30.68,-0.03662109375,79844,0.0,28.02182960510254,1,94333.890625,13.899438,1,19.78485107421875
1778788406.759414,79944676,0,14.86444091796875,598.9544067382812,94334.25,30.68,-0.0183105450123548,79944,0.0,28.02182960510254,1,94334.25,13.999398,1,19.86444091796875
1778788406.759414,79944676,1,14.6524658203125,598.742431640625,94335.3828125,30.68,-0.0183105450123548,79944,0.0,28.02182960510254,1,94335.3828125,13.999398,1,19.6524658203125
1778788406.859374,80044636,0,14.87615966796875,598.9661254882812,94334.125,30.68,0.0,80044,0.0,28.02182960510254,1,94334.125,14.099358,1,19.87615966796875
1778788406.859374,80044636,1,14.7081298828125,598.798095703125,94334.7578125,30.68,0.0,80044,0.0,28.02182960510254,1,94334.7578125,14.099358,1,19.7081298828125
1778788406.959334,80144596,0,14.87615966796875,598.9661254882812,94334.125,30.68,0.0183105450123548,80144,0.0,28.02182960510254,1,94334.125,14.199318,1,19.87615966796875
1778788406.959334,80144596,1,14.70526123046875,598.7952270507812,94334.7890625,30.69,0.0183105450123548,80144,0.0,28.02182960510254,1,94334.7890625,14.199318,1,19.70526123046875
1778788407.059294,80244556,0,14.87615966796875,598.9661254882812,94334.125,30.69,0.03662109375,80244,0.0,28.02182960510254,1,94334.125,14.299278,1,19.87615966796875
1778788407.059294,80244556,1,14.57867431640625,598.6686401367188,94336.21875,30.69,0.03662109375,80244,0.0,28.02182960510254,1,94336.21875,14.299278,1,19.57867431640625
1778788407.159254,80344516,0,14.88787841796875,598.9778442382812,94333.984375,30.69,0.040283203125,80344,0.0,28.02182960510254,1,94333.984375,14.399238,1,19.88787841796875
1778788407.159254,80344516,1,14.77606201171875,598.8660278320312,94333.984375,30.69,0.040283203125,80344,0.0,28.02182960510254,1,94333.984375,14.399238,1,19.77606201171875
1778788407.259214,80444476,0,14.88787841796875,598.9778442382812,94333.984375,30.69,0.0366210900247097,80444,0.0,28.02182960510254,1,94333.984375,14.499198,1,19.88787841796875
1778788407.259214,80444476,1,14.80242919921875,598.8923950195312,94333.6875,30.69,0.0366210900247097,80444,0.0,28.02182960510254,1,94333.6875,14.499198,1,19.80242919921875
1778788407.360007,80545269,0,14.89666748046875,598.9866333007812,94333.890625,30.69,0.0430130325257778,80545,0.0,28.02182960510254,1,94333.890625,14.599991,1,19.89666748046875
1778788407.360007,80545269,1,14.79364013671875,598.8836059570312,94333.78125,30.69,0.0430130325257778,80545,0.0,28.02182960510254,1,94333.78125,14.599991,1,19.79364013671875
1778788407.4599671,80645229,0,14.89666748046875,598.9866333007812,94333.890625,30.69,0.0502794124186039,80645,0.0,28.02182960510254,1,94333.890625,14.699951,1,19.89666748046875
1778788407.4599671,80645229,1,14.89666748046875,598.9866333007812,94332.6171875,30.69,0.0502794124186039,80645,0.0,28.02182960510254,1,94332.6171875,14.699951,1,19.89666748046875
1778788407.5599267,80745189,0,14.90545654296875,598.9954223632812,94333.78125,30.69,0.0483754649758338,80745,0.0,28.02182960510254,1,94333.78125,14.799911,1,19.90545654296875
1778788407.5599267,80745189,1,14.80828857421875,598.8982543945312,94333.625,30.69,0.0483754649758338,80745,0.0,28.02182960510254,1,94333.625,14.799911,1,19.80828857421875
1778788407.659887,80845149,0,14.90545654296875,598.9954223632812,94333.78125,30.69,0.0447224900126457,80845,0.0,28.02182960510254,1,94333.78125,14.899871,1,19.90545654296875
1778788407.659887,80845149,1,14.97576904296875,599.0657348632812,94331.71875,30.69,0.0447224900126457,80845,0.0,28.02182960510254,1,94331.71875,14.899871,1,19.97576904296875
1778788407.7598467,80945109,0,14.91424560546875,599.0042114257812,94333.6875,30.7,0.0438768118619918,80945,0.0,28.02182960510254,1,94333.6875,14.999831,1,19.91424560546875
1778788407.7598467,80945109,1,14.6290283203125,598.718994140625,94335.65625,30.7,0.0438768118619918,80945,0.0,28.02182960510254,1,94335.65625,14.999831,1,19.6290283203125
1778788407.859807,81045069,0,14.91424560546875,599.0042114257812,94333.6875,30.7,0.0439316071569919,81045,0.0,28.02182960510254,1,94333.6875,15.099791,1,19.91424560546875
1778788407.859807,81045069,1,14.85809326171875,598.9480590820312,94333.0546875,30.7,0.0439316071569919,81045,0.0,28.02182960510254,1,94333.0546875,15.099791,1,19.85809326171875
1778788407.959767,81145029,0,14.91424560546875,599.0042114257812,94333.6875,30.7,0.0411987341940403,81145,0.0,28.02182960510254,1,94333.6875,15.199751,1,19.91424560546875
1778788407.959767,81145029,1,14.72283935546875,598.8128051757812,94334.59375,30.7,0.0411987341940403,81145,0.0,28.02182960510254,1,94334.59375,15.199751,1,19.72283935546875
1778788408.0597267,81244989,0,14.92303466796875,599.0130004882812,94333.5859375,30.7,0.0329727418720722,81244,0.0,28.02182960510254,1,94333.5859375,15.299711,1,19.92303466796875
1778788408.0597267,81244989,1,14.77020263671875,598.8601684570312,94334.0625,30.7,0.0329727418720722,81244,0.0,28.02182960510254,1,94334.0625,15.299711,1,19.77020263671875
1778788408.159687,81344949,0,14.92303466796875,599.0130004882812,94333.5859375,30.7,0.0275300592184066,81344,0.0,28.02182960510254,1,94333.5859375,15.399671,1,19.92303466796875
1778788408.159687,81344949,1,14.62030029296875,598.7102661132812,94335.7578125,30.7,0.0275300592184066,81344,0.0,28.02182960510254,1,94335.7578125,15.399671,1,19.62030029296875
1778788408.2596471,81444909,0,14.92303466796875,599.0130004882812,94333.5859375,30.7,0.0303181149065494,81444,0.0,28.02182960510254,1,94333.5859375,15.499631,1,19.92303466796875
1778788408.2596471,81444909,1,14.64666748046875,598.7366333007812,94335.4609375,30.7,0.0303181149065494,81444,0.0,28.02182960510254,1,94335.4609375,15.499631,1,19.64666748046875
1778788408.3596067,81544869,0,14.93475341796875,599.0247192382812,94333.453125,30.7,0.0312351733446121,81544,0.0,28.02182960510254,1,94333.453125,15.599591,1,19.93475341796875
1778788408.3596067,81544869,1,14.98455810546875,599.0745239257812,94331.625,30.7,0.0312351733446121,81544,0.0,28.02182960510254,1,94331.625,15.599591,1,19.98455810546875
1778788408.459567,81644829,0,14.93475341796875,599.0247192382812,94333.453125,30.71,0.0321184061467647,81644,0.0,28.02182960510254,1,94333.453125,15.699551,1,19.93475341796875
1778788408.459567,81644829,1,14.90252685546875,598.9924926757812,94332.5546875,30.7,0.0321184061467647,81644,0.0,28.02182960510254,1,94332.5546875,15.699551,1,19.90252685546875
1778788408.5595267,81744789,0,14.93475341796875,599.0247192382812,94333.453125,30.71,0.0393783785402774,81744,0.0,28.02182960510254,1,94333.453125,15.799511,1,19.93475341796875
1778788408.5595267,81744789,1,14.77606201171875,598.8660278320312,94333.984375,30.71,0.0393783785402774,81744,0.0,28.02182960510254,1,94333.984375,15.799511,1,19.77606201171875
1778788408.659487,81844749,0,14.93475341796875,599.0247192382812,94333.453125,30.71,0.03662109375,81844,0.0,28.02182960510254,1,94333.453125,15.899471,1,19.93475341796875
1778788408.659487,81844749,1,14.64666748046875,598.7366333007812,94335.4609375,30.71,0.03662109375,81844,0.0,28.02182960510254,1,94335.4609375,15.899471,1,19.64666748046875
1778788408.759447,81944709,0,14.93475341796875,599.0247192382812,94333.453125,30.71,0.0183105450123548,81944,0.0,28.02182960510254,1,94333.453125,15.999431,1,19.93475341796875
1778788408.759447,81944709,1,14.75262451171875,598.8425903320312,94334.25,30.71,0.0183105450123548,81944,0.0,28.02182960510254,1,94334.25,15.999431,1,19.75262451171875
1778788408.8594067,82044669,0,14.94647216796875,599.0364379882812,94333.3203125,30.71,0.00732421875,82044,0.0,28.02182960510254,1,94333.3203125,16.099391,1,19.94647216796875
1778788408.8594067,82044669,1,14.7315673828125,598.821533203125,94334.484375,30.71,0.00732421875,82044,0.0,28.02182960510254,1,94334.484375,16.099391,1,19.7315673828125
1778788408.959367,82144629,0,14.94647216796875,599.0364379882812,94333.3203125,30.71,0.0183105450123548,82144,0.0,28.02182960510254,1,94333.3203125,16.199351,1,19.94647216796875
1778788408.959367,82144629,1,14.90545654296875,598.9954223632812,94332.5234375,30.71,0.0183105450123548,82144,0.0,28.02182960510254,1,94332.5234375,16.199351,1,19.90545654296875
1778788409.0593271,82244589,0,14.94647216796875,599.0364379882812,94333.3203125,30.71,0.03662109375,82244,0.0,28.02182960510254,1,94333.3203125,16.299311,1,19.94647216796875
1778788409.0593271,82244589,1,14.6378173828125,598.727783203125,94335.5546875,30.71,0.03662109375,82244,0.0,28.02182960510254,1,94335.5546875,16.299311,1,19.6378173828125
1778788409.1592867,82344549,0,14.94647216796875,599.0364379882812,94333.3203125,30.71,0.03662109375,82344,0.0,28.02182960510254,1,94333.3203125,16.399271,1,19.94647216796875
1778788409.1592867,82344549,1,14.95819091796875,599.0481567382812,94331.921875,30.71,0.03662109375,82344,0.0,28.02182960510254,1,94331.921875,16.399271,1,19.95819091796875
1778788409.259247,82444509,0,14.94647216796875,599.0364379882812,94333.3203125,30.72,0.0183105450123548,82444,0.0,28.02182960510254,1,94333.3203125,16.499231,1,19.94647216796875
1778788409.259247,82444509,1,14.97283935546875,599.0628051757812,94331.75,30.71,0.0183105450123548,82444,0.0,28.02182960510254,1,94331.75,16.499231,1,19.97283935546875
1778788409.3592072,82544469,0,14.95819091796875,599.0481567382812,94333.1953125,30.72,0.00732421875,82544,0.0,28.02182960510254,1,94333.1953125,16.599191,1,19.95819091796875
1778788409.3592072,82544469,1,14.89373779296875,598.9837036132812,94332.6484375,30.72,0.00732421875,82544,0.0,28.02182960510254,1,94332.6484375,16.599191,1,19.89373779296875
1778788409.46,82645262,0,14.95819091796875,599.0481567382812,94333.1953125,30.72,0.0183044541627168,82645,0.0,28.02182960510254,1,94333.1953125,16.699984,1,19.95819091796875
1778788409.46,82645262,1,14.85516357421875,598.9451293945312,94333.0859375,30.72,0.0183044541627168,82645,0.0,28.02182960510254,1,94333.0859375,16.699984,1,19.85516357421875
1778788409.55996,82745222,0,14.95819091796875,599.0481567382812,94333.1953125,30.72,0.0365784727036953,82745,0.0,28.02182960510254,1,94333.1953125,16.799944,1,19.95819091796875
1778788409.55996,82745222,1,14.93768310546875,599.0276489257812,94332.15625,30.72,0.0365784727036953,82745,0.0,28.02182960510254,1,94332.15625,16.799944,1,19.93768310546875
1778788409.65992,82845182,0,14.95819091796875,599.0481567382812,94333.1953125,30.72,0.0364873707294464,82845,0.0,28.02182960510254,1,94333.1953125,16.899904,1,19.95819091796875
1778788409.65992,82845182,1,14.96697998046875,599.0569458007812,94331.828125,30.72,0.0364873707294464,82845,0.0,28.02182960510254,1,94331.828125,16.899904,1,19.96697998046875
1778788409.75988,82945142,0,14.95819091796875,599.0481567382812,94333.1953125,30.72,0.0182679239660501,82945,0.0,28.02182960510254,1,94333.1953125,16.999864,1,19.95819091796875
1778788409.75988,82945142,1,14.88787841796875,598.9778442382812,94332.7265625,30.72,0.0182679239660501,82945,0.0,28.02182960510254,1,94332.7265625,16.999864,1,19.88787841796875
1778788409.85984,83045102,0,14.95819091796875,599.0481567382812,94333.1953125,30.72,0.0036560159642249,83045,0.0,28.02182960510254,1,94333.1953125,17.099824,1,19.95819091796875
1778788409.85984,83045102,1,14.6612548828125,598.751220703125,94335.2890625,30.72,0.0036560159642249,83045,0.0,28.02182960510254,1,94335.2890625,17.099824,1,19.6612548828125
1778788409.9598,83145062,0,14.96697998046875,599.0569458007812,94333.0859375,30.72,0.0027420120313763,83145,0.0,28.02182960510254,1,94333.0859375,17.199784,1,19.96697998046875
1778788409.9598,83145062,1,14.6846923828125,598.774658203125,94335.0234375,30.73,0.0027420120313763,83145,0.0,28.02182960510254,1,94335.0234375,17.199784,1,19.6846923828125
1778788410.05976,83245022,0,14.96697998046875,599.0569458007812,94333.0859375,30.73,0.0137329110875725,83245,0.0,28.02182960510254,1,94333.0859375,17.299744,1,19.96697998046875
1778788410.05976,83245022,1,15.02899169921875,599.1189575195312,94331.125,30.72,0.0137329110875725,83245,0.0,28.02182960510254,1,94331.125,17.299744,1,20.02899169921875
1778788410.15972,83344982,0,14.96697998046875,599.0569458007812,94333.0859375,30.73,0.0274704061448574,83344,0.0,28.02182960510254,1,94333.0859375,17.399704,1,19.96697998046875
1778788410.15972,83344982,1,14.75262451171875,598.8425903320312,94334.25,30.73,0.0274704061448574,83344,0.0,28.02182960510254,1,94334.25,17.399704,1,19.75262451171875
1778788410.25968,83444942,0,14.96697998046875,599.0569458007812,94333.0859375,30.73,0.0274979397654533,83444,0.0,28.02182960510254,1,94333.0859375,17.499664,1,19.96697998046875
1778788410.25968,83444942,1,14.91424560546875,599.0042114257812,94332.421875,30.73,0.0274979397654533,83444,0.0,28.02182960510254,1,94332.421875,17.499664,1,19.91424560546875
1778788410.35964,83544902,0,14.96697998046875,599.0569458007812,94333.0859375,30.73,0.0137650296092033,83544,0.0,28.02182960510254,1,94333.0859375,17.599624,1,19.96697998046875
1778788410.35964,83544902,1,15.04364013671875,599.1336059570312,94330.9609375,30.73,0.0137650296092033,83544,0.0,28.02182960510254,1,94330.9609375,17.599624,1,20.04364013671875
