timestamp,TimeUS,I,Status,GMS,GWk,NSats,HDop,Lat,Lng,Alt,Spd,GCrs,VZ,Yaw,U,TimeSec,AttackActive_GPS,Lat_attacked,Lng_attacked
1778785730.0,71184848,0,6,414548000,2418,10,1.21,-35.3632621,149.1652374,584.09,0.0,0.0,0.0,0.0,1,0.0,0,-35.3632621,149.1652374
1778785730.19992,71384768,0,6,414548200,2418,10,1.21,-35.3632621,149.1652374,584.09,0.0,0.0,0.0,0.0,1,0.19992,0,-35.3632621,149.1652374
1778785730.3998399,71584688,0,6,414548400,2418,10,1.21,-35.3632621,149.1652374,584.09,0.0,0.0,0.0,0.0,1,0.39984,0,-35.3632621,149.1652374
1778785730.5997598,71784608,0,6,414548600,2418,10,1.21,-35.3632621,149.1652374,584.09,0.0,0.0,0.0,0.0,1,0.59976,0,-35.3632621,149.1652374
1778785730.79968,71984528,0,6,414548800,2418,10,1.21,-35.3632621,149.1652374,584.09,0.0,0.0,0.0,0.0,1,0.79968,0,-35.3632621,149.1652374
1778785730.9996,72184448,0,6,414549000,2418,10,1.21,-35.3632621,149.1652374,584.09,0.0,0.0,0.0,0.0,1,0.9996,0,-35.3632621,149.1652374
1778785731.1995199,72384368,0,6,414549200,2418,10,1.21,-35.3632621,149.1652374,584.09,0.0,0.0,0.0,0.0,1,1.19952,0,-35.3632621,149.1652374
1778785731.3994398,72584288,0,6,414549400,2418,10,1.21,-35.3632621,149.1652374,584.09,0.0,0.0,0.0,0.0,1,1.39944,0,-35.3632621,149.1652374
1778785731.59936,72784208,0,6,414549600,2418,10,1.21,-35.3632621,149.1652374,584.09,0.0,0.0,0.0,0.0,1,1.59936,0,-35.3632621,149.1652374
1778785731.79928,72984128,0,6,414549800,2418,10,1.21,-35.3632621,149.1652374,584.09,0.0,0.0,0.0,0.0,1,1.79928,0,-35.3632621,149.1652374
1778785731.9991999,73184048,0,6,414550000,2418,10,1.21,-35.3632621,149.1652374,584.09,0.0,0.0,0.0,0.0,1,1.9992,0,-35.3632621,149.1652374
1778785732.1999528,73384801,0,6,414550200,2418,10,1.21,-35.3632621,149.1652374,584.09,0.0,0.0,0.0,0.0,1,2.199953,0,-35.3632621,149.1652374
1778785732.399873,73584721,0,6,414550400,2418,10,1.21,-35.3632621,149.1652374,584.09,0.0,0.0,0.0,0.0,1,2.399873,0,-35.3632621,149.1652374
1778785732.5997927,73784641,0,6,414550600,2418,10,1.21,-35.3632621,149.1652374,584.09,0.0,0.0,0.0,0.0,1,2.599793,0,-35.3632621,149.1652374
1778785732.799713,73984561,0,6,414550800,2418,10,1.21,-35.3632621,149.1652374,584.09,0.0,0.0,0.0,0.0,1,2.799713,0,-35.3632621,149.1652374
1778785732.9996328,74184481,0,6,414551000,2418,10,1.21,-35.3632621,149.1652374,584.09,0.0,0.0,0.0,0.0,1,2.999633,0,-35.3632621,149.1652374
1778785733.199553,74384401,0,6,414551200,2418,10,1.21,-35.3632621,149.1652374,584.09,0.0,0.0,0.0,0.0,1,3.199553,0,-35.3632621,149.1652374
1778785733.3994727,74584321,0,6,414551400,2418,10,1.21,-35.3632621,149.1652374,584.09,0.0,0.0,0.0,0.0,1,3.399473,0,-35.3632621,149.1652374
1778785733.599393,74784241,0,6,414551600,2418,10,1.21,-35.3632621,149.1652374,584.09,0.0,0.0,0.0,0.0,1,3.599393,0,-35.3632621,149.1652374
1778785733.7993128,74984161,0,6,414551800,2418,10,1.21,-35.3632621,149.1652374,584.09,0.0,0.0,0.0,0.0,1,3.799313,0,-35.3632621,149.1652374
1778785733.999233,75184081,0,6,414552000,2418,10,1.21,-35.3632621,149.1652374,584.09,0.0,0.0,0.0,0.0,1,3.999233,0,-35.3632621,149.1652374
1778785734.199986,75384834,0,6,414552200,2418,10,1.21,-35.3632621,149.1652374,584.09,0.0,0.0,0.0,0.0,1,4.199986,0,-35.3632621,149.1652374
1778785734.399906,75584754,0,6,414552400,2418,10,1.21,-35.3632621,149.1652374,584.09,0.0,0.0,0.0,0.0,1,4.399906,0,-35.3632621,149.1652374
1778785734.5998259,75784674,0,6,414552600,2418,10,1.21,-35.3632621,149.1652374,584.09,0.0,0.0,0.0,0.0,1,4.599826,0,-35.3632621,149.1652374
1778785734.799746,75984594,0,6,414552800,2418,10,1.21,-35.3632621,149.1652374,584.09,0.0,0.0,0.0,0.0,1,4.799746,0,-35.3632621,149.1652374
1778785734.999666,76184514,0,6,414553000,2418,10,1.21,-35.3632621,149.1652374,584.09,0.0,0.0,0.0,0.0,1,4.999666,0,-35.3632621,149.1652374
1778785735.199586,76384434,0,6,414553200,2418,10,1.21,-35.3632621,149.1652374,584.09,0.0,0.0,0.0,0.0,1,5.199586,0,-35.3632621,149.1652374
1778785735.3995059,76584354,0,6,414553400,2418,10,1.21,-35.3632621,149.1652374,584.09,0.0,0.0,0.0,0.0,1,5.399506,0,-35.3632621,149.1652374
1778785735.599426,76784274,0,6,414553600,2418,10,1.21,-35.3632621,149.1652374,584.09,0.0,0.0,0.0,0.0,1,5.599426,0,-35.3632621,149.1652374
1778785735.799346,76984194,0,6,414553800,2418,10,1.21,-35.3632621,149.1652374,584.09,0.0,0.0,0.0,0.0,1,5.799346,0,-35.3632621,149.1652374
1778785735.999266,77184114,0,6,414554000,2418,10,1.21,-35.3632621,149.1652374,584.09,0.0,125.45657348632812,0.0,0.0,1,5.999266,0,-35.3632621,149.1652374
1778785736.1991858,77384034,0,6,414554200,2418,10,1.21,-35.3632621,149.1652374,584.09,0.0,126.34615325927734,0.0,0.0,1,6.199186,0,-35.3632621,149.1652374
1778785736.3999388,77584787,0,6,414554400,2418,10,1.21,-35.3632621,149.1652374,584.09,0.0,305.6750183105469,0.0,0.0,1,6.399939,0,-35.3632621,149.1652374
1778785736.599859,77784707,0,6,414554600,2418,10,1.21,-35.3632621,149.1652374,584.09,0.0,306.6132507324219,0.0,0.0,1,6.599859,0,-35.3632621,149.1652374
1778785736.7997787,77984627,0,6,414554800,2418,10,1.21,-35.3632621,149.1652374,584.09,0.0,305.3632507324219,-0.0510000027716159,0.0,1,6.799779,0,-35.3632621,149.1652374
1778785736.9996989,78184547,0,6,414555000,2418,10,1.21,-35.3632621,149.1652374,584.12,0.0,306.7706604003906,-0.1570000052452087,0.0,1,6.999699,0,-35.3632621,149.1652374
1778785737.1996188,78384467,0,6,414555200,2418,10,1.21,-35.3632621,149.1652374,584.16,0.0,308.5444641113281,-0.2680000066757202,0.0,1,7.199619,0,-35.3632621,149.1652374
1778785737.3995388,78584387,0,6,414555400,2418,10,1.21,-35.3632621,149.1652374,584.24,0.0010000000474974,307.89703369140625,-0.6360000371932983,0.0,1,7.399539,0,-35.3632621,149.1652374
1778785737.5994587,78784307,0,6,414555600,2418,10,1.21,-35.3632621,149.1652374,584.41,0.0090000005438923,307.6275329589844,-1.0920000076293943,0.0,1,7.599459,0,-35.3632621,149.1652374
1778785737.7993789,78984227,0,6,414555800,2418,10,1.21,-35.3632621,149.1652374,584.65,0.0240000002086162,307.35870361328125,-1.1910001039505005,0.0,1,7.799379,0,-35.3632621,149.1652374
1778785737.9992988,79184147,0,6,414556000,2418,10,1.21,-35.3632621,149.1652373,584.89,0.038000002503395,307.1430053710937,-1.2030000686645508,0.0,1,7.999299,0,-35.3632621,149.1652373
1778785738.1992188,79384067,0,6,414556200,2418,10,1.21,-35.363262,149.1652372,585.14,0.0440000034868717,307.0606689453125,-1.3600000143051147,0.0,1,8.199219,0,-35.363262,149.1652372
1778785738.399972,79584820,0,6,414556400,2418,10,1.21,-35.363262,149.1652372,585.43,0.0430000014603138,307.2388916015625,-1.559000015258789,0.0,1,8.399972,0,-35.363262,149.1652372
1778785738.599892,79784740,0,6,414556600,2418,10,1.21,-35.3632619,149.1652371,585.76,0.0360000021755695,307.7911682128906,-1.7620000839233398,0.0,1,8.599892,0,-35.3632619,149.1652371
1778785738.7998118,79984660,0,6,414556800,2418,10,1.21,-35.3632619,149.165237,586.14,0.0280000008642673,308.86334228515625,-1.9720001220703125,0.0,1,8.799812,0,-35.3632619,149.165237
1778785738.999732,80184580,0,6,414557000,2418,10,1.21,-35.3632619,149.165237,586.55,0.0190000012516975,311.25457763671875,-2.186000108718872,0.0,1,8.999732,0,-35.3632619,149.165237
1778785739.199652,80384500,0,6,414557200,2418,10,1.21,-35.3632619,149.165237,587.01,0.0110000008717179,316.36602783203125,-2.370000123977661,0.0,1,9.199652,0,-35.3632619,149.165237
1778785739.399572,80584420,0,6,414557400,2418,10,1.21,-35.3632619,149.165237,587.5,0.0050000003539025,327.2916259765625,-2.4810001850128174,0.0,1,9.399572,0,-35.3632619,149.165237
1778785739.5994918,80784340,0,6,414557600,2418,10,1.21,-35.3632619,149.165237,588.0,0.0010000000474974,17.940420150756836,-2.526000022888184,0.0,1,9.599492,0,-35.3632619,149.165237
1778785739.799412,80984260,0,6,414557800,2418,10,1.21,-35.3632619,149.165237,588.5,0.0020000000949949,94.9375,-2.533000230789185,0.0,1,9.799412,0,-35.3632619,149.165237
1778785739.999332,81184180,0,6,414558000,2418,10,1.21,-35.3632619,149.165237,589.01,0.003000000026077,106.46202087402344,-2.5210001468658447,0.0,1,9.999332,0,-35.3632619,149.165237
1778785740.199252,81384100,0,6,414558200,2418,10,1.21,-35.3632619,149.165237,589.51,0.0040000001899898,109.9779281616211,-2.503000020980835,0.0,1,10.199252,1,-35.363141899999995,149.16511699999998
1778785740.4000049,81584853,0,6,414558400,2418,10,1.21,-35.3632619,149.165237,590.01,0.0050000003539025,112.51649475097656,-2.486000061035156,0.0,1,10.400005,1,-35.363141899999995,149.16511699999998
1778785740.599925,81784773,0,6,414558600,2418,10,1.21,-35.3632619,149.165237,590.51,0.006000000052154,115.66178894042967,-2.4730000495910645,0.0,1,10.599925,1,-35.363141899999995,149.16511699999998
1778785740.7998447,81984693,0,6,414558800,2418,10,1.21,-35.3632619,149.165237,591.0,0.0070000002160668,119.29449462890624,-2.4640002250671387,0.0,1,10.799845,1,-35.363141899999995,149.16511699999998
1778785740.9997647,82184613,0,6,414559000,2418,10,1.21,-35.3632619,149.165237,591.49,0.0090000005438923,122.52972412109376,-2.4600000381469727,0.0,1,10.999765,1,-35.363141899999995,149.16511699999998
1778785741.1996849,82384533,0,6,414559200,2418,10,1.21,-35.3632619,149.165237,591.98,0.0110000008717179,124.10445404052734,-2.4580001831054688,0.0,1,11.199685,1,-35.363141899999995,149.16511699999998
1778785741.399605,82584453,0,6,414559400,2418,10,1.21,-35.3632619,149.165237,592.48,0.0140000004321336,123.94157409667967,-2.4590001106262207,0.0,1,11.399605,1,-35.363141899999995,149.16511699999998
1778785741.5995247,82784373,0,6,414559600,2418,10,1.21,-35.3632619,149.165237,592.97,0.0170000009238719,123.74788665771484,-2.4600000381469727,0.0,1,11.599525,1,-35.363141899999995,149.16511699999998
1778785741.799445,82984293,0,6,414559800,2418,10,1.21,-35.3632619,149.165237,593.46,0.0200000014156103,123.75578308105467,-2.4640002250671387,0.0,1,11.799445,1,-35.363141899999995,149.16511699999998
1778785741.9993649,83184213,0,6,414560000,2418,10,1.21,-35.3632619,149.165237,593.95,0.0220000017434358,123.57711791992188,-2.469000101089477,0.0,1,11.999365,1,-35.363141899999995,149.16511699999998
1778785742.199285,83384133,0,6,414560200,2418,10,1.21,-35.3632619,149.1652371,594.45,0.0230000019073486,123.5151138305664,-2.4750001430511475,0.0,1,12.199285,1,-35.363141899999995,149.1651171
1778785742.3992047,83584053,0,6,414560400,2418,10,1.21,-35.3632619,149.1652372,594.94,0.0230000019073486,124.01947784423828,-2.4820001125335693,0.0,1,12.399205,1,-35.363141899999995,149.1651172
1778785742.599958,83784806,0,6,414560600,2418,10,1.21,-35.3632619,149.1652372,595.44,0.0230000019073486,124.82608032226562,-2.4790000915527344,0.0,1,12.599958,1,-35.363141899999995,149.1651172
1778785742.799878,83984726,0,6,414560800,2418,10,1.21,-35.3632619,149.1652373,595.93,0.0220000017434358,125.8653793334961,-2.4260001182556152,0.0,1,12.799878,1,-35.363141899999995,149.1651173
1778785742.9997978,84184646,0,6,414561000,2418,10,1.21,-35.363262,149.1652373,596.41,0.021000001579523,127.5873031616211,-2.2980000972747803,0.0,1,12.999798,1,-35.363141999999996,149.1651173
1778785743.199718,84384566,0,6,414561200,2418,10,1.21,-35.363262,149.1652373,596.85,0.0190000012516975,130.30722045898438,-2.120000123977661,0.0,1,13.199718,1,-35.363141999999996,149.1651173
1778785743.399638,84584486,0,6,414561400,2418,10,1.21,-35.363262,149.1652374,597.25,0.0180000010877847,134.137939453125,-1.9130001068115237,0.0,1,13.399638,1,-35.363141999999996,149.16511739999999
1778785743.5995579,84784406,0,6,414561600,2418,10,1.21,-35.363262,149.1652374,597.62,0.0160000007599592,138.78375244140625,-1.6950000524520874,0.0,1,13.599558,1,-35.363141999999996,149.16511739999999
1778785743.7994778,84984326,0,6,414561800,2418,10,1.21,-35.3632621,149.1652374,597.93,0.0140000004321336,143.38111877441406,-1.475000023841858,0.0,1,13.799478,1,-35.3631421,149.16511739999999
1778785743.999398,85184246,0,6,414562000,2418,10,1.21,-35.3632621,149.1652374,598.2,0.0110000008717179,147.4179229736328,-1.2590000629425049,0.0,1,13.999398,1,-35.3631421,149.16511739999999
1778785744.199318,85384166,0,6,414562200,2418,10,1.21,-35.3632621,149.1652375,598.43,0.0090000005438923,153.42056274414062,-1.0480000972747805,0.0,1,14.199318,1,-35.3631421,149.16511749999998
1778785744.3992379,85584086,0,6,414562400,2418,10,1.21,-35.3632621,149.1652375,598.62,0.0070000002160668,163.75965881347656,-0.843000054359436,0.0,1,14.399238,1,-35.3631421,149.16511749999998
1778785744.5999908,85784839,0,6,414562600,2418,10,1.21,-35.3632621,149.1652375,598.77,0.0050000003539025,181.4802398681641,-0.6410000324249268,0.0,1,14.599991,1,-35.3631421,149.16511749999998
1778785744.799911,85984759,0,6,414562800,2418,10,1.21,-35.3632621,149.1652375,598.88,0.003000000026077,214.1611785888672,-0.4430000185966491,0.0,1,14.799911,1,-35.3631421,149.16511749999998
1778785744.9998307,86184679,0,6,414563000,2418,10,1.21,-35.3632621,149.1652375,598.95,0.0040000001899898,252.2689208984375,-0.2470000088214874,0.0,1,14.999831,1,-35.3631421,149.16511749999998
1778785745.199751,86384599,0,6,414563200,2418,10,1.21,-35.3632621,149.1652375,598.98,0.0050000003539025,275.7977294921875,-0.0790000036358833,0.0,1,15.199751,1,-35.3631421,149.16511749999998
1778785745.3996708,86584519,0,6,414563400,2418,10,1.21,-35.3632621,149.1652375,598.99,0.0070000002160668,285.330810546875,0.0190000012516975,0.0,1,15.399671,1,-35.3631421,149.16511749999998
1778785745.599591,86784439,0,6,414563600,2418,10,1.21,-35.3632621,149.1652375,598.98,0.0100000007078051,288.8868713378906,0.0520000010728836,0.0,1,15.599591,1,-35.3631421,149.16511749999998
1778785745.7995107,86984359,0,6,414563800,2418,10,1.21,-35.3632621,149.1652375,598.96,0.0120000001043081,290.5800476074219,0.0480000004172325,0.0,1,15.799511,1,-35.3631421,149.16511749999998
1778785745.999431,87184279,0,6,414564000,2418,10,1.21,-35.3632621,149.1652375,598.96,0.0140000004321336,291.33624267578125,0.0270000007003545,0.0,1,15.999431,1,-35.3631421,149.16511749999998
1778785746.1993508,87384199,0,6,414564200,2418,10,1.21,-35.3632621,149.1652374,598.96,0.0160000007599592,292.3074951171875,0.003000000026077,0.0,1,16.199351,1,-35.3631421,149.16511739999999
1778785746.399271,87584119,0,6,414564400,2418,10,1.21,-35.3632621,149.1652374,598.96,0.0180000010877847,293.820556640625,-0.0170000009238719,0.0,1,16.399271,1,-35.3631421,149.16511739999999
1778785746.5991907,87784039,0,6,414564600,2418,10,1.21,-35.3632621,149.1652373,598.96,0.0190000012516975,295.5204772949219,-0.032999999821186,0.0,1,16.599191,1,-35.3631421,149.1651173
1778785746.799944,87984792,0,6,414564800,2418,10,1.21,-35.3632621,149.1652373,598.97,0.0200000014156103,298.009033203125,-0.0410000011324882,0.0,1,16.799944,1,-35.3631421,149.1651173
1778785746.9998639,88184712,0,6,414565000,2418,10,1.21,-35.3632621,149.1652373,598.98,0.0200000014156103,301.38446044921875,-0.0440000034868717,0.0,1,16.999864,1,-35.3631421,149.1651173
1778785747.199784,88384632,0,6,414565200,2418,10,1.21,-35.3632621,149.1652372,598.99,0.0200000014156103,304.908447265625,-0.0430000014603138,0.0,1,17.199784,1,-35.3631421,149.1651172
1778785747.399704,88584552,0,6,414565400,2418,10,1.21,-35.3632621,149.1652372,599.0,0.0190000012516975,308.3168029785156,-0.0390000008046627,0.0,1,17.399704,1,-35.3631421,149.1651172
1778785747.599624,88784472,0,6,414565600,2418,10,1.21,-35.3632621,149.1652372,599.0,0.0180000010877847,312.09649658203125,-0.0320000015199184,0.0,1,17.599624,1,-35.3631421,149.1651172
1778785747.7995439,88984392,0,6,414565800,2418,10,1.21,-35.363262,149.1652371,599.01,0.0170000009238719,315.99462890625,-0.0270000007003545,0.0,1,17.799544,1,-35.363141999999996,149.1651171
1778785747.999464,89184312,0,6,414566000,2418,10,1.21,-35.363262,149.165237,599.02,0.0160000007599592,319.4545593261719,-0.0230000019073486,0.0,1,17.999464,1,-35.363141999999996,149.16511699999998
1778785748.199384,89384232,0,6,414566200,2418,10,1.21,-35.363262,149.165237,599.02,0.0160000007599592,322.8251953125,-0.021000001579523,0.0,1,18.199384,1,-35.363141999999996,149.16511699999998
1778785748.399304,89584152,0,6,414566400,2418,10,1.21,-35.363262,149.165237,599.02,0.0140000004321336,326.78875732421875,-0.0200000014156103,0.0,1,18.399304,1,-35.363141999999996,149.16511699999998
1778785748.5992239,89784072,0,6,414566600,2418,10,1.21,-35.363262,149.165237,599.03,0.0130000002682209,331.6827087402344,-0.0190000012516975,0.0,1,18.599224,1,-35.363141999999996,149.16511699999998
1778785748.7999768,89984825,0,6,414566800,2418,10,1.21,-35.3632619,149.165237,599.03,0.0110000008717179,338.61187744140625,-0.0180000010877847,0.0,1,18.799977,1,-35.363141899999995,149.16511699999998
1778785748.999897,90184745,0,6,414567000,2418,10,1.21,-35.3632619,149.165237,599.04,0.0090000005438923,349.462646484375,-0.0160000007599592,0.0,1,18.999897,1,-35.363141899999995,149.16511699999998
1778785749.1998167,90384665,0,6,414567200,2418,10,1.21,-35.3632619,149.165237,599.04,0.0080000003799796,2.635139942169189,-0.0140000004321336,0.0,1,19.199817,1,-35.363141899999995,149.16511699999998
1778785749.399737,90584585,0,6,414567400,2418,10,1.21,-35.3632619,149.165237,599.04,0.0070000002160668,15.27303981781006,-0.0120000001043081,0.0,1,19.399737,1,-35.363141899999995,149.16511699999998
1778785749.5996568,90784505,0,6,414567600,2418,10,1.21,-35.3632619,149.165237,599.04,0.006000000052154,27.47146987915039,-0.0120000001043081,0.0,1,19.599657,1,-35.363141899999995,149.16511699999998
1778785749.799577,90984425,0,6,414567800,2418,10,1.21,-35.3632619,149.165237,599.05,0.006000000052154,38.372840881347656,-0.0120000001043081,0.0,1,19.799577,1,-35.363141899999995,149.16511699999998
1778785749.9994967,91184345,0,6,414568000,2418,10,1.21,-35.3632619,149.165237,599.05,0.0050000003539025,45.35400772094727,-0.0120000001043081,0.0,1,19.999497,1,-35.363141899999995,149.16511699999998
1778785750.1994169,91384265,0,6,414568200,2418,10,1.21,-35.3632619,149.165237,599.05,0.0050000003539025,50.812686920166016,-0.0120000001043081,0.0,1,20.199417,0,-35.3632619,149.165237
1778785750.3993368,91584185,0,6,414568400,2418,10,1.21,-35.3632619,149.165237,599.05,0.0050000003539025,58.93171691894531,-0.0110000008717179,0.0,1,20.399337,0,-35.3632619,149.165237
1778785750.5992568,91784105,0,6,414568600,2418,10,1.21,-35.3632619,149.165237,599.06,0.0050000003539025,69.71717071533203,-0.0100000007078051,0.0,1,20.599257,0,-35.3632619,149.165237
1778785750.7991767,91984025,0,6,414568800,2418,10,1.21,-35.3632618,149.165237,599.06,0.0050000003539025,81.809814453125,-0.0090000005438923,0.0,1,20.799177,0,-35.3632618,149.165237
1778785750.99993,92184778,0,6,414569000,2418,10,1.21,-35.3632617,149.165237,599.06,0.0050000003539025,92.21595001220705,-0.0090000005438923,0.0,1,20.99993,0,-35.3632617,149.165237
1778785751.1998498,92384698,0,6,414569200,2418,10,1.21,-35.3632617,149.165237,599.06,0.006000000052154,98.67245483398438,-0.0090000005438923,0.0,1,21.19985,0,-35.3632617,149.165237
1778785751.39977,92584618,0,6,414569400,2418,10,1.21,-35.3632617,149.165237,599.07,0.0070000002160668,104.21788024902344,-0.0090000005438923,0.0,1,21.39977,0,-35.3632617,149.165237
1778785751.59969,92784538,0,6,414569600,2418,10,1.21,-35.3632617,149.165237,599.07,0.0070000002160668,112.36148834228516,-0.0090000005438923,0.0,1,21.59969,0,-35.3632617,149.165237
1778785751.79961,92984458,0,6,414569800,2418,10,1.21,-35.3632617,149.165237,599.07,0.0080000003799796,121.9959945678711,-0.0080000003799796,0.0,1,21.79961,0,-35.3632617,149.165237
1778785751.9995298,93184378,0,6,414570000,2418,10,1.21,-35.3632617,149.165237,599.07,0.0100000007078051,130.98764038085938,-0.0080000003799796,0.0,1,21.99953,0,-35.3632617,149.165237
1778785752.19945,93384298,0,6,414570200,2418,10,1.21,-35.3632617,149.165237,599.07,0.0110000008717179,137.9967803955078,-0.0070000002160668,0.0,1,22.19945,0,-35.3632617,149.165237
1778785752.39937,93584218,0,6,414570400,2418,10,1.21,-35.3632617,149.165237,599.07,0.0130000002682209,143.02174377441406,-0.006000000052154,0.0,1,22.39937,0,-35.3632617,149.165237
1778785752.59929,93784138,0,6,414570600,2418,10,1.21,-35.3632617,149.1652371,599.08,0.0140000004321336,146.1348114013672,-0.0070000002160668,0.0,1,22.59929,0,-35.3632617,149.1652371
1778785752.7992098,93984058,0,6,414570800,2418,10,1.21,-35.3632618,149.1652372,599.08,0.0160000007599592,148.07550048828125,-0.0070000002160668,0.0,1,22.79921,0,-35.3632618,149.1652372
1778785752.999963,94184811,0,6,414571000,2418,10,1.21,-35.3632619,149.1652372,599.08,0.0170000009238719,149.88336181640625,-0.0070000002160668,0.0,1,22.999963,0,-35.3632619,149.1652372
1778785753.1998827,94384731,0,6,414571200,2418,10,1.21,-35.3632619,149.1652372,599.08,0.0180000010877847,151.60861206054688,-0.006000000052154,0.0,1,23.199883,0,-35.3632619,149.1652372
1778785753.3998027,94584651,0,6,414571400,2418,10,1.21,-35.3632619,149.1652372,599.08,0.0170000009238719,152.90631103515625,-0.006000000052154,0.0,1,23.399803,0,-35.3632619,149.1652372
1778785753.5997229,94784571,0,6,414571600,2418,10,1.21,-35.3632619,149.1652372,599.08,0.0140000004321336,153.6611785888672,-0.0050000003539025,0.0,1,23.599723,0,-35.3632619,149.1652372
1778785753.799643,94984491,0,6,414571800,2418,10,1.21,-35.363262,149.1652373,599.08,0.0110000008717179,153.7335205078125,-0.0050000003539025,0.0,1,23.799643,0,-35.363262,149.1652373
1778785753.9995627,95184411,0,6,414572000,2418,10,1.21,-35.363262,149.1652373,599.08,0.0080000003799796,153.74310302734375,-0.0050000003539025,0.0,1,23.999563,0,-35.363262,149.1652373
1778785754.199483,95384331,0,6,414572200,2418,10,1.21,-35.363262,149.1652373,599.09,0.006000000052154,155.92738342285156,-0.0050000003539025,0.0,1,24.199483,0,-35.363262,149.1652373
1778785754.3994029,95584251,0,6,414572400,2418,10,1.21,-35.363262,149.1652373,599.09,0.0040000001899898,162.99075317382812,-0.0040000001899898,0.0,1,24.399403,0,-35.363262,149.1652373
1778785754.599323,95784171,0,6,414572600,2418,10,1.21,-35.363262,149.1652373,599.09,0.0020000000949949,179.65924072265625,-0.0040000001899898,0.0,1,24.599323,0,-35.363262,149.1652373
1778785754.7992427,95984091,0,6,414572800,2418,10,1.21,-35.363262,149.1652373,599.09,0.0020000000949949,218.58010864257807,-0.003000000026077,0.0,1,24.799243,0,-35.363262,149.1652373
1778785754.999996,96184844,0,6,414573000,2418,10,1.21,-35.363262,149.1652373,599.09,0.0020000000949949,266.9174194335937,-0.003000000026077,0.0,1,24.999996,0,-35.363262,149.1652373
1778785755.199916,96384764,0,6,414573200,2418,10,1.21,-35.363262,149.1652373,599.09,0.003000000026077,294.806640625,-0.003000000026077,0.0,1,25.199916,0,-35.363262,149.1652373
1778785755.3998358,96584684,0,6,414573400,2418,10,1.21,-35.363262,149.1652373,599.09,0.003000000026077,306.39288330078125,-0.0020000000949949,0.0,1,25.399836,0,-35.363262,149.1652373
1778785755.599756,96784604,0,6,414573600,2418,10,1.21,-35.363262,149.1652373,599.09,0.003000000026077,307.3553466796875,-0.0020000000949949,0.0,1,25.599756,0,-35.363262,149.1652373
1778785755.799676,96984524,0,6,414573800,2418,10,1.21,-35.363262,149.1652373,599.09,0.003000000026077,301.5316772460937,-0.0010000000474974,0.0,1,25.799676,0,-35.363262,149.1652373
1778785755.9995959,97184444,0,6,414574000,2418,10,1.21,-35.363262,149.1652373,599.09,0.003000000026077,295.9462585449219,-0.0010000000474974,0.0,1,25.999596,0,-35.363262,149.1652373
1778785756.1995158,97384364,0,6,414574200,2418,10,1.21,-35.363262,149.1652373,599.09,0.0020000000949949,298.7709045410156,-0.0010000000474974,0.0,1,26.199516,0,-35.363262,149.1652373
1778785756.399436,97584284,0,6,414574400,2418,10,1.21,-35.363262,149.1652373,599.09,0.0020000000949949,307.62408447265625,-0.0010000000474974,0.0,1,26.399436,0,-35.363262,149.1652373
1778785756.599356,97784204,0,6,414574600,2418,10,1.21,-35.363262,149.1652373,599.09,0.0020000000949949,315.95751953125,-0.0010000000474974,0.0,1,26.599356,0,-35.363262,149.1652373
1778785756.7992759,97984124,0,6,414574800,2418,10,1.21,-35.363262,149.1652373,599.09,0.0020000000949949,319.669189453125,-0.0010000000474974,0.0,1,26.799276,0,-35.363262,149.1652373
1778785756.9991958,98184044,0,6,414575000,2418,10,1.21,-35.363262,149.1652373,599.09,0.0020000000949949,316.8712463378906,-0.0010000000474974,0.0,1,26.999196,0,-35.363262,149.1652373
1778785757.199949,98384797,0,6,414575200,2418,10,1.21,-35.363262,149.1652373,599.09,0.0020000000949949,310.8839416503906,-0.0010000000474974,0.0,1,27.199949,0,-35.363262,149.1652373
1778785757.3998687,98584717,0,6,414575400,2418,10,1.21,-35.363262,149.1652373,599.09,0.003000000026077,308.7049560546875,-0.0010000000474974,0.0,1,27.399869,0,-35.363262,149.1652373
1778785757.599789,98784637,0,6,414575600,2418,10,1.21,-35.363262,149.1652373,599.09,0.003000000026077,310.98907470703125,-0.0010000000474974,0.0,1,27.599789,0,-35.363262,149.1652373
1778785757.7997088,98984557,0,6,414575800,2418,10,1.21,-35.363262,149.1652373,599.09,0.003000000026077,313.7781066894531,-0.0010000000474974,0.0,1,27.799709,0,-35.363262,149.1652373
1778785757.999629,99184477,0,6,414576000,2418,10,1.21,-35.363262,149.1652373,599.09,0.003000000026077,315.48321533203125,0.0,0.0,1,27.999629,0,-35.363262,149.1652373
1778785758.1995487,99384397,0,6,414576200,2418,10,1.21,-35.363262,149.1652373,599.09,0.003000000026077,314.4658508300781,0.0,0.0,1,28.199549,0,-35.363262,149.1652373
1778785758.399469,99584317,0,6,414576400,2418,10,1.21,-35.363262,149.1652373,599.09,0.003000000026077,308.68017578125,0.0,0.0,1,28.399469,0,-35.363262,149.1652373
1778785758.5993888,99784237,0,6,414576600,2418,10,1.21,-35.363262,149.1652373,599.09,0.0020000000949949,299.0308532714844,0.0,0.0,1,28.599389,0,-35.363262,149.1652373
1778785758.799309,99984157,0,6,414576800,2418,10,1.21,-35.363262,149.1652373,599.09,0.0020000000949949,293.1719665527344,0.0,0.0,1,28.799309,0,-35.363262,149.1652373
1778785758.9992287,100184077,0,6,414577000,2418,10,1.21,-35.363262,149.1652373,599.09,0.0010000000474974,302.9781799316406,0.0,0.0,1,28.999229,0,-35.363262,149.1652373
1778785759.199982,100384830,0,6,414577200,2418,10,1.21,-35.363262,149.1652373,599.09,0.0010000000474974,322.0395202636719,0.0,0.0,1,29.199982,0,-35.363262,149.1652373
1778785759.3999019,100584750,0,6,414577400,2418,10,1.21,-35.363262,149.1652373,599.1,0.0020000000949949,329.41241455078125,0.0,0.0,1,29.399902,0,-35.363262,149.1652373
1778785759.599822,100784670,0,6,414577600,2418,10,1.21,-35.363262,149.1652373,599.1,0.0020000000949949,328.8888854980469,0.0,0.0,1,29.599822,0,-35.363262,149.1652373
1778785759.799742,100984590,0,6,414577800,2418,10,1.21,-35.363262,149.1652373,599.1,0.0020000000949949,322.1552429199219,0.0,0.0,1,29.799742,0,-35.363262,149.1652373
1778785759.999662,101184510,0,6,414578000,2418,10,1.21,-35.363262,149.1652373,599.1,0.0010000000474974,315.116943359375,0.0,0.0,1,29.999662,0,-35.363262,149.1652373
1778785760.1995819,101384430,0,6,414578200,2418,10,1.21,-35.363262,149.1652372,599.1,0.0010000000474974,321.9266357421875,0.0,0.0,1,30.199582,0,-35.363262,149.1652372
1778785760.399502,101584350,0,6,414578400,2418,10,1.21,-35.363262,149.1652372,599.09,0.0010000000474974,334.1630554199219,0.0010000000474974,0.0,1,30.399502,0,-35.363262,149.1652372
1778785760.599422,101784270,0,6,414578600,2418,10,1.21,-35.363262,149.1652372,599.09,0.0010000000474974,344.1663513183594,0.0010000000474974,0.0,1,30.599422,0,-35.363262,149.1652372
1778785760.799342,101984190,0,6,414578800,2418,10,1.21,-35.363262,149.1652372,599.09,0.0010000000474974,356.66571044921875,0.0010000000474974,0.0,1,30.799342,0,-35.363262,149.1652372
1778785760.9992619,102184110,0,6,414579000,2418,10,1.21,-35.363262,149.1652372,599.09,0.0010000000474974,15.8718900680542,0.0010000000474974,0.0,1,30.999262,0,-35.363262,149.1652372
1778785761.199182,102384030,0,6,414579200,2418,10,1.21,-35.363262,149.1652372,599.09,0.0020000000949949,38.53678894042969,0.0010000000474974,0.0,1,31.199182,0,-35.363262,149.1652372
1778785761.399935,102584783,0,6,414579400,2418,10,1.21,-35.363262,149.1652372,599.09,0.0020000000949949,50.74911880493164,0.0010000000474974,0.0,1,31.399935,0,-35.363262,149.1652372
1778785761.5998547,102784703,0,6,414579600,2418,10,1.21,-35.363262,149.1652372,599.09,0.003000000026077,54.00861740112305,0.0010000000474974,0.0,1,31.599855,0,-35.363262,149.1652372
1778785761.799775,102984623,0,6,414579800,2418,10,1.21,-35.363262,149.1652372,599.09,0.0040000001899898,56.5912971496582,0.0010000000474974,0.0,1,31.799775,0,-35.363262,149.1652372
1778785761.9996948,103184543,0,6,414580000,2418,10,1.21,-35.363262,149.1652372,599.09,0.0050000003539025,62.42709732055664,0.0,0.0,1,31.999695,0,-35.363262,149.1652372
1778785762.199615,103384463,0,6,414580200,2418,10,1.21,-35.363262,149.1652372,599.09,0.0050000003539025,69.84477996826172,0.0,0.0,1,32.199615,0,-35.363262,149.1652372
1778785762.3995347,103584383,0,6,414580400,2418,10,1.21,-35.363262,149.1652372,599.09,0.0050000003539025,76.72074127197266,0.0010000000474974,0.0,1,32.399535,0,-35.363262,149.1652372
1778785762.5994549,103784303,0,6,414580600,2418,10,1.21,-35.363262,149.1652372,599.09,0.0050000003539025,80.32683563232422,0.0010000000474974,0.0,1,32.599455,0,-35.363262,149.1652372
1778785762.7993748,103984223,0,6,414580800,2418,10,1.21,-35.363262,149.1652372,599.09,0.006000000052154,81.75648498535156,0.0010000000474974,0.0,1,32.799375,0,-35.363262,149.1652372
1778785762.999295,104184143,0,6,414581000,2418,10,1.21,-35.363262,149.1652372,599.09,0.006000000052154,83.46701049804688,0.0010000000474974,0.0,1,32.999295,0,-35.363262,149.1652372
1778785763.1992147,104384063,0,6,414581200,2418,10,1.21,-35.363262,149.1652372,599.09,0.006000000052154,84.74762725830078,0.0010000000474974,0.0,1,33.199215,0,-35.363262,149.1652372
1778785763.399968,104584816,0,6,414581400,2418,10,1.21,-35.363262,149.1652373,599.09,0.006000000052154,85.68605041503906,0.0010000000474974,0.0,1,33.399968,0,-35.363262,149.1652373
1778785763.5998878,104784736,0,6,414581600,2418,10,1.21,-35.363262,149.1652373,599.09,0.006000000052154,87.82679748535156,0.0010000000474974,0.0,1,33.599888,0,-35.363262,149.1652373
1778785763.799808,104984656,0,6,414581800,2418,10,1.21,-35.363262,149.1652373,599.09,0.006000000052154,90.69056701660156,0.0010000000474974,0.0,1,33.799808,0,-35.363262,149.1652373
1778785763.999728,105184576,0,6,414582000,2418,10,1.21,-35.363262,149.1652373,599.09,0.006000000052154,91.04314422607422,0.0010000000474974,0.0,1,33.999728,0,-35.363262,149.1652373
1778785764.199648,105384496,0,6,414582200,2418,10,1.21,-35.363262,149.1652373,599.09,0.0050000003539025,86.7314682006836,0.0010000000474974,0.0,1,34.199648,0,-35.363262,149.1652373
1778785764.3995678,105584416,0,6,414582400,2418,10,1.21,-35.363262,149.1652373,599.09,0.0040000001899898,79.11421966552734,0.0010000000474974,0.0,1,34.399568,0,-35.363262,149.1652373
1778785764.599488,105784336,0,6,414582600,2418,10,1.21,-35.363262,149.1652373,599.09,0.003000000026077,74.00096130371094,0.0010000000474974,0.0,1,34.599488,0,-35.363262,149.1652373
1778785764.799408,105984256,0,6,414582800,2418,10,1.21,-35.363262,149.1652373,599.09,0.0020000000949949,75.97152709960938,0.0010000000474974,0.0,1,34.799408,0,-35.363262,149.1652373
1778785764.999328,106184176,0,6,414583000,2418,10,1.21,-35.363262,149.1652374,599.09,0.0020000000949949,83.74996948242188,0.0010000000474974,0.0,1,34.999328,0,-35.363262,149.1652374
1778785765.1992478,106384096,0,6,414583200,2418,10,1.21,-35.363262,149.1652374,599.09,0.0010000000474974,90.84268951416016,0.0010000000474974,0.0,1,35.199248,0,-35.363262,149.1652374
1778785765.400001,106584849,0,6,414583400,2418,10,1.21,-35.363262,149.1652374,599.09,0.0010000000474974,98.9342269897461,0.0010000000474974,0.0,1,35.400001,0,-35.363262,149.1652374
1778785765.5999207,106784769,0,6,414583600,2418,10,1.21,-35.363262,149.1652374,599.09,0.0010000000474974,109.10318756103516,0.0010000000474974,0.0,1,35.599921,0,-35.363262,149.1652374
1778785765.7998407,106984689,0,6,414583800,2418,10,1.21,-35.363262,149.1652374,599.09,0.0,113.12862396240234,0.0010000000474974,0.0,1,35.799841,0,-35.363262,149.1652374
1778785765.9997609,107184609,0,6,414584000,2418,10,1.21,-35.363262,149.1652374,599.09,0.0,306.54205322265625,0.0010000000474974,0.0,1,35.999761,0,-35.363262,149.1652374
1778785766.199681,107384529,0,6,414584200,2418,10,1.21,-35.363262,149.1652374,599.09,0.0010000000474974,295.9569091796875,0.0010000000474974,0.0,1,36.199681,0,-35.363262,149.1652374
1778785766.3996007,107584449,0,6,414584400,2418,10,1.21,-35.363262,149.1652374,599.09,0.0020000000949949,287.16766357421875,0.0010000000474974,0.0,1,36.399601,0,-35.363262,149.1652374
1778785766.5995207,107784369,0,6,414584600,2418,10,1.21,-35.363262,149.1652374,599.09,0.0020000000949949,281.82916259765625,0.0010000000474974,0.0,1,36.599521,0,-35.363262,149.1652374
1778785766.7994409,107984289,0,6,414584800,2418,10,1.21,-35.363262,149.1652374,599.09,0.0020000000949949,278.7723388671875,0.0010000000474974,0.0,1,36.799441,0,-35.363262,149.1652374
1778785766.999361,108184209,0,6,414585000,2418,10,1.21,-35.363262,149.1652374,599.09,0.0020000000949949,277.28155517578125,0.0010000000474974,0.0,1,36.999361,0,-35.363262,149.1652374
1778785767.1992807,108384129,0,6,414585200,2418,10,1.21,-35.363262,149.1652374,599.09,0.0020000000949949,278.8985595703125,0.0010000000474974,0.0,1,37.199281,0,-35.363262,149.1652374
1778785767.399201,108584049,0,6,414585400,2418,10,1.21,-35.363262,149.1652374,599.09,0.0020000000949949,279.8416748046875,0.0010000000474974,0.0,1,37.399201,0,-35.363262,149.1652374
1778785767.599954,108784802,0,6,414585600,2418,10,1.21,-35.363262,149.1652374,599.08,0.003000000026077,275.5257568359375,0.0010000000474974,0.0,1,37.599954,0,-35.363262,149.1652374
1778785767.7998738,108984722,0,6,414585800,2418,10,1.21,-35.363262,149.1652374,599.08,0.0040000001899898,268.54559326171875,0.0010000000474974,0.0,1,37.799874,0,-35.363262,149.1652374
1778785767.999794,109184642,0,6,414586000,2418,10,1.21,-35.363262,149.1652374,599.08,0.0040000001899898,263.1424255371094,0.0010000000474974,0.0,1,37.999794,0,-35.363262,149.1652374
1778785768.199714,109384562,0,6,414586200,2418,10,1.21,-35.363262,149.1652374,599.08,0.0040000001899898,259.6539306640625,0.0010000000474974,0.0,1,38.199714,0,-35.363262,149.1652374
1778785768.399634,109584482,0,6,414586400,2418,10,1.21,-35.363262,149.1652374,599.08,0.0040000001899898,257.6187744140625,0.0,0.0,1,38.399634,0,-35.363262,149.1652374
1778785768.5995538,109784402,0,6,414586600,2418,10,1.21,-35.363262,149.1652374,599.08,0.0040000001899898,258.6285705566406,0.0,0.0,1,38.599554,0,-35.363262,149.1652374
1778785768.799474,109984322,0,6,414586800,2418,10,1.21,-35.363262,149.1652374,599.08,0.003000000026077,262.9603881835937,0.0,0.0,1,38.799474,0,-35.363262,149.1652374
1778785768.999394,110184242,0,6,414587000,2418,10,1.21,-35.363262,149.1652374,599.08,0.003000000026077,270.5545349121094,0.0,0.0,1,38.999394,0,-35.363262,149.1652374
1778785769.1993139,110384162,0,6,414587200,2418,10,1.21,-35.363262,149.1652374,599.08,0.003000000026077,278.2739562988281,0.0,0.0,1,39.199314,0,-35.363262,149.1652374
1778785769.3992338,110584082,0,6,414587400,2418,10,1.21,-35.363262,149.1652373,599.08,0.003000000026077,278.2110900878906,-0.0010000000474974,0.0,1,39.399234,0,-35.363262,149.1652373
1778785769.599987,110784835,0,6,414587600,2418,10,1.21,-35.363262,149.1652373,599.08,0.003000000026077,272.2336730957031,-0.0010000000474974,0.0,1,39.599987,0,-35.363262,149.1652373
1778785769.7999067,110984755,0,6,414587800,2418,10,1.21,-35.363262,149.1652373,599.08,0.003000000026077,266.0616149902344,-0.0010000000474974,0.0,1,39.799907,0,-35.363262,149.1652373
1778785769.999827,111184675,0,6,414588000,2418,10,1.21,-35.363262,149.1652373,599.09,0.003000000026077,260.7894897460937,-0.0010000000474974,0.0,1,39.999827,0,-35.363262,149.1652373
1778785770.1997468,111384595,0,6,414588200,2418,10,1.21,-35.363262,149.1652373,599.09,0.0020000000949949,253.972412109375,-0.0010000000474974,0.0,1,40.199747,0,-35.363262,149.1652373
1778785770.399667,111584515,0,6,414588400,2418,10,1.21,-35.363262,149.1652373,599.09,0.0020000000949949,241.5687255859375,-0.0010000000474974,0.0,1,40.399667,0,-35.363262,149.1652373
1778785770.5995867,111784435,0,6,414588600,2418,10,1.21,-35.363262,149.1652373,599.09,0.0010000000474974,222.2218780517578,0.0,0.0,1,40.599587,0,-35.363262,149.1652373
1778785770.799507,111984355,0,6,414588800,2418,10,1.21,-35.363262,149.1652373,599.09,0.0010000000474974,182.4356842041016,0.0,0.0,1,40.799507,0,-35.363262,149.1652373
1778785770.9994268,112184275,0,6,414589000,2418,10,1.21,-35.363262,149.1652373,599.09,0.0010000000474974,144.31163024902344,0.0,0.0,1,40.999427,0,-35.363262,149.1652373
1778785771.199347,112384195,0,6,414589200,2418,10,1.21,-35.363262,149.1652373,599.09,0.0010000000474974,134.4912109375,0.0,0.0,1,41.199347,0,-35.363262,149.1652373
1778785771.3992667,112584115,0,6,414589400,2418,10,1.21,-35.363262,149.1652373,599.09,0.0020000000949949,135.1219024658203,0.0,0.0,1,41.399267,0,-35.363262,149.1652373
1778785771.599187,112784035,0,6,414589600,2418,10,1.21,-35.363262,149.1652373,599.09,0.0020000000949949,135.84988403320312,0.0010000000474974,0.0,1,41.599187,0,-35.363262,149.1652373
1778785771.7999399,112984788,0,6,414589800,2418,10,1.21,-35.363262,149.1652373,599.09,0.0010000000474974,132.70750427246094,0.0010000000474974,0.0,1,41.79994,0,-35.363262,149.1652373
1778785771.99986,113184708,0,6,414590000,2418,10,1.21,-35.363262,149.1652373,599.09,0.0020000000949949,125.19002532958984,0.0010000000474974,0.0,1,41.99986,0,-35.363262,149.1652373
1778785772.19978,113384628,0,6,414590200,2418,10,1.21,-35.363262,149.1652373,599.09,0.0020000000949949,119.6527099609375,0.0010000000474974,0.0,1,42.19978,0,-35.363262,149.1652373
1778785772.3997,113584548,0,6,414590400,2418,10,1.21,-35.363262,149.1652373,599.08,0.0020000000949949,121.46061706542967,0.0010000000474974,0.0,1,42.3997,0,-35.363262,149.1652373
1778785772.5996199,113784468,0,6,414590600,2418,10,1.21,-35.363262,149.1652373,599.08,0.0020000000949949,128.47608947753906,0.0010000000474974,0.0,1,42.59962,0,-35.363262,149.1652373
1778785772.79954,113984388,0,6,414590800,2418,10,1.21,-35.363262,149.1652373,599.08,0.0010000000474974,133.06712341308594,0.0010000000474974,0.0,1,42.79954,0,-35.363262,149.1652373
1778785772.99946,114184308,0,6,414591000,2418,10,1.21,-35.363262,149.1652373,599.08,0.0010000000474974,128.3435821533203,0.0,0.0,1,42.99946,0,-35.363262,149.1652373
1778785773.19938,114384228,0,6,414591200,2418,10,1.21,-35.363262,149.1652373,599.08,0.0010000000474974,131.09901428222656,0.0,0.0,1,43.19938,0,-35.363262,149.1652373
1778785773.3992999,114584148,0,6,414591400,2418,10,1.21,-35.363262,149.1652373,599.08,0.0010000000474974,134.3866424560547,0.0,0.0,1,43.3993,0,-35.363262,149.1652373
1778785773.59922,114784068,0,6,414591600,2418,10,1.21,-35.363262,149.1652373,599.08,0.0020000000949949,126.75125885009766,0.0,0.0,1,43.59922,0,-35.363262,149.1652373
1778785773.799973,114984821,0,6,414591800,2418,10,1.21,-35.363262,149.1652373,599.08,0.0020000000949949,119.12030029296876,0.0,0.0,1,43.799973,0,-35.363262,149.1652373
1778785773.9998927,115184741,0,6,414592000,2418,10,1.21,-35.363262,149.1652373,599.08,0.0020000000949949,115.56327056884766,0.0,0.0,1,43.999893,0,-35.363262,149.1652373
1778785774.199813,115384661,0,6,414592200,2418,10,1.21,-35.363262,149.1652373,599.08,0.0020000000949949,116.39561462402344,0.0,0.0,1,44.199813,0,-35.363262,149.1652373
1778785774.3997328,115584581,0,6,414592400,2418,10,1.21,-35.363262,149.1652373,599.08,0.003000000026077,118.00022888183594,-0.0010000000474974,0.0,1,44.399733,0,-35.363262,149.1652373
1778785774.599653,115784501,0,6,414592600,2418,10,1.21,-35.363262,149.1652373,599.08,0.003000000026077,117.3193359375,-0.0010000000474974,0.0,1,44.599653,0,-35.363262,149.1652373
1778785774.7995727,115984421,0,6,414592800,2418,10,1.21,-35.363262,149.1652373,599.09,0.003000000026077,117.31119537353516,-0.0010000000474974,0.0,1,44.799573,0,-35.363262,149.1652373
1778785774.999493,116184341,0,6,414593000,2418,10,1.21,-35.363262,149.1652373,599.09,0.003000000026077,119.39598846435548,-0.0010000000474974,0.0,1,44.999493,0,-35.363262,149.1652373
1778785775.1994128,116384261,0,6,414593200,2418,10,1.21,-35.363262,149.1652373,599.09,0.003000000026077,119.9731674194336,-0.0010000000474974,0.0,1,45.199413,0,-35.363262,149.1652373
1778785775.399333,116584181,0,6,414593400,2418,10,1.21,-35.363262,149.1652373,599.09,0.0020000000949949,118.19086456298828,-0.0010000000474974,0.0,1,45.399333,0,-35.363262,149.1652373
1778785775.5992527,116784101,0,6,414593600,2418,10,1.21,-35.363262,149.1652373,599.09,0.0010000000474974,120.49250793457033,0.0,0.0,1,45.599253,0,-35.363262,149.1652373
1778785775.800006,116984854,0,6,414593800,2418,10,1.21,-35.363262,149.1652373,599.09,0.0010000000474974,127.2484893798828,0.0,0.0,1,45.800006,0,-35.363262,149.1652373
1778785775.9999259,117184774,0,6,414594000,2418,10,1.21,-35.363262,149.1652373,599.09,0.0010000000474974,126.024658203125,0.0,0.0,1,45.999926,0,-35.363262,149.1652373
1778785776.199846,117384694,0,6,414594200,2418,10,1.21,-35.363262,149.1652373,599.09,0.0020000000949949,121.46783447265624,0.0,0.0,1,46.199846,0,-35.363262,149.1652373
1778785776.399766,117584614,0,6,414594400,2418,10,1.21,-35.363262,149.1652373,599.09,0.0020000000949949,120.19889068603516,0.0,0.0,1,46.399766,0,-35.363262,149.1652373
1778785776.599686,117784534,0,6,414594600,2418,10,1.21,-35.363262,149.1652373,599.09,0.003000000026077,118.9983901977539,0.0010000000474974,0.0,1,46.599686,0,-35.363262,149.1652373
1778785776.7996058,117984454,0,6,414594800,2418,10,1.21,-35.363262,149.1652373,599.09,0.003000000026077,115.34024047851562,0.0010000000474974,0.0,1,46.799606,0,-35.363262,149.1652373
1778785776.999526,118184374,0,6,414595000,2418,10,1.21,-35.363262,149.1652373,599.09,0.0020000000949949,110.959716796875,0.0010000000474974,0.0,1,46.999526,0,-35.363262,149.1652373
1778785777.199446,118384294,0,6,414595200,2418,10,1.21,-35.363262,149.1652373,599.08,0.0020000000949949,105.64959716796876,0.0010000000474974,0.0,1,47.199446,0,-35.363262,149.1652373
1778785777.399366,118584214,0,6,414595400,2418,10,1.21,-35.363262,149.1652374,599.08,0.0020000000949949,102.70182800292967,0.0010000000474974,0.0,1,47.399366,0,-35.363262,149.1652374
1778785777.5992858,118784134,0,6,414595600,2418,10,1.21,-35.363262,149.1652374,599.08,0.0020000000949949,104.8720703125,0.0010000000474974,0.0,1,47.599286,0,-35.363262,149.1652374
1778785777.799206,118984054,0,6,414595800,2418,10,1.21,-35.363262,149.1652374,599.08,0.0020000000949949,107.1751708984375,0.0010000000474974,0.0,1,47.799206,0,-35.363262,149.1652374
1778785777.9999588,119184807,0,6,414596000,2418,10,1.21,-35.363262,149.1652374,599.08,0.0010000000474974,108.16152954101562,0.0,0.0,1,47.999959,0,-35.363262,149.1652374
1778785778.1998787,119384727,0,6,414596200,2418,10,1.21,-35.363262,149.1652374,599.08,0.0,127.79499053955078,0.0,0.0,1,48.199879,0,-35.363262,149.1652374
1778785778.3997989,119584647,0,6,414596400,2418,10,1.21,-35.363262,149.1652374,599.08,0.0,211.8128967285156,0.0,0.0,1,48.399799,0,-35.363262,149.1652374
1778785778.599719,119784567,0,6,414596600,2418,10,1.21,-35.363262,149.1652374,599.08,0.0010000000474974,237.8687438964844,0.0,0.0,1,48.599719,0,-35.363262,149.1652374
1778785778.7996387,119984487,0,6,414596800,2418,10,1.21,-35.363262,149.1652374,599.08,0.0020000000949949,243.6285095214844,0.0,0.0,1,48.799639,0,-35.363262,149.1652374
1778785778.9995587,120184407,0,6,414597000,2418,10,1.21,-35.363262,149.1652374,599.08,0.003000000026077,243.61264038085935,0.0,0.0,1,48.999559,0,-35.363262,149.1652374
1778785779.1994789,120384327,0,6,414597200,2418,10,1.21,-35.363262,149.1652374,599.08,0.003000000026077,241.07211303710935,0.0,0.0,1,49.199479,0,-35.363262,149.1652374
1778785779.399399,120584247,0,6,414597400,2418,10,1.21,-35.363262,149.1652374,599.08,0.003000000026077,238.6945343017578,0.0,0.0,1,49.399399,0,-35.363262,149.1652374
1778785779.5993187,120784167,0,6,414597600,2418,10,1.21,-35.363262,149.1652374,599.08,0.003000000026077,238.60089111328125,-0.0010000000474974,0.0,1,49.599319,0,-35.363262,149.1652374
1778785779.7992387,120984087,0,6,414597800,2418,10,1.21,-35.363262,149.1652374,599.08,0.003000000026077,241.22604370117188,-0.0010000000474974,0.0,1,49.799239,0,-35.363262,149.1652374
1778785779.999992,121184840,0,6,414598000,2418,10,1.21,-35.363262,149.1652374,599.08,0.0040000001899898,246.4263153076172,-0.0010000000474974,0.0,1,49.999992,0,-35.363262,149.1652374
1778785780.1999118,121384760,0,6,414598200,2418,10,1.21,-35.363262,149.1652374,599.09,0.0040000001899898,250.815185546875,-0.0010000000474974,0.0,1,50.199912,0,-35.363262,149.1652374
1778785780.399832,121584680,0,6,414598400,2418,10,1.21,-35.363262,149.1652374,599.09,0.0050000003539025,250.7655334472656,-0.0010000000474974,0.0,1,50.399832,0,-35.363262,149.1652374
1778785780.599752,121784600,0,6,414598600,2418,10,1.21,-35.363262,149.1652374,599.09,0.0050000003539025,243.9427795410156,-0.0010000000474974,0.0,1,50.599752,0,-35.363262,149.1652374
1778785780.799672,121984520,0,6,414598800,2418,10,1.21,-35.363262,149.1652374,599.09,0.006000000052154,236.48573303222656,-0.0010000000474974,0.0,1,50.799672,0,-35.363262,149.1652374
1778785780.9995918,122184440,0,6,414599000,2418,10,1.21,-35.363262,149.1652374,599.09,0.0070000002160668,237.43548583984372,0.0,0.0,1,50.999592,0,-35.363262,149.1652374
1778785781.199512,122384360,0,6,414599200,2418,10,1.21,-35.363262,149.1652373,599.09,0.0080000003799796,243.89996337890625,0.0,0.0,1,51.199512,0,-35.363262,149.1652373
1778785781.399432,122584280,0,6,414599400,2418,10,1.21,-35.363262,149.1652373,599.09,0.0080000003799796,251.13922119140625,0.0,0.0,1,51.399432,0,-35.363262,149.1652373
1778785781.599352,122784200,0,6,414599600,2418,10,1.21,-35.363262,149.1652373,599.09,0.0090000005438923,256.39178466796875,0.0,0.0,1,51.599352,0,-35.363262,149.1652373
1778785781.7992718,122984120,0,6,414599800,2418,10,1.21,-35.363262,149.1652373,599.09,0.0090000005438923,258.5133972167969,0.0010000000474974,0.0,1,51.799272,0,-35.363262,149.1652373
1778785781.999192,123184040,0,6,414600000,2418,10,1.21,-35.363262,149.1652373,599.09,0.0090000005438923,258.15826416015625,0.0010000000474974,0.0,1,51.999192,0,-35.363262,149.1652373
1778785782.1999447,123384793,0,6,414600200,2418,10,1.21,-35.3632621,149.1652372,599.09,0.0080000003799796,256.8548583984375,0.0010000000474974,0.0,1,52.199945,0,-35.3632621,149.1652372
1778785782.399865,123584713,0,6,414600400,2418,10,1.21,-35.3632621,149.1652372,599.09,0.006000000052154,254.12940979003903,0.0010000000474974,0.0,1,52.399865,0,-35.3632621,149.1652372
1778785782.5997849,123784633,0,6,414600600,2418,10,1.21,-35.3632621,149.1652372,599.08,0.0050000003539025,248.158935546875,0.0010000000474974,0.0,1,52.599785,0,-35.3632621,149.1652372
1778785782.799705,123984553,0,6,414600800,2418,10,1.21,-35.3632621,149.1652372,599.08,0.0040000001899898,240.64404296875,0.0010000000474974,0.0,1,52.799705,0,-35.3632621,149.1652372
1778785782.9996247,124184473,0,6,414601000,2418,10,1.21,-35.3632621,149.1652372,599.08,0.0020000000949949,230.94021606445312,0.0010000000474974,0.0,1,52.999625,0,-35.3632621,149.1652372
1778785783.199545,124384393,0,6,414601200,2418,10,1.21,-35.3632621,149.1652372,599.08,0.0,171.3109130859375,0.0010000000474974,0.0,1,53.199545,0,-35.3632621,149.1652372
1778785783.3994648,124584313,0,6,414601400,2418,10,1.21,-35.3632621,149.1652372,599.08,0.0020000000949949,87.2462387084961,0.0,0.0,1,53.399465,0,-35.3632621,149.1652372
1778785783.599385,124784233,0,6,414601600,2418,10,1.21,-35.3632621,149.1652372,599.08,0.003000000026077,75.69245910644531,0.0,0.0,1,53.599385,0,-35.3632621,149.1652372
1778785783.7993047,124984153,0,6,414601800,2418,10,1.21,-35.3632621,149.1652372,599.08,0.0050000003539025,71.74224853515625,0.0,0.0,1,53.799305,0,-35.3632621,149.1652372
1778785783.999225,125184073,0,6,414602000,2418,10,1.21,-35.3632621,149.1652372,599.08,0.006000000052154,70.49330139160156,0.0,0.0,1,53.999225,0,-35.3632621,149.1652372
1778785784.1999779,125384826,0,6,414602200,2418,10,1.21,-35.3632621,149.1652372,599.08,0.0070000002160668,69.26011657714844,0.0,0.0,1,54.199978,0,-35.3632621,149.1652372
1778785784.3998978,125584746,0,6,414602400,2418,10,1.21,-35.3632621,149.1652372,599.08,0.0090000005438923,68.70457458496094,-0.0010000000474974,0.0,1,54.399898,0,-35.3632621,149.1652372
1778785784.599818,125784666,0,6,414602600,2418,10,1.21,-35.3632621,149.1652372,599.08,0.0110000008717179,70.47036743164062,-0.0010000000474974,0.0,1,54.599818,0,-35.3632621,149.1652372
1778785784.799738,125984586,0,6,414602800,2418,10,1.21,-35.3632621,149.1652372,599.08,0.0120000001043081,73.09027099609375,-0.0010000000474974,0.0,1,54.799738,0,-35.3632621,149.1652372
1778785784.9996579,126184506,0,6,414603000,2418,10,1.21,-35.3632621,149.1652372,599.08,0.0140000004321336,74.89682006835938,-0.0010000000474974,0.0,1,54.999658,0,-35.3632621,149.1652372
1778785785.199578,126384426,0,6,414603200,2418,10,1.21,-35.3632621,149.1652373,599.09,0.0150000005960464,75.91799926757812,-0.0010000000474974,0.0,1,55.199578,0,-35.3632621,149.1652373
1778785785.399498,126584346,0,6,414603400,2418,10,1.21,-35.3632621,149.1652373,599.09,0.0170000009238719,76.35453033447266,-0.0010000000474974,0.0,1,55.399498,0,-35.3632621,149.1652373
1778785785.599418,126784266,0,6,414603600,2418,10,1.21,-35.3632621,149.1652373,599.09,0.0190000012516975,76.41600799560547,-0.0010000000474974,0.0,1,55.599418,0,-35.3632621,149.1652373
1778785785.7993379,126984186,0,6,414603800,2418,10,1.21,-35.3632621,149.1652374,599.09,0.0200000014156103,76.01631164550781,-0.0010000000474974,0.0,1,55.799338,0,-35.3632621,149.1652374
1778785785.999258,127184106,0,6,414604000,2418,10,1.21,-35.3632621,149.1652374,599.09,0.0200000014156103,75.1477279663086,0.0,0.0,1,55.999258,0,-35.3632621,149.1652374
1778785786.199178,127384026,0,6,414604200,2418,10,1.21,-35.3632621,149.1652375,599.09,0.0200000014156103,73.89928436279297,0.0,0.0,1,56.199178,0,-35.3632621,149.1652375
1778785786.3999307,127584779,0,6,414604400,2418,10,1.21,-35.3632621,149.1652375,599.09,0.0190000012516975,72.03578186035156,0.0,0.0,1,56.399931,0,-35.3632621,149.1652375
1778785786.599851,127784699,0,6,414604600,2418,10,1.21,-35.3632621,149.1652375,599.09,0.0180000010877847,69.499267578125,0.0,0.0,1,56.599851,0,-35.3632621,149.1652375
1778785786.7997708,127984619,0,6,414604800,2418,10,1.21,-35.363262,149.1652375,599.09,0.0170000009238719,65.95323944091797,0.0010000000474974,0.0,1,56.799771,0,-35.363262,149.1652375
1778785786.999691,128184539,0,6,414605000,2418,10,1.21,-35.363262,149.1652375,599.09,0.0150000005960464,61.80572891235352,0.0010000000474974,0.0,1,56.999691,0,-35.363262,149.1652375
1778785787.1996107,128384459,0,6,414605200,2418,10,1.21,-35.363262,149.1652376,599.09,0.0150000005960464,58.97517776489258,0.0010000000474974,0.0,1,57.199611,0,-35.363262,149.1652376
1778785787.399531,128584379,0,6,414605400,2418,10,1.21,-35.363262,149.1652377,599.08,0.0140000004321336,57.73506927490234,0.0010000000474974,0.0,1,57.399531,0,-35.363262,149.1652377
1778785787.5994508,128784299,0,6,414605600,2418,10,1.21,-35.363262,149.1652377,599.08,0.0140000004321336,57.51932907104492,0.0010000000474974,0.0,1,57.599451,0,-35.363262,149.1652377
1778785787.799371,128984219,0,6,414605800,2418,10,1.21,-35.363262,149.1652377,599.08,0.0130000002682209,58.1678466796875,0.0010000000474974,0.0,1,57.799371,0,-35.363262,149.1652377
1778785787.9992907,129184139,0,6,414606000,2418,10,1.21,-35.363262,149.1652378,599.08,0.0130000002682209,59.03846740722656,0.0010000000474974,0.0,1,57.999291,0,-35.363262,149.1652378
1778785788.199211,129384059,0,6,414606200,2418,10,1.21,-35.363262,149.1652378,599.08,0.0130000002682209,60.00499725341797,0.0,0.0,1,58.199211,0,-35.363262,149.1652378
1778785788.3999639,129584812,0,6,414606400,2418,10,1.21,-35.3632619,149.1652378,599.08,0.0130000002682209,60.53623962402344,0.0,0.0,1,58.399964,0,-35.3632619,149.1652378
1778785788.599884,129784732,0,6,414606600,2418,10,1.21,-35.3632619,149.1652378,599.08,0.0120000001043081,60.09967803955078,0.0,0.0,1,58.599884,0,-35.3632619,149.1652378
1778785788.799804,129984652,0,6,414606800,2418,10,1.21,-35.3632619,149.1652379,599.08,0.0110000008717179,59.773319244384766,0.0,0.0,1,58.799804,0,-35.3632619,149.1652379
1778785788.999724,130184572,0,6,414607000,2418,10,1.21,-35.3632619,149.1652379,599.08,0.0110000008717179,60.16804885864258,0.0,0.0,1,58.999724,0,-35.3632619,149.1652379
1778785789.1996439,130384492,0,6,414607200,2418,10,1.21,-35.3632619,149.1652379,599.08,0.0090000005438923,60.25300979614258,-0.0010000000474974,0.0,1,59.199644,0,-35.3632619,149.1652379
1778785789.399564,130584412,0,6,414607400,2418,10,1.21,-35.3632619,149.1652379,599.08,0.0070000002160668,57.96364974975586,-0.0010000000474974,0.0,1,59.399564,0,-35.3632619,149.1652379
1778785789.599484,130784332,0,6,414607600,2418,10,1.21,-35.3632619,149.1652379,599.08,0.0050000003539025,51.55436706542969,-0.0010000000474974,0.0,1,59.599484,0,-35.3632619,149.1652379
1778785789.799404,130984252,0,6,414607800,2418,10,1.21,-35.3632619,149.1652379,599.08,0.0040000001899898,40.93904876708984,-0.0010000000474974,0.0,1,59.799404,0,-35.3632619,149.1652379
1778785789.9993238,131184172,0,6,414608000,2418,10,1.21,-35.3632619,149.1652379,599.09,0.003000000026077,30.48288917541504,-0.0010000000474974,0.0,1,59.999324,0,-35.3632619,149.1652379
1778785790.199244,131384092,0,6,414608200,2418,10,1.21,-35.3632619,149.1652379,599.09,0.003000000026077,29.67852020263672,-0.0010000000474974,0.0,1,60.199244,0,-35.3632619,149.1652379
1778785790.399997,131584845,0,6,414608400,2418,10,1.21,-35.3632619,149.1652379,599.09,0.003000000026077,38.256229400634766,-0.0010000000474974,0.0,1,60.399997,0,-35.3632619,149.1652379
1778785790.5999167,131784765,0,6,414608600,2418,10,1.21,-35.3632619,149.1652379,599.09,0.0040000001899898,46.50691986083984,0.0,0.0,1,60.599917,0,-35.3632619,149.1652379
1778785790.7998369,131984685,0,6,414608800,2418,10,1.21,-35.3632619,149.1652379,599.09,0.0050000003539025,51.43310928344727,0.0,0.0,1,60.799837,0,-35.3632619,149.1652379
1778785790.9997568,132184605,0,6,414609000,2418,10,1.21,-35.3632618,149.1652379,599.09,0.006000000052154,53.62352752685547,0.0,0.0,1,60.999757,0,-35.3632618,149.1652379
1778785791.1996768,132384525,0,6,414609200,2418,10,1.21,-35.3632617,149.1652379,599.09,0.0070000002160668,54.348819732666016,0.0,0.0,1,61.199677,0,-35.3632617,149.1652379
1778785791.3995967,132584445,0,6,414609400,2418,10,1.21,-35.3632617,149.1652379,599.09,0.0070000002160668,55.56866836547852,0.0,0.0,1,61.399597,0,-35.3632617,149.1652379
1778785791.5995169,132784365,0,6,414609600,2418,10,1.21,-35.3632617,149.1652379,599.09,0.006000000052154,60.20742034912109,0.0010000000474974,0.0,1,61.599517,0,-35.3632617,149.1652379
1778785791.799437,132984285,0,6,414609800,2418,10,1.21,-35.3632617,149.1652379,599.09,0.006000000052154,71.5502700805664,0.0010000000474974,0.0,1,61.799437,0,-35.3632617,149.1652379
1778785791.9993567,133184205,0,6,414610000,2418,10,1.21,-35.3632617,149.165238,599.08,0.006000000052154,89.28096008300781,0.0010000000474974,0.0,1,61.999357,0,-35.3632617,149.165238
1778785792.1992767,133384125,0,6,414610200,2418,10,1.21,-35.3632617,149.165238,599.08,0.006000000052154,110.20906066894533,0.0010000000474974,0.0,1,62.199277,0,-35.3632617,149.165238
1778785792.3991969,133584045,0,6,414610400,2418,10,1.21,-35.3632617,149.165238,599.08,0.0070000002160668,129.6719512939453,0.0010000000474974,0.0,1,62.399197,0,-35.3632617,149.165238
1778785792.5999498,133784798,0,6,414610600,2418,10,1.21,-35.3632617,149.165238,599.08,0.0080000003799796,145.5641326904297,0.0010000000474974,0.0,1,62.59995,0,-35.3632617,149.165238
1778785792.79987,133984718,0,6,414610800,2418,10,1.21,-35.3632617,149.165238,599.08,0.0080000003799796,157.22601318359375,0.0,0.0,1,62.79987,0,-35.3632617,149.165238
1778785792.99979,134184638,0,6,414611000,2418,10,1.21,-35.3632617,149.165238,599.08,0.0090000005438923,163.9548797607422,0.0,0.0,1,62.99979,0,-35.3632617,149.165238
1778785793.19971,134384558,0,6,414611200,2418,10,1.21,-35.3632617,149.165238,599.08,0.0100000007078051,166.3689422607422,0.0,0.0,1,63.19971,0,-35.3632617,149.165238
1778785793.3996298,134584478,0,6,414611400,2418,10,1.21,-35.3632617,149.165238,599.08,0.0100000007078051,164.8530731201172,0.0,0.0,1,63.39963,0,-35.3632617,149.165238
1778785793.59955,134784398,0,6,414611600,2418,10,1.21,-35.3632617,149.165238,599.08,0.0100000007078051,161.61192321777344,0.0,0.0,1,63.59955,0,-35.3632617,149.165238
1778785793.79947,134984318,0,6,414611800,2418,10,1.21,-35.3632618,149.165238,599.08,0.0100000007078051,161.0330810546875,-0.0010000000474974,0.0,1,63.79947,0,-35.3632618,149.165238
1778785793.99939,135184238,0,6,414612000,2418,10,1.21,-35.3632619,149.165238,599.08,0.0100000007078051,164.5004119873047,-0.0010000000474974,0.0,1,63.99939,0,-35.3632619,149.165238
1778785794.1993098,135384158,0,6,414612200,2418,10,1.21,-35.3632619,149.165238,599.08,0.0100000007078051,170.60366821289062,-0.0010000000474974,0.0,1,64.19931,0,-35.3632619,149.165238
1778785794.39923,135584078,0,6,414612400,2418,10,1.21,-35.3632619,149.165238,599.08,0.0090000005438923,177.0802764892578,-0.0010000000474974,0.0,1,64.39923,0,-35.3632619,149.165238
1778785794.5999827,135784831,0,6,414612600,2418,10,1.21,-35.3632619,149.165238,599.09,0.0070000002160668,180.78550720214844,-0.0010000000474974,0.0,1,64.599983,0,-35.3632619,149.165238
1778785794.799903,135984751,0,6,414612800,2418,10,1.21,-35.3632619,149.165238,599.09,0.0050000003539025,180.7096710205078,-0.0010000000474974,0.0,1,64.799903,0,-35.3632619,149.165238
1778785794.9998229,136184671,0,6,414613000,2418,10,1.21,-35.3632619,149.165238,599.09,0.003000000026077,175.5234375,-0.0010000000474974,0.0,1,64.999823,0,-35.3632619,149.165238
1778785795.199743,136384591,0,6,414613200,2418,10,1.21,-35.3632619,149.165238,599.09,0.0010000000474974,157.7886505126953,0.0,0.0,1,65.199743,0,-35.3632619,149.165238
1778785795.3996627,136584511,0,6,414613400,2418,10,1.21,-35.3632619,149.165238,599.09,0.0,96.0182647705078,0.0,0.0,1,65.399663,0,-35.3632619,149.165238
1778785795.599583,136784431,0,6,414613600,2418,10,1.21,-35.3632619,149.165238,599.09,0.0,30.05486869812012,0.0,0.0,1,65.599583,0,-35.3632619,149.165238
1778785795.7995028,136984351,0,6,414613800,2418,10,1.21,-35.3632619,149.1652381,599.09,0.0010000000474974,12.965879440307615,0.0,0.0,1,65.799503,0,-35.3632619,149.1652381
1778785795.999423,137184271,0,6,414614000,2418,10,1.21,-35.3632619,149.1652382,599.09,0.0010000000474974,17.240379333496094,0.0,0.0,1,65.999423,0,-35.3632619,149.1652382
1778785796.1993427,137384191,0,6,414614200,2418,10,1.21,-35.3632619,149.1652382,599.09,0.0010000000474974,24.397859573364254,0.0010000000474974,0.0,1,66.199343,0,-35.3632619,149.1652382
1778785796.399263,137584111,0,6,414614400,2418,10,1.21,-35.3632619,149.1652382,599.09,0.0010000000474974,15.092339515686035,0.0010000000474974,0.0,1,66.399263,0,-35.3632619,149.1652382
1778785796.5991828,137784031,0,6,414614600,2418,10,1.21,-35.3632619,149.1652382,599.08,0.0010000000474974,327.64727783203125,0.0010000000474974,0.0,1,66.599183,0,-35.3632619,149.1652382
1778785796.7999358,137984784,0,6,414614800,2418,10,1.21,-35.3632619,149.1652382,599.08,0.0020000000949949,291.1416931152344,0.0010000000474974,0.0,1,66.799936,0,-35.3632619,149.1652382
1778785796.999856,138184704,0,6,414615000,2418,10,1.21,-35.3632619,149.1652382,599.08,0.0050000003539025,282.2863464355469,0.0010000000474974,0.0,1,66.999856,0,-35.3632619,149.1652382
1778785797.199776,138384624,0,6,414615200,2418,10,1.21,-35.3632619,149.1652382,599.08,0.0070000002160668,279.9205322265625,0.0010000000474974,0.0,1,67.199776,0,-35.3632619,149.1652382
1778785797.3996959,138584544,0,6,414615400,2418,10,1.21,-35.3632619,149.1652382,599.08,0.0080000003799796,279.4666748046875,0.0,0.0,1,67.399696,0,-35.3632619,149.1652382
1778785797.5996158,138784464,0,6,414615600,2418,10,1.21,-35.3632619,149.1652382,599.08,0.0080000003799796,279.694580078125,0.0,0.0,1,67.599616,0,-35.3632619,149.1652382
1778785797.799536,138984384,0,6,414615800,2418,10,1.21,-35.3632619,149.1652382,599.08,0.0090000005438923,278.47979736328125,0.0,0.0,1,67.799536,0,-35.3632619,149.1652382
