timestamp,TimeUS,I,Status,GMS,GWk,NSats,HDop,Lat,Lng,Alt,Spd,GCrs,VZ,Yaw,U,TimeSec,AttackActive_GPS,Lat_attacked,Lng_attacked
1778627314.4,54605649,0,6,256132400,2418,10,1.21,-35.3632621,149.1652374,584.09,0.0,0.0,0.0,0.0,1,0.0,0,-35.3632621,149.1652374
1778627314.579928,54785577,0,6,256132600,2418,10,1.21,-35.3632621,149.1652374,584.09,0.0,0.0,0.0,0.0,1,0.179928,0,-35.3632621,149.1652374
1778627314.779848,54985497,0,6,256132800,2418,10,1.21,-35.3632621,149.1652374,584.09,0.0,0.0,0.0,0.0,1,0.379848,0,-35.3632621,149.1652374
1778627314.979768,55185417,0,6,256133000,2418,10,1.21,-35.3632621,149.1652374,584.09,0.0,0.0,0.0,0.0,1,0.579768,0,-35.3632621,149.1652374
1778627315.1796882,55385337,0,6,256133200,2418,10,1.21,-35.3632621,149.1652374,584.09,0.0,0.0,0.0,0.0,1,0.779688,0,-35.3632621,149.1652374
1778627315.379608,55585257,0,6,256133400,2418,10,1.21,-35.3632621,149.1652374,584.09,0.0,0.0,0.0,0.0,1,0.979608,0,-35.3632621,149.1652374
1778627315.579528,55785177,0,6,256133600,2418,10,1.21,-35.3632621,149.1652374,584.09,0.0,0.0,0.0,0.0,1,1.179528,0,-35.3632621,149.1652374
1778627315.779448,55985097,0,6,256133800,2418,10,1.21,-35.3632621,149.1652374,584.09,0.0,0.0,0.0,0.0,1,1.379448,0,-35.3632621,149.1652374
1778627315.9793682,56185017,0,6,256134000,2418,10,1.21,-35.3632621,149.1652374,584.09,0.0,0.0,0.0,0.0,1,1.579368,0,-35.3632621,149.1652374
1778627316.179288,56384937,0,6,256134200,2418,10,1.21,-35.3632621,149.1652374,584.09,0.0,0.0,0.0,0.0,1,1.779288,0,-35.3632621,149.1652374
1778627316.379208,56584857,0,6,256134400,2418,10,1.21,-35.3632621,149.1652374,584.09,0.0,0.0,0.0,0.0,1,1.979208,0,-35.3632621,149.1652374
1778627316.579961,56785610,0,6,256134600,2418,10,1.21,-35.3632621,149.1652374,584.09,0.0,0.0,0.0,0.0,1,2.179961,0,-35.3632621,149.1652374
1778627316.779881,56985530,0,6,256134800,2418,10,1.21,-35.3632621,149.1652374,584.09,0.0,0.0,0.0,0.0,1,2.379881,0,-35.3632621,149.1652374
1778627316.9798012,57185450,0,6,256135000,2418,10,1.21,-35.3632621,149.1652374,584.09,0.0,0.0,0.0,0.0,1,2.579801,0,-35.3632621,149.1652374
1778627317.179721,57385370,0,6,256135200,2418,10,1.21,-35.3632621,149.1652374,584.09,0.0,0.0,0.0,0.0,1,2.779721,0,-35.3632621,149.1652374
1778627317.379641,57585290,0,6,256135400,2418,10,1.21,-35.3632621,149.1652374,584.09,0.0,0.0,0.0,0.0,1,2.979641,0,-35.3632621,149.1652374
1778627317.579561,57785210,0,6,256135600,2418,10,1.21,-35.3632621,149.1652374,584.09,0.0,0.0,0.0,0.0,1,3.179561,0,-35.3632621,149.1652374
1778627317.7794812,57985130,0,6,256135800,2418,10,1.21,-35.3632621,149.1652374,584.09,0.0,0.0,0.0,0.0,1,3.379481,0,-35.3632621,149.1652374
1778627317.979401,58185050,0,6,256136000,2418,10,1.21,-35.3632621,149.1652374,584.09,0.0,0.0,0.0,0.0,1,3.579401,0,-35.3632621,149.1652374
1778627318.179321,58384970,0,6,256136200,2418,10,1.21,-35.3632621,149.1652374,584.09,0.0,0.0,0.0,0.0,1,3.779321,0,-35.3632621,149.1652374
1778627318.3792408,58584890,0,6,256136400,2418,10,1.21,-35.3632621,149.1652374,584.09,0.0,0.0,0.0,0.0,1,3.979241,0,-35.3632621,149.1652374
1778627318.5799942,58785643,0,6,256136600,2418,10,1.21,-35.3632621,149.1652374,584.09,0.0,0.0,0.0,0.0,1,4.179994,0,-35.3632621,149.1652374
1778627318.779914,58985563,0,6,256136800,2418,10,1.21,-35.3632621,149.1652374,584.09,0.0,0.0,0.0,0.0,1,4.379914,0,-35.3632621,149.1652374
1778627318.979834,59185483,0,6,256137000,2418,10,1.21,-35.3632621,149.1652374,584.09,0.0,0.0,0.0,0.0,1,4.579834,0,-35.3632621,149.1652374
1778627319.179754,59385403,0,6,256137200,2418,10,1.21,-35.3632621,149.1652374,584.09,0.0,0.0,0.0,0.0,1,4.779754,0,-35.3632621,149.1652374
1778627319.3796742,59585323,0,6,256137400,2418,10,1.21,-35.3632621,149.1652374,584.09,0.0,0.0,0.0,0.0,1,4.979674,0,-35.3632621,149.1652374
1778627319.579594,59785243,0,6,256137600,2418,10,1.21,-35.3632621,149.1652374,584.09,0.0,0.0,0.0,0.0,1,5.179594,0,-35.3632621,149.1652374
1778627319.779514,59985163,0,6,256137800,2418,10,1.21,-35.3632621,149.1652374,584.09,0.0,0.0,0.0,0.0,1,5.379514,0,-35.3632621,149.1652374
1778627319.979434,60185083,0,6,256138000,2418,10,1.21,-35.3632621,149.1652374,584.09,0.0,0.0,0.0,0.0,1,5.579434,0,-35.3632621,149.1652374
1778627320.179354,60385003,0,6,256138200,2418,10,1.21,-35.3632621,149.1652374,584.09,0.0,0.0,0.0,0.0,1,5.779354,0,-35.3632621,149.1652374
1778627320.379274,60584923,0,6,256138400,2418,10,1.21,-35.3632621,149.1652374,584.09,0.0,0.0,0.0,0.0,1,5.979274,0,-35.3632621,149.1652374
1778627320.579194,60784843,0,6,256138600,2418,10,1.21,-35.3632621,149.1652374,584.09,0.0,0.0,0.0,0.0,1,6.179194,0,-35.3632621,149.1652374
1778627320.779947,60985596,0,6,256138800,2418,10,1.21,-35.3632621,149.1652374,584.09,0.0,0.0,0.0,0.0,1,6.379947,0,-35.3632621,149.1652374
1778627320.9798672,61185516,0,6,256139000,2418,10,1.21,-35.3632621,149.1652374,584.09,0.0,0.0,0.0,0.0,1,6.579867,0,-35.3632621,149.1652374
1778627321.1797872,61385436,0,6,256139200,2418,10,1.21,-35.3632621,149.1652374,584.09,0.0,0.0,0.0,0.0,1,6.779787,0,-35.3632621,149.1652374
1778627321.379707,61585356,0,6,256139400,2418,10,1.21,-35.3632621,149.1652374,584.09,0.0,0.0,0.0,0.0,1,6.979707,0,-35.3632621,149.1652374
1778627321.579627,61785276,0,6,256139600,2418,10,1.21,-35.3632621,149.1652374,584.09,0.0,126.14114379882812,0.0,0.0,1,7.179627,0,-35.3632621,149.1652374
1778627321.7795472,61985196,0,6,256139800,2418,10,1.21,-35.3632621,149.1652374,584.09,0.0,126.87613677978516,0.0,0.0,1,7.379547,0,-35.3632621,149.1652374
1778627321.9794672,62185116,0,6,256140000,2418,10,1.21,-35.3632621,149.1652374,584.09,0.0,305.9374694824219,0.0,0.0,1,7.579467,0,-35.3632621,149.1652374
1778627322.179387,62385036,0,6,256140200,2418,10,1.21,-35.3632621,149.1652374,584.09,0.0,305.9799194335937,-0.0150000005960464,0.0,1,7.779387,0,-35.3632621,149.1652374
1778627322.379307,62584956,0,6,256140400,2418,10,1.21,-35.3632621,149.1652374,584.1,0.0,306.0906677246094,-0.0880000069737434,0.0,1,7.979307,0,-35.3632621,149.1652374
1778627322.5792272,62784876,0,6,256140600,2418,10,1.21,-35.3632621,149.1652374,584.13,0.0,310.54107666015625,-0.1970000118017196,0.0,1,8.179227,0,-35.3632621,149.1652374
1778627322.77998,62985629,0,6,256140800,2418,10,1.21,-35.3632621,149.1652374,584.18,0.0,306.62664794921875,-0.3130000233650207,0.0,1,8.37998,0,-35.3632621,149.1652374
1778627322.9799,63185549,0,6,256141000,2418,10,1.21,-35.3632621,149.1652374,584.3,0.0040000001899898,307.2537841796875,-0.7740000486373901,0.0,1,8.5799,0,-35.3632621,149.1652374
1778627323.17982,63385469,0,6,256141200,2418,10,1.21,-35.3632621,149.1652374,584.5,0.0150000005960464,307.2510681152344,-1.1880000829696655,0.0,1,8.77982,0,-35.3632621,149.1652374
1778627323.37974,63585389,0,6,256141400,2418,10,1.21,-35.3632621,149.1652374,584.74,0.0310000013560056,307.291259765625,-1.1950000524520874,0.0,1,8.97974,0,-35.3632621,149.1652374
1778627323.57966,63785309,0,6,256141600,2418,10,1.21,-35.363262,149.1652373,584.98,0.0430000014603138,307.4559631347656,-1.277000069618225,0.0,1,9.17966,0,-35.363262,149.1652373
1778627323.77958,63985229,0,6,256141800,2418,10,1.21,-35.363262,149.1652372,585.25,0.0450000017881393,307.8123779296875,-1.4660000801086426,0.0,1,9.37958,0,-35.363262,149.1652372
1778627323.9795,64185149,0,6,256142000,2418,10,1.21,-35.363262,149.1652371,585.57,0.0400000028312206,308.1727600097656,-1.665000081062317,0.0,1,9.5795,0,-35.363262,149.1652371
1778627324.17942,64385069,0,6,256142200,2418,10,1.21,-35.3632619,149.165237,585.92,0.0320000015199184,308.4802551269531,-1.866000056266785,0.0,1,9.77942,0,-35.3632619,149.165237
1778627324.37934,64584989,0,6,256142400,2418,10,1.21,-35.3632619,149.165237,586.31,0.0220000017434358,309.471923828125,-2.071000099182129,0.0,1,9.97934,0,-35.3632619,149.165237
1778627324.57926,64784909,0,6,256142600,2418,10,1.21,-35.3632619,149.165237,586.75,0.0120000001043081,313.1707763671875,-2.2710001468658447,0.0,1,10.17926,1,-35.363141899999995,149.16511699999998
1778627324.77918,64984829,0,6,256142800,2418,10,1.21,-35.3632619,149.165237,587.22,0.0040000001899898,329.67803955078125,-2.4250001907348637,0.0,1,10.37918,1,-35.363141899999995,149.16511699999998
1778627324.979933,65185582,0,6,256143000,2418,10,1.21,-35.3632619,149.165237,587.72,0.0020000000949949,82.72223663330078,-2.502000093460083,0.0,1,10.579933,1,-35.363141899999995,149.16511699999998
1778627325.1798532,65385502,0,6,256143200,2418,10,1.21,-35.3632619,149.165237,588.22,0.006000000052154,109.0392608642578,-2.525000095367432,0.0,1,10.779853,1,-35.363141899999995,149.16511699999998
1778627325.3797731,65585422,0,6,256143400,2418,10,1.21,-35.3632619,149.165237,588.72,0.0090000005438923,114.00505065917967,-2.5190000534057617,0.0,1,10.979773,1,-35.363141899999995,149.16511699999998
1778627325.579693,65785342,0,6,256143600,2418,10,1.21,-35.3632619,149.165237,589.23,0.0090000005438923,114.57630920410156,-2.501000165939331,0.0,1,11.179693,1,-35.363141899999995,149.16511699999998
1778627325.779613,65985262,0,6,256143800,2418,10,1.21,-35.3632619,149.165237,589.72,0.0100000007078051,112.2557373046875,-2.4820001125335693,0.0,1,11.379613,1,-35.363141899999995,149.16511699999998
1778627325.9795332,66185182,0,6,256144000,2418,10,1.21,-35.3632619,149.165237,590.22,0.0100000007078051,111.68502807617188,-2.4680001735687256,0.0,1,11.579533,1,-35.363141899999995,149.16511699999998
1778627326.1794531,66385102,0,6,256144200,2418,10,1.21,-35.3632619,149.165237,590.71,0.0100000007078051,114.27235412597656,-2.4600000381469727,0.0,1,11.779453,1,-35.363141899999995,149.16511699999998
1778627326.379373,66585022,0,6,256144400,2418,10,1.21,-35.3632619,149.165237,591.2,0.0100000007078051,117.8508071899414,-2.4570000171661377,0.0,1,11.979373,1,-35.363141899999995,149.16511699999998
1778627326.579293,66784942,0,6,256144600,2418,10,1.21,-35.3632619,149.165237,591.69,0.0110000008717179,122.25597381591795,-2.4580001831054688,0.0,1,12.179293,1,-35.363141899999995,149.16511699999998
1778627326.7792132,66984862,0,6,256144800,2418,10,1.21,-35.3632619,149.165237,592.18,0.0130000002682209,126.67092895507812,-2.461000204086304,0.0,1,12.379213,1,-35.363141899999995,149.16511699999998
1778627326.979966,67185615,0,6,256145000,2418,10,1.21,-35.3632619,149.165237,592.68,0.0160000007599592,129.10159301757812,-2.46500015258789,0.0,1,12.579966,1,-35.363141899999995,149.16511699999998
1778627327.179886,67385535,0,6,256145200,2418,10,1.21,-35.3632619,149.1652371,593.17,0.0190000012516975,129.30641174316406,-2.470000028610229,0.0,1,12.779886,1,-35.363141899999995,149.1651171
1778627327.379806,67585455,0,6,256145400,2418,10,1.21,-35.3632619,149.1652372,593.67,0.0220000017434358,128.44000244140625,-2.4740002155303955,0.0,1,12.979806,1,-35.363141899999995,149.1651172
1778627327.5797262,67785375,0,6,256145600,2418,10,1.21,-35.3632619,149.1652372,594.16,0.0240000002086162,127.45773315429688,-2.4780001640319824,0.0,1,13.179726,1,-35.363141899999995,149.1651172
1778627327.779646,67985295,0,6,256145800,2418,10,1.21,-35.3632619,149.1652372,594.66,0.025000000372529,127.33538818359376,-2.4810001850128174,0.0,1,13.379646,1,-35.363141899999995,149.1651172
1778627327.979566,68185215,0,6,256146000,2418,10,1.21,-35.363262,149.1652373,595.16,0.025000000372529,128.57350158691406,-2.4830000400543213,0.0,1,13.579566,1,-35.363141999999996,149.1651173
1778627328.179486,68385135,0,6,256146200,2418,10,1.21,-35.363262,149.1652373,595.65,0.0240000002086162,130.7285614013672,-2.46500015258789,0.0,1,13.779486,1,-35.363141999999996,149.1651173
1778627328.3794062,68585055,0,6,256146400,2418,10,1.21,-35.363262,149.1652374,596.14,0.0220000017434358,133.25067138671875,-2.384000062942505,0.0,1,13.979406,1,-35.363141999999996,149.16511739999999
1778627328.579326,68784975,0,6,256146600,2418,10,1.21,-35.363262,149.1652374,596.6,0.0200000014156103,135.99049377441406,-2.2330000400543213,0.0,1,14.179326,1,-35.363141999999996,149.16511739999999
1778627328.779246,68984895,0,6,256146800,2418,10,1.21,-35.3632621,149.1652374,597.03,0.0180000010877847,139.0801544189453,-2.0410001277923584,0.0,1,14.379246,1,-35.3631421,149.16511739999999
1778627328.979999,69185648,0,6,256147000,2418,10,1.21,-35.3632621,149.1652375,597.41,0.0160000007599592,142.81578063964844,-1.8270001411437988,0.0,1,14.579999,1,-35.3631421,149.16511749999998
1778627329.179919,69385568,0,6,256147200,2418,10,1.21,-35.3632621,149.1652375,597.76,0.0140000004321336,147.09454345703125,-1.6070001125335691,0.0,1,14.779919,1,-35.3631421,149.16511749999998
1778627329.3798392,69585488,0,6,256147400,2418,10,1.21,-35.3632621,149.1652375,598.06,0.0110000008717179,151.41905212402344,-1.3870000839233398,0.0,1,14.979839,1,-35.3631421,149.16511749999998
1778627329.5797591,69785408,0,6,256147600,2418,10,1.21,-35.3632622,149.1652375,598.31,0.0090000005438923,156.73683166503906,-1.1720000505447388,0.0,1,15.179759,1,-35.3631422,149.16511749999998
1778627329.779679,69985328,0,6,256147800,2418,10,1.21,-35.3632622,149.1652375,598.53,0.006000000052154,165.85562133789062,-0.9630000591278076,0.0,1,15.379679,1,-35.3631422,149.16511749999998
1778627329.979599,70185248,0,6,256148000,2418,10,1.21,-35.3632622,149.1652375,598.7,0.0040000001899898,185.77476501464844,-0.7580000162124634,0.0,1,15.579599,1,-35.3631422,149.16511749999998
1778627330.1795192,70385168,0,6,256148200,2418,10,1.21,-35.3632622,149.1652375,598.83,0.003000000026077,226.54795837402344,-0.5570000410079956,0.0,1,15.779519,1,-35.3631422,149.16511749999998
1778627330.379439,70585088,0,6,256148400,2418,10,1.21,-35.3632622,149.1652375,598.92,0.003000000026077,267.9842834472656,-0.359000027179718,0.0,1,15.979439,1,-35.3631422,149.16511749999998
1778627330.579359,70785008,0,6,256148600,2418,10,1.21,-35.3632622,149.1652375,598.97,0.0040000001899898,292.1515197753906,-0.1680000126361847,0.0,1,16.179359,1,-35.3631422,149.16511749999998
1778627330.7792788,70984928,0,6,256148800,2418,10,1.21,-35.3632622,149.1652375,598.99,0.006000000052154,305.1549072265625,-0.0220000017434358,0.0,1,16.379279,1,-35.3631422,149.16511749999998
1778627330.9791992,71184848,0,6,256149000,2418,10,1.21,-35.3632622,149.1652375,598.99,0.0070000002160668,310.9811706542969,0.0460000038146972,0.0,1,16.579199,1,-35.3631422,149.16511749999998
1778627331.179952,71385601,0,6,256149200,2418,10,1.21,-35.3632622,149.1652375,598.98,0.0090000005438923,312.79541015625,0.0610000044107437,0.0,1,16.779952,1,-35.3631422,149.16511749999998
1778627331.379872,71585521,0,6,256149400,2418,10,1.21,-35.3632622,149.1652375,598.96,0.0110000008717179,313.0096130371094,0.0470000021159648,0.0,1,16.979872,1,-35.3631422,149.16511749999998
1778627331.579792,71785441,0,6,256149600,2418,10,1.21,-35.3632622,149.1652375,598.96,0.0130000002682209,313.43670654296875,0.0220000017434358,0.0,1,17.179792,1,-35.3631422,149.16511749999998
1778627331.7797122,71985361,0,6,256149800,2418,10,1.21,-35.3632622,149.1652375,598.96,0.0150000005960464,313.86962890625,-0.0020000000949949,0.0,1,17.379712,1,-35.3631422,149.16511749999998
1778627331.979632,72185281,0,6,256150000,2418,10,1.21,-35.3632622,149.1652375,598.96,0.0170000009238719,312.9340209960937,-0.0220000017434358,0.0,1,17.579632,1,-35.3631422,149.16511749999998
1778627332.179552,72385201,0,6,256150200,2418,10,1.21,-35.3632622,149.1652374,598.97,0.0180000010877847,311.55322265625,-0.0350000001490116,0.0,1,17.779552,1,-35.3631422,149.16511739999999
1778627332.379472,72585121,0,6,256150400,2418,10,1.21,-35.3632622,149.1652374,598.97,0.0190000012516975,311.7195739746094,-0.0420000031590461,0.0,1,17.979472,1,-35.3631422,149.16511739999999
1778627332.579392,72785041,0,6,256150600,2418,10,1.21,-35.3632621,149.1652374,598.98,0.0200000014156103,313.03759765625,-0.0430000014603138,0.0,1,18.179392,1,-35.3631421,149.16511739999999
1778627332.779312,72984961,0,6,256150800,2418,10,1.21,-35.3632621,149.1652374,598.99,0.0200000014156103,313.9073791503906,-0.0410000011324882,0.0,1,18.379312,1,-35.3631421,149.16511739999999
1778627332.979232,73184881,0,6,256151000,2418,10,1.21,-35.3632621,149.1652373,599.0,0.0200000014156103,314.3871765136719,-0.0360000021755695,0.0,1,18.579232,1,-35.3631421,149.1651173
1778627333.179985,73385634,0,6,256151200,2418,10,1.21,-35.3632621,149.1652373,599.01,0.0200000014156103,314.806640625,-0.0300000011920928,0.0,1,18.779985,1,-35.3631421,149.1651173
1778627333.3799047,73585554,0,6,256151400,2418,10,1.21,-35.363262,149.1652373,599.01,0.0190000012516975,314.7933349609375,-0.025000000372529,0.0,1,18.979905,1,-35.363141999999996,149.1651173
1778627333.5798252,73785474,0,6,256151600,2418,10,1.21,-35.363262,149.1652372,599.02,0.0180000010877847,314.6376953125,-0.0220000017434358,0.0,1,19.179825,1,-35.363141999999996,149.1651172
1778627333.779745,73985394,0,6,256151800,2418,10,1.21,-35.363262,149.1652372,599.02,0.0170000009238719,314.7649841308594,-0.0200000014156103,0.0,1,19.379745,1,-35.363141999999996,149.1651172
1778627333.979665,74185314,0,6,256152000,2418,10,1.21,-35.363262,149.1652372,599.03,0.0150000005960464,315.3391418457031,-0.0200000014156103,0.0,1,19.579665,1,-35.363141999999996,149.1651172
1778627334.1795852,74385234,0,6,256152200,2418,10,1.21,-35.3632619,149.1652372,599.03,0.0120000001043081,316.1579895019531,-0.0190000012516975,0.0,1,19.779585,1,-35.363141899999995,149.1651172
1778627334.3795052,74585154,0,6,256152400,2418,10,1.21,-35.3632619,149.1652371,599.03,0.0100000007078051,316.8875732421875,-0.0170000009238719,0.0,1,19.979505,1,-35.363141899999995,149.1651171
1778627334.579425,74785074,0,6,256152600,2418,10,1.21,-35.3632619,149.165237,599.04,0.0080000003799796,317.5795593261719,-0.0150000005960464,0.0,1,20.179425,0,-35.3632619,149.165237
1778627334.779345,74984994,0,6,256152800,2418,10,1.21,-35.3632619,149.165237,599.04,0.006000000052154,317.75274658203125,-0.0140000004321336,0.0,1,20.379345,0,-35.3632619,149.165237
1778627334.9792652,75184914,0,6,256153000,2418,10,1.21,-35.3632619,149.165237,599.04,0.003000000026077,319.73907470703125,-0.0130000002682209,0.0,1,20.579265,0,-35.3632619,149.165237
1778627335.1791852,75384834,0,6,256153200,2418,10,1.21,-35.3632619,149.165237,599.05,0.0010000000474974,343.864013671875,-0.0120000001043081,0.0,1,20.779185,0,-35.3632619,149.165237
1778627335.379938,75585587,0,6,256153400,2418,10,1.21,-35.3632619,149.165237,599.05,0.0020000000949949,86.11257934570312,-0.0120000001043081,0.0,1,20.979938,0,-35.3632619,149.165237
1778627335.579858,75785507,0,6,256153600,2418,10,1.21,-35.3632619,149.165237,599.05,0.0040000001899898,103.93043518066406,-0.0120000001043081,0.0,1,21.179858,0,-35.3632619,149.165237
1778627335.779778,75985427,0,6,256153800,2418,10,1.21,-35.3632619,149.165237,599.05,0.006000000052154,109.44923400878906,-0.0110000008717179,0.0,1,21.379778,0,-35.3632619,149.165237
1778627335.979698,76185347,0,6,256154000,2418,10,1.21,-35.3632619,149.165237,599.06,0.0070000002160668,110.09748077392578,-0.0100000007078051,0.0,1,21.579698,0,-35.3632619,149.165237
1778627336.179618,76385267,0,6,256154200,2418,10,1.21,-35.3632619,149.165237,599.06,0.0080000003799796,107.36589050292967,-0.0090000005438923,0.0,1,21.779618,0,-35.3632619,149.165237
1778627336.379538,76585187,0,6,256154400,2418,10,1.21,-35.3632619,149.165237,599.06,0.0090000005438923,103.46189880371094,-0.0080000003799796,0.0,1,21.979538,0,-35.3632619,149.165237
1778627336.579458,76785107,0,6,256154600,2418,10,1.21,-35.3632619,149.165237,599.06,0.0090000005438923,101.18152618408205,-0.0080000003799796,0.0,1,22.179458,0,-35.3632619,149.165237
1778627336.779378,76985027,0,6,256154800,2418,10,1.21,-35.3632619,149.165237,599.06,0.0100000007078051,102.24390411376952,-0.0080000003799796,0.0,1,22.379378,0,-35.3632619,149.165237
1778627336.979298,77184947,0,6,256155000,2418,10,1.21,-35.3632619,149.1652371,599.06,0.0100000007078051,105.24317932128906,-0.0080000003799796,0.0,1,22.579298,0,-35.3632619,149.1652371
1778627337.179218,77384867,0,6,256155200,2418,10,1.21,-35.3632619,149.1652372,599.07,0.0110000008717179,108.80310821533205,-0.0080000003799796,0.0,1,22.779218,0,-35.3632619,149.1652372
1778627337.379971,77585620,0,6,256155400,2418,10,1.21,-35.3632619,149.1652372,599.07,0.0120000001043081,112.0258560180664,-0.0080000003799796,0.0,1,22.979971,0,-35.3632619,149.1652372
1778627337.5798912,77785540,0,6,256155600,2418,10,1.21,-35.3632619,149.1652372,599.07,0.0120000001043081,114.40091705322266,-0.0070000002160668,0.0,1,23.179891,0,-35.3632619,149.1652372
1778627337.7798111,77985460,0,6,256155800,2418,10,1.21,-35.3632619,149.1652372,599.07,0.0110000008717179,116.23041534423828,-0.006000000052154,0.0,1,23.379811,0,-35.3632619,149.1652372
1778627337.979731,78185380,0,6,256156000,2418,10,1.21,-35.3632619,149.1652373,599.07,0.0100000007078051,118.21385955810548,-0.006000000052154,0.0,1,23.579731,0,-35.3632619,149.1652373
1778627338.179651,78385300,0,6,256156200,2418,10,1.21,-35.3632619,149.1652373,599.07,0.0080000003799796,121.02823638916016,-0.006000000052154,0.0,1,23.779651,0,-35.3632619,149.1652373
1778627338.3795712,78585220,0,6,256156400,2418,10,1.21,-35.3632619,149.1652373,599.07,0.0070000002160668,126.56707000732422,-0.006000000052154,0.0,1,23.979571,0,-35.3632619,149.1652373
1778627338.5794911,78785140,0,6,256156600,2418,10,1.21,-35.3632619,149.1652373,599.08,0.006000000052154,136.34750366210938,-0.006000000052154,0.0,1,24.179491,0,-35.3632619,149.1652373
1778627338.779411,78985060,0,6,256156800,2418,10,1.21,-35.3632619,149.1652373,599.08,0.006000000052154,148.67433166503906,-0.006000000052154,0.0,1,24.379411,0,-35.3632619,149.1652373
1778627338.979331,79184980,0,6,256157000,2418,10,1.21,-35.3632619,149.1652373,599.08,0.006000000052154,161.879150390625,-0.0050000003539025,0.0,1,24.579331,0,-35.3632619,149.1652373
1778627339.1792512,79384900,0,6,256157200,2418,10,1.21,-35.3632619,149.1652373,599.08,0.006000000052154,173.2908935546875,-0.0040000001899898,0.0,1,24.779251,0,-35.3632619,149.1652373
1778627339.380004,79585653,0,6,256157400,2418,10,1.21,-35.3632619,149.1652373,599.08,0.006000000052154,180.37384033203125,-0.0040000001899898,0.0,1,24.980004,0,-35.3632619,149.1652373
1778627339.579924,79785573,0,6,256157600,2418,10,1.21,-35.3632619,149.1652373,599.08,0.006000000052154,183.05967712402344,-0.0040000001899898,0.0,1,25.179924,0,-35.3632619,149.1652373
1778627339.779844,79985493,0,6,256157800,2418,10,1.21,-35.363262,149.1652373,599.08,0.006000000052154,181.673828125,-0.0040000001899898,0.0,1,25.379844,0,-35.363262,149.1652373
1778627339.979764,80185413,0,6,256158000,2418,10,1.21,-35.363262,149.1652373,599.08,0.006000000052154,177.68211364746094,-0.0040000001899898,0.0,1,25.579764,0,-35.363262,149.1652373
1778627340.179684,80385333,0,6,256158200,2418,10,1.21,-35.363262,149.1652373,599.08,0.0070000002160668,174.17250061035156,-0.0040000001899898,0.0,1,25.779684,0,-35.363262,149.1652373
1778627340.379604,80585253,0,6,256158400,2418,10,1.21,-35.363262,149.1652373,599.08,0.0070000002160668,171.6578369140625,-0.003000000026077,0.0,1,25.979604,0,-35.363262,149.1652373
1778627340.579524,80785173,0,6,256158600,2418,10,1.21,-35.363262,149.1652373,599.09,0.006000000052154,169.4585723876953,-0.003000000026077,0.0,1,26.179524,0,-35.363262,149.1652373
1778627340.7794442,80985093,0,6,256158800,2418,10,1.21,-35.363262,149.1652373,599.09,0.0050000003539025,166.62557983398438,-0.0020000000949949,0.0,1,26.379444,0,-35.363262,149.1652373
1778627340.979364,81185013,0,6,256159000,2418,10,1.21,-35.363262,149.1652373,599.09,0.0040000001899898,160.87637329101562,-0.0020000000949949,0.0,1,26.579364,0,-35.363262,149.1652373
1778627341.179284,81384933,0,6,256159200,2418,10,1.21,-35.363262,149.1652373,599.09,0.003000000026077,148.8806610107422,-0.0010000000474974,0.0,1,26.779284,0,-35.363262,149.1652373
1778627341.379204,81584853,0,6,256159400,2418,10,1.21,-35.363262,149.1652373,599.09,0.0020000000949949,128.32933044433594,-0.0010000000474974,0.0,1,26.979204,0,-35.363262,149.1652373
1778627341.579957,81785606,0,6,256159600,2418,10,1.21,-35.363262,149.1652374,599.09,0.0020000000949949,113.229736328125,-0.0010000000474974,0.0,1,27.179957,0,-35.363262,149.1652374
1778627341.7798772,81985526,0,6,256159800,2418,10,1.21,-35.363262,149.1652374,599.09,0.0020000000949949,109.32117462158205,0.0,0.0,1,27.379877,0,-35.363262,149.1652374
1778627341.9797971,82185446,0,6,256160000,2418,10,1.21,-35.363262,149.1652374,599.09,0.0020000000949949,113.2466278076172,0.0,0.0,1,27.579797,0,-35.363262,149.1652374
1778627342.179717,82385366,0,6,256160200,2418,10,1.21,-35.363262,149.1652374,599.09,0.0020000000949949,130.0643310546875,0.0,0.0,1,27.779717,0,-35.363262,149.1652374
1778627342.379637,82585286,0,6,256160400,2418,10,1.21,-35.3632621,149.1652374,599.09,0.0020000000949949,157.8590087890625,0.0,0.0,1,27.979637,0,-35.3632621,149.1652374
1778627342.5795572,82785206,0,6,256160600,2418,10,1.21,-35.3632621,149.1652374,599.09,0.0020000000949949,180.2662048339844,0.0,0.0,1,28.179557,0,-35.3632621,149.1652374
1778627342.7794771,82985126,0,6,256160800,2418,10,1.21,-35.3632621,149.1652374,599.09,0.0020000000949949,197.2079162597656,0.0,0.0,1,28.379477,0,-35.3632621,149.1652374
1778627342.979397,83185046,0,6,256161000,2418,10,1.21,-35.3632621,149.1652374,599.09,0.0020000000949949,213.763427734375,0.0,0.0,1,28.579397,0,-35.3632621,149.1652374
1778627343.179317,83384966,0,6,256161200,2418,10,1.21,-35.3632621,149.1652374,599.09,0.0020000000949949,230.7312164306641,0.0,0.0,1,28.779317,0,-35.3632621,149.1652374
1778627343.3792372,83584886,0,6,256161400,2418,10,1.21,-35.3632621,149.1652374,599.09,0.0010000000474974,251.8578186035156,0.0,0.0,1,28.979237,0,-35.3632621,149.1652374
1778627343.57999,83785639,0,6,256161600,2418,10,1.21,-35.3632621,149.1652374,599.09,0.0020000000949949,277.7009582519531,0.0,0.0,1,29.17999,0,-35.3632621,149.1652374
1778627343.77991,83985559,0,6,256161800,2418,10,1.21,-35.3632621,149.1652374,599.09,0.0020000000949949,301.0235290527344,0.0,0.0,1,29.37991,0,-35.3632621,149.1652374
1778627343.97983,84185479,0,6,256162000,2418,10,1.21,-35.3632621,149.1652374,599.09,0.003000000026077,316.4173583984375,0.0,0.0,1,29.57983,0,-35.3632621,149.1652374
1778627344.1797502,84385399,0,6,256162200,2418,10,1.21,-35.3632621,149.1652374,599.09,0.0040000001899898,324.4855041503906,0.0,0.0,1,29.77975,0,-35.3632621,149.1652374
1778627344.37967,84585319,0,6,256162400,2418,10,1.21,-35.3632621,149.1652374,599.09,0.0050000003539025,328.556884765625,0.0,0.0,1,29.97967,0,-35.3632621,149.1652374
1778627344.57959,84785239,0,6,256162600,2418,10,1.21,-35.3632621,149.1652374,599.09,0.0050000003539025,331.4118347167969,0.0,0.0,1,30.17959,0,-35.3632621,149.1652374
1778627344.77951,84985159,0,6,256162800,2418,10,1.21,-35.3632621,149.1652374,599.09,0.0050000003539025,332.6035461425781,0.0,0.0,1,30.37951,0,-35.3632621,149.1652374
1778627344.9794302,85185079,0,6,256163000,2418,10,1.21,-35.3632621,149.1652374,599.09,0.006000000052154,331.6312255859375,0.0,0.0,1,30.57943,0,-35.3632621,149.1652374
1778627345.17935,85384999,0,6,256163200,2418,10,1.21,-35.3632621,149.1652374,599.09,0.006000000052154,330.3185119628906,0.0,0.0,1,30.77935,0,-35.3632621,149.1652374
1778627345.37927,85584919,0,6,256163400,2418,10,1.21,-35.3632621,149.1652374,599.09,0.006000000052154,330.3648376464844,0.0,0.0,1,30.97927,0,-35.3632621,149.1652374
1778627345.57919,85784839,0,6,256163600,2418,10,1.21,-35.3632621,149.1652374,599.09,0.006000000052154,330.3105773925781,0.0,0.0,1,31.17919,0,-35.3632621,149.1652374
1778627345.7799428,85985592,0,6,256163800,2418,10,1.21,-35.3632621,149.1652374,599.09,0.0050000003539025,329.3619689941406,0.0,0.0,1,31.379943,0,-35.3632621,149.1652374
1778627345.9798632,86185512,0,6,256164000,2418,10,1.21,-35.3632621,149.1652374,599.09,0.0050000003539025,330.2013854980469,0.0,0.0,1,31.579863,0,-35.3632621,149.1652374
1778627346.179783,86385432,0,6,256164200,2418,10,1.21,-35.3632621,149.1652374,599.09,0.0050000003539025,335.1305236816406,0.0,0.0,1,31.779783,0,-35.3632621,149.1652374
1778627346.379703,86585352,0,6,256164400,2418,10,1.21,-35.3632621,149.1652374,599.09,0.0040000001899898,343.2132263183594,0.0,0.0,1,31.979703,0,-35.3632621,149.1652374
1778627346.5796227,86785272,0,6,256164600,2418,10,1.21,-35.363262,149.1652374,599.09,0.0040000001899898,348.42755126953125,0.0,0.0,1,32.179623,0,-35.363262,149.1652374
1778627346.7795432,86985192,0,6,256164800,2418,10,1.21,-35.363262,149.1652374,599.09,0.0040000001899898,347.5525817871094,0.0,0.0,1,32.379543,0,-35.363262,149.1652374
1778627346.979463,87185112,0,6,256165000,2418,10,1.21,-35.363262,149.1652374,599.09,0.003000000026077,344.0859069824219,0.0010000000474974,0.0,1,32.579463,0,-35.363262,149.1652374
1778627347.179383,87385032,0,6,256165200,2418,10,1.21,-35.363262,149.1652374,599.09,0.003000000026077,339.3833312988281,0.0010000000474974,0.0,1,32.779383,0,-35.363262,149.1652374
1778627347.3793032,87584952,0,6,256165400,2418,10,1.21,-35.363262,149.1652374,599.09,0.003000000026077,332.0691223144531,0.0010000000474974,0.0,1,32.979303,0,-35.363262,149.1652374
1778627347.5792232,87784872,0,6,256165600,2418,10,1.21,-35.363262,149.1652374,599.09,0.0020000000949949,318.989013671875,0.0010000000474974,0.0,1,33.179223,0,-35.363262,149.1652374
1778627347.779976,87985625,0,6,256165800,2418,10,1.21,-35.363262,149.1652373,599.09,0.0020000000949949,294.35760498046875,0.0010000000474974,0.0,1,33.379976,0,-35.363262,149.1652373
1778627347.979896,88185545,0,6,256166000,2418,10,1.21,-35.363262,149.1652373,599.09,0.0010000000474974,260.8607177734375,0.0010000000474974,0.0,1,33.579896,0,-35.363262,149.1652373
1778627348.179816,88385465,0,6,256166200,2418,10,1.21,-35.363262,149.1652373,599.09,0.0020000000949949,232.83627319335935,0.0010000000474974,0.0,1,33.779816,0,-35.363262,149.1652373
1778627348.379736,88585385,0,6,256166400,2418,10,1.21,-35.363262,149.1652373,599.09,0.0020000000949949,206.9498291015625,0.0010000000474974,0.0,1,33.979736,0,-35.363262,149.1652373
1778627348.579656,88785305,0,6,256166600,2418,10,1.21,-35.363262,149.1652373,599.09,0.0020000000949949,184.0969696044922,0.0010000000474974,0.0,1,34.179656,0,-35.363262,149.1652373
1778627348.779576,88985225,0,6,256166800,2418,10,1.21,-35.363262,149.1652373,599.09,0.003000000026077,167.62808227539062,0.0010000000474974,0.0,1,34.379576,0,-35.363262,149.1652373
1778627348.979496,89185145,0,6,256167000,2418,10,1.21,-35.363262,149.1652373,599.09,0.003000000026077,150.7786102294922,0.0010000000474974,0.0,1,34.579496,0,-35.363262,149.1652373
1778627349.179416,89385065,0,6,256167200,2418,10,1.21,-35.363262,149.1652373,599.08,0.003000000026077,133.6572723388672,0.0010000000474974,0.0,1,34.779416,0,-35.363262,149.1652373
1778627349.379336,89584985,0,6,256167400,2418,10,1.21,-35.363262,149.1652373,599.08,0.0040000001899898,122.3137664794922,0.0010000000474974,0.0,1,34.979336,0,-35.363262,149.1652373
1778627349.579256,89784905,0,6,256167600,2418,10,1.21,-35.363262,149.1652373,599.08,0.0040000001899898,115.80926513671876,0.0010000000474974,0.0,1,35.179256,0,-35.363262,149.1652373
1778627349.779176,89984825,0,6,256167800,2418,10,1.21,-35.363262,149.1652373,599.08,0.0050000003539025,111.80684661865234,0.0010000000474974,0.0,1,35.379176,0,-35.363262,149.1652373
1778627349.9799292,90185578,0,6,256168000,2418,10,1.21,-35.363262,149.1652373,599.08,0.0050000003539025,109.87252044677734,0.0,0.0,1,35.579929,0,-35.363262,149.1652373
1778627350.1798491,90385498,0,6,256168200,2418,10,1.21,-35.363262,149.1652373,599.08,0.0050000003539025,110.76363372802734,0.0,0.0,1,35.779849,0,-35.363262,149.1652373
1778627350.379769,90585418,0,6,256168400,2418,10,1.21,-35.363262,149.1652373,599.08,0.0050000003539025,114.1697006225586,0.0,0.0,1,35.979769,0,-35.363262,149.1652373
1778627350.579689,90785338,0,6,256168600,2418,10,1.21,-35.363262,149.1652373,599.08,0.0050000003539025,117.66073608398438,0.0,0.0,1,36.179689,0,-35.363262,149.1652373
1778627350.7796092,90985258,0,6,256168800,2418,10,1.21,-35.363262,149.1652373,599.08,0.0050000003539025,119.8921890258789,0.0,0.0,1,36.379609,0,-35.363262,149.1652373
1778627350.9795291,91185178,0,6,256169000,2418,10,1.21,-35.363262,149.1652373,599.08,0.006000000052154,121.7178955078125,-0.0010000000474974,0.0,1,36.579529,0,-35.363262,149.1652373
1778627351.179449,91385098,0,6,256169200,2418,10,1.21,-35.363262,149.1652373,599.08,0.006000000052154,123.97732543945312,-0.0010000000474974,0.0,1,36.779449,0,-35.363262,149.1652373
1778627351.379369,91585018,0,6,256169400,2418,10,1.21,-35.363262,149.1652374,599.08,0.0070000002160668,125.49608612060548,-0.0010000000474974,0.0,1,36.979369,0,-35.363262,149.1652374
1778627351.5792892,91784938,0,6,256169600,2418,10,1.21,-35.363262,149.1652374,599.09,0.0070000002160668,125.70586395263672,-0.0010000000474974,0.0,1,37.179289,0,-35.363262,149.1652374
1778627351.7792091,91984858,0,6,256169800,2418,10,1.21,-35.363262,149.1652374,599.09,0.0070000002160668,125.5097198486328,-0.0010000000474974,0.0,1,37.379209,0,-35.363262,149.1652374
1778627351.979962,92185611,0,6,256170000,2418,10,1.21,-35.363262,149.1652374,599.09,0.006000000052154,126.23796844482422,-0.0010000000474974,0.0,1,37.579962,0,-35.363262,149.1652374
1778627352.179882,92385531,0,6,256170200,2418,10,1.21,-35.363262,149.1652374,599.09,0.006000000052154,130.2950439453125,0.0,0.0,1,37.779882,0,-35.363262,149.1652374
1778627352.379802,92585451,0,6,256170400,2418,10,1.21,-35.363262,149.1652374,599.09,0.0050000003539025,138.5428924560547,0.0,0.0,1,37.979802,0,-35.363262,149.1652374
1778627352.579722,92785371,0,6,256170600,2418,10,1.21,-35.363262,149.1652374,599.09,0.0040000001899898,150.7030029296875,0.0,0.0,1,38.179722,0,-35.363262,149.1652374
1778627352.779642,92985291,0,6,256170800,2418,10,1.21,-35.363262,149.1652374,599.09,0.0040000001899898,162.72702026367188,0.0,0.0,1,38.379642,0,-35.363262,149.1652374
1778627352.979562,93185211,0,6,256171000,2418,10,1.21,-35.363262,149.1652374,599.09,0.0040000001899898,167.8851318359375,0.0010000000474974,0.0,1,38.579562,0,-35.363262,149.1652374
1778627353.179482,93385131,0,6,256171200,2418,10,1.21,-35.3632621,149.1652374,599.09,0.0040000001899898,169.330322265625,0.0010000000474974,0.0,1,38.779482,0,-35.3632621,149.1652374
1778627353.379402,93585051,0,6,256171400,2418,10,1.21,-35.3632621,149.1652374,599.08,0.0040000001899898,172.25833129882812,0.0010000000474974,0.0,1,38.979402,0,-35.3632621,149.1652374
1778627353.579322,93784971,0,6,256171600,2418,10,1.21,-35.3632621,149.1652374,599.08,0.003000000026077,174.15892028808594,0.0010000000474974,0.0,1,39.179322,0,-35.3632621,149.1652374
1778627353.779242,93984891,0,6,256171800,2418,10,1.21,-35.3632621,149.1652374,599.08,0.0020000000949949,172.33656311035156,0.0010000000474974,0.0,1,39.379242,0,-35.3632621,149.1652374
1778627353.979995,94185644,0,6,256172000,2418,10,1.21,-35.3632621,149.1652374,599.08,0.0010000000474974,157.50340270996094,0.0010000000474974,0.0,1,39.579995,0,-35.3632621,149.1652374
1778627354.1799152,94385564,0,6,256172200,2418,10,1.21,-35.3632621,149.1652374,599.08,0.0,62.91388702392578,0.0,0.0,1,39.779915,0,-35.3632621,149.1652374
1778627354.3798351,94585484,0,6,256172400,2418,10,1.21,-35.3632621,149.1652374,599.08,0.0020000000949949,41.07904052734375,0.0,0.0,1,39.979835,0,-35.3632621,149.1652374
1778627354.579755,94785404,0,6,256172600,2418,10,1.21,-35.3632621,149.1652374,599.08,0.0020000000949949,33.432228088378906,0.0,0.0,1,40.179755,0,-35.3632621,149.1652374
1778627354.779675,94985324,0,6,256172800,2418,10,1.21,-35.3632621,149.1652374,599.08,0.0020000000949949,22.12908935546875,0.0,0.0,1,40.379675,0,-35.3632621,149.1652374
1778627354.9795952,95185244,0,6,256173000,2418,10,1.21,-35.3632621,149.1652375,599.08,0.0020000000949949,9.042840003967283,0.0,0.0,1,40.579595,0,-35.3632621,149.1652375
1778627355.1795151,95385164,0,6,256173200,2418,10,1.21,-35.3632621,149.1652375,599.08,0.0020000000949949,359.6522216796875,-0.0010000000474974,0.0,1,40.779515,0,-35.3632621,149.1652375
1778627355.379435,95585084,0,6,256173400,2418,10,1.21,-35.3632621,149.1652375,599.08,0.0020000000949949,358.1412048339844,-0.0010000000474974,0.0,1,40.979435,0,-35.3632621,149.1652375
1778627355.579355,95785004,0,6,256173600,2418,10,1.21,-35.3632621,149.1652375,599.08,0.0020000000949949,357.283935546875,-0.0010000000474974,0.0,1,41.179355,0,-35.3632621,149.1652375
1778627355.7792752,95984924,0,6,256173800,2418,10,1.21,-35.3632621,149.1652375,599.09,0.003000000026077,347.5439758300781,-0.0010000000474974,0.0,1,41.379275,0,-35.3632621,149.1652375
1778627355.979195,96184844,0,6,256174000,2418,10,1.21,-35.3632621,149.1652375,599.09,0.0040000001899898,333.9245910644531,-0.0010000000474974,0.0,1,41.579195,0,-35.3632621,149.1652375
1778627356.179948,96385597,0,6,256174200,2418,10,1.21,-35.3632621,149.1652375,599.09,0.0050000003539025,322.4483337402344,-0.0010000000474974,0.0,1,41.779948,0,-35.3632621,149.1652375
1778627356.379868,96585517,0,6,256174400,2418,10,1.21,-35.3632621,149.1652375,599.09,0.0050000003539025,315.4458312988281,0.0,0.0,1,41.979868,0,-35.3632621,149.1652375
1778627356.5797882,96785437,0,6,256174600,2418,10,1.21,-35.3632621,149.1652375,599.09,0.006000000052154,310.7257080078125,0.0,0.0,1,42.179788,0,-35.3632621,149.1652375
1778627356.779708,96985357,0,6,256174800,2418,10,1.21,-35.3632621,149.1652375,599.09,0.006000000052154,306.7650146484375,0.0,0.0,1,42.379708,0,-35.3632621,149.1652375
1778627356.979628,97185277,0,6,256175000,2418,10,1.21,-35.3632621,149.1652375,599.09,0.006000000052154,304.0668640136719,0.0,0.0,1,42.579628,0,-35.3632621,149.1652375
1778627357.179548,97385197,0,6,256175200,2418,10,1.21,-35.3632621,149.1652375,599.09,0.006000000052154,302.7639465332031,0.0010000000474974,0.0,1,42.779548,0,-35.3632621,149.1652375
1778627357.3794682,97585117,0,6,256175400,2418,10,1.21,-35.3632621,149.1652375,599.09,0.006000000052154,301.3710021972656,0.0010000000474974,0.0,1,42.979468,0,-35.3632621,149.1652375
1778627357.579388,97785037,0,6,256175600,2418,10,1.21,-35.3632621,149.1652375,599.09,0.006000000052154,298.8345031738281,0.0010000000474974,0.0,1,43.179388,0,-35.3632621,149.1652375
1778627357.779308,97984957,0,6,256175800,2418,10,1.21,-35.3632621,149.1652374,599.08,0.006000000052154,298.8408508300781,0.0010000000474974,0.0,1,43.379308,0,-35.3632621,149.1652374
1778627357.979228,98184877,0,6,256176000,2418,10,1.21,-35.3632621,149.1652374,599.08,0.006000000052154,301.8388671875,0.0010000000474974,0.0,1,43.579228,0,-35.3632621,149.1652374
1778627358.1799808,98385630,0,6,256176200,2418,10,1.21,-35.3632621,149.1652374,599.08,0.006000000052154,304.0661926269531,0.0010000000474974,0.0,1,43.779981,0,-35.3632621,149.1652374
1778627358.3799012,98585550,0,6,256176400,2418,10,1.21,-35.3632621,149.1652374,599.08,0.0070000002160668,305.736328125,0.0010000000474974,0.0,1,43.979901,0,-35.3632621,149.1652374
1778627358.579821,98785470,0,6,256176600,2418,10,1.21,-35.3632621,149.1652374,599.08,0.0070000002160668,309.5140380859375,0.0,0.0,1,44.179821,0,-35.3632621,149.1652374
1778627358.779741,98985390,0,6,256176800,2418,10,1.21,-35.363262,149.1652374,599.08,0.006000000052154,316.7225952148437,0.0,0.0,1,44.379741,0,-35.363262,149.1652374
1778627358.9796607,99185310,0,6,256177000,2418,10,1.21,-35.363262,149.1652374,599.08,0.0050000003539025,327.3623046875,0.0,0.0,1,44.579661,0,-35.363262,149.1652374
1778627359.1795812,99385230,0,6,256177200,2418,10,1.21,-35.363262,149.1652374,599.08,0.0050000003539025,338.86553955078125,0.0,0.0,1,44.779581,0,-35.363262,149.1652374
1778627359.379501,99585150,0,6,256177400,2418,10,1.21,-35.363262,149.1652374,599.08,0.0040000001899898,347.65155029296875,0.0,0.0,1,44.979501,0,-35.363262,149.1652374
1778627359.579421,99785070,0,6,256177600,2418,10,1.21,-35.363262,149.1652374,599.08,0.003000000026077,352.966796875,-0.0010000000474974,0.0,1,45.179421,0,-35.363262,149.1652374
1778627359.7793407,99984990,0,6,256177800,2418,10,1.21,-35.363262,149.1652374,599.08,0.0010000000474974,348.3925170898437,-0.0010000000474974,0.0,1,45.379341,0,-35.363262,149.1652374
1778627359.9792612,100184910,0,6,256178000,2418,10,1.21,-35.363262,149.1652374,599.08,0.0,286.0940856933594,-0.0010000000474974,0.0,1,45.579261,0,-35.363262,149.1652374
1778627360.179181,100384830,0,6,256178200,2418,10,1.21,-35.363262,149.1652374,599.09,0.0010000000474974,223.7757110595703,-0.0010000000474974,0.0,1,45.779181,0,-35.363262,149.1652374
1778627360.379934,100585583,0,6,256178400,2418,10,1.21,-35.363262,149.1652374,599.09,0.0020000000949949,217.45913696289065,-0.0010000000474974,0.0,1,45.979934,0,-35.363262,149.1652374
1778627360.579854,100785503,0,6,256178600,2418,10,1.21,-35.363262,149.1652374,599.09,0.003000000026077,217.85321044921875,0.0,0.0,1,46.179854,0,-35.363262,149.1652374
1778627360.779774,100985423,0,6,256178800,2418,10,1.21,-35.363262,149.1652374,599.09,0.003000000026077,217.92774963378903,0.0,0.0,1,46.379774,0,-35.363262,149.1652374
1778627360.979694,101185343,0,6,256179000,2418,10,1.21,-35.363262,149.1652374,599.09,0.003000000026077,217.4715881347656,0.0,0.0,1,46.579694,0,-35.363262,149.1652374
1778627361.179614,101385263,0,6,256179200,2418,10,1.21,-35.363262,149.1652373,599.09,0.0020000000949949,218.94464111328125,0.0,0.0,1,46.779614,0,-35.363262,149.1652373
1778627361.379534,101585183,0,6,256179400,2418,10,1.21,-35.363262,149.1652373,599.09,0.0020000000949949,223.69776916503903,0.0,0.0,1,46.979534,0,-35.363262,149.1652373
1778627361.579454,101785103,0,6,256179600,2418,10,1.21,-35.363262,149.1652373,599.09,0.0020000000949949,222.9016571044922,0.0010000000474974,0.0,1,47.179454,0,-35.363262,149.1652373
1778627361.779374,101985023,0,6,256179800,2418,10,1.21,-35.363262,149.1652373,599.09,0.0020000000949949,211.3933868408203,0.0010000000474974,0.0,1,47.379374,0,-35.363262,149.1652373
1778627361.979294,102184943,0,6,256180000,2418,10,1.21,-35.363262,149.1652373,599.08,0.0020000000949949,191.6069183349609,0.0010000000474974,0.0,1,47.579294,0,-35.363262,149.1652373
1778627362.179214,102384863,0,6,256180200,2418,10,1.21,-35.363262,149.1652373,599.08,0.0020000000949949,169.61563110351562,0.0010000000474974,0.0,1,47.779214,0,-35.363262,149.1652373
1778627362.3799672,102585616,0,6,256180400,2418,10,1.21,-35.363262,149.1652373,599.08,0.003000000026077,151.6405487060547,0.0010000000474974,0.0,1,47.979967,0,-35.363262,149.1652373
1778627362.5798872,102785536,0,6,256180600,2418,10,1.21,-35.363262,149.1652373,599.08,0.003000000026077,142.00572204589844,0.0010000000474974,0.0,1,48.179887,0,-35.363262,149.1652373
1778627362.779807,102985456,0,6,256180800,2418,10,1.21,-35.363262,149.1652373,599.08,0.0040000001899898,137.27908325195312,0.0,0.0,1,48.379807,0,-35.363262,149.1652373
1778627362.979727,103185376,0,6,256181000,2418,10,1.21,-35.363262,149.1652373,599.08,0.0050000003539025,133.00047302246094,0.0,0.0,1,48.579727,0,-35.363262,149.1652373
1778627363.1796472,103385296,0,6,256181200,2418,10,1.21,-35.363262,149.1652373,599.08,0.006000000052154,127.48320770263672,0.0,0.0,1,48.779647,0,-35.363262,149.1652373
1778627363.3795671,103585216,0,6,256181400,2418,10,1.21,-35.363262,149.1652373,599.08,0.006000000052154,122.81439971923828,0.0,0.0,1,48.979567,0,-35.363262,149.1652373
1778627363.579487,103785136,0,6,256181600,2418,10,1.21,-35.363262,149.1652373,599.08,0.006000000052154,121.3684539794922,0.0,0.0,1,49.179487,0,-35.363262,149.1652373
1778627363.779407,103985056,0,6,256181800,2418,10,1.21,-35.363262,149.1652373,599.08,0.006000000052154,121.94744873046876,0.0,0.0,1,49.379407,0,-35.363262,149.1652373
1778627363.9793272,104184976,0,6,256182000,2418,10,1.21,-35.363262,149.1652373,599.08,0.0050000003539025,122.53986358642578,0.0,0.0,1,49.579327,0,-35.363262,149.1652373
1778627364.1792471,104384896,0,6,256182200,2418,10,1.21,-35.363262,149.1652373,599.08,0.0040000001899898,124.05422973632812,0.0,0.0,1,49.779247,0,-35.363262,149.1652373
1778627364.38,104585649,0,6,256182400,2418,10,1.21,-35.363262,149.1652373,599.08,0.0040000001899898,127.57137298583984,-0.0010000000474974,0.0,1,49.98,0,-35.363262,149.1652373
1778627364.57992,104785569,0,6,256182600,2418,10,1.21,-35.363262,149.1652373,599.08,0.0040000001899898,131.38414001464844,-0.0010000000474974,0.0,1,50.17992,0,-35.363262,149.1652373
1778627364.77984,104985489,0,6,256182800,2418,10,1.21,-35.363262,149.1652373,599.08,0.0050000003539025,133.1786346435547,-0.0010000000474974,0.0,1,50.37984,0,-35.363262,149.1652373
1778627364.97976,105185409,0,6,256183000,2418,10,1.21,-35.363262,149.1652374,599.09,0.0050000003539025,132.18289184570312,-0.0010000000474974,0.0,1,50.57976,0,-35.363262,149.1652374
1778627365.17968,105385329,0,6,256183200,2418,10,1.21,-35.363262,149.1652374,599.09,0.006000000052154,129.72621154785156,-0.0010000000474974,0.0,1,50.77968,0,-35.363262,149.1652374
1778627365.3796,105585249,0,6,256183400,2418,10,1.21,-35.363262,149.1652374,599.09,0.0050000003539025,128.53761291503906,-0.0010000000474974,0.0,1,50.9796,0,-35.363262,149.1652374
1778627365.57952,105785169,0,6,256183600,2418,10,1.21,-35.3632621,149.1652374,599.09,0.0050000003539025,131.17288208007812,0.0,0.0,1,51.17952,0,-35.3632621,149.1652374
1778627365.77944,105985089,0,6,256183800,2418,10,1.21,-35.3632621,149.1652374,599.09,0.0040000001899898,137.42787170410156,0.0,0.0,1,51.37944,0,-35.3632621,149.1652374
1778627365.97936,106185009,0,6,256184000,2418,10,1.21,-35.3632621,149.1652374,599.09,0.0040000001899898,145.7454833984375,0.0,0.0,1,51.57936,0,-35.3632621,149.1652374
1778627366.17928,106384929,0,6,256184200,2418,10,1.21,-35.3632621,149.1652374,599.09,0.003000000026077,156.56163024902344,0.0,0.0,1,51.77928,0,-35.3632621,149.1652374
1778627366.3792002,106584849,0,6,256184400,2418,10,1.21,-35.3632621,149.1652374,599.09,0.0020000000949949,171.56362915039062,0.0,0.0,1,51.9792,0,-35.3632621,149.1652374
1778627366.5799532,106785602,0,6,256184600,2418,10,1.21,-35.3632621,149.1652374,599.09,0.0010000000474974,199.01937866210935,0.0010000000474974,0.0,1,52.179953,0,-35.3632621,149.1652374
1778627366.7798731,106985522,0,6,256184800,2418,10,1.21,-35.3632621,149.1652374,599.09,0.0010000000474974,259.1604309082031,0.0010000000474974,0.0,1,52.379873,0,-35.3632621,149.1652374
1778627366.979793,107185442,0,6,256185000,2418,10,1.21,-35.3632621,149.1652374,599.09,0.0010000000474974,307.1374206542969,0.0010000000474974,0.0,1,52.579793,0,-35.3632621,149.1652374
1778627367.179713,107385362,0,6,256185200,2418,10,1.21,-35.3632621,149.1652374,599.08,0.0020000000949949,331.7857666015625,0.0010000000474974,0.0,1,52.779713,0,-35.3632621,149.1652374
1778627367.3796332,107585282,0,6,256185400,2418,10,1.21,-35.3632621,149.1652374,599.08,0.003000000026077,345.67437744140625,0.0010000000474974,0.0,1,52.979633,0,-35.3632621,149.1652374
1778627367.5795531,107785202,0,6,256185600,2418,10,1.21,-35.3632621,149.1652374,599.08,0.0040000001899898,351.48553466796875,0.0010000000474974,0.0,1,53.179553,0,-35.3632621,149.1652374
1778627367.779473,107985122,0,6,256185800,2418,10,1.21,-35.3632621,149.1652374,599.08,0.0040000001899898,353.95684814453125,0.0010000000474974,0.0,1,53.379473,0,-35.3632621,149.1652374
1778627367.979393,108185042,0,6,256186000,2418,10,1.21,-35.3632621,149.1652374,599.08,0.0040000001899898,355.1030578613281,0.0,0.0,1,53.579393,0,-35.3632621,149.1652374
1778627368.1793132,108384962,0,6,256186200,2418,10,1.21,-35.3632621,149.1652374,599.08,0.0040000001899898,354.8357849121094,0.0,0.0,1,53.779313,0,-35.3632621,149.1652374
1778627368.3792331,108584882,0,6,256186400,2418,10,1.21,-35.3632621,149.1652374,599.08,0.0040000001899898,354.6194152832031,0.0,0.0,1,53.979233,0,-35.3632621,149.1652374
1778627368.579986,108785635,0,6,256186600,2418,10,1.21,-35.3632621,149.1652374,599.08,0.003000000026077,352.4748229980469,0.0,0.0,1,54.179986,0,-35.3632621,149.1652374
1778627368.779906,108985555,0,6,256186800,2418,10,1.21,-35.3632621,149.1652374,599.08,0.003000000026077,343.7337341308594,-0.0010000000474974,0.0,1,54.379906,0,-35.3632621,149.1652374
1778627368.9798262,109185475,0,6,256187000,2418,10,1.21,-35.3632621,149.1652374,599.08,0.003000000026077,331.7591552734375,-0.0010000000474974,0.0,1,54.579826,0,-35.3632621,149.1652374
1778627369.179746,109385395,0,6,256187200,2418,10,1.21,-35.3632621,149.1652374,599.08,0.0040000001899898,325.5365905761719,-0.0010000000474974,0.0,1,54.779746,0,-35.3632621,149.1652374
1778627369.379666,109585315,0,6,256187400,2418,10,1.21,-35.3632621,149.1652374,599.08,0.0040000001899898,324.1286926269531,-0.0010000000474974,0.0,1,54.979666,0,-35.3632621,149.1652374
1778627369.579586,109785235,0,6,256187600,2418,10,1.21,-35.3632621,149.1652374,599.09,0.0050000003539025,324.8800048828125,-0.0010000000474974,0.0,1,55.179586,0,-35.3632621,149.1652374
1778627369.7795062,109985155,0,6,256187800,2418,10,1.21,-35.3632621,149.1652374,599.09,0.0050000003539025,326.17633056640625,-0.0010000000474974,0.0,1,55.379506,0,-35.3632621,149.1652374
1778627369.979426,110185075,0,6,256188000,2418,10,1.21,-35.3632621,149.1652374,599.09,0.0050000003539025,327.36212158203125,0.0,0.0,1,55.579426,0,-35.3632621,149.1652374
1778627370.179346,110384995,0,6,256188200,2418,10,1.21,-35.3632621,149.1652374,599.09,0.0050000003539025,329.0406494140625,0.0,0.0,1,55.779346,0,-35.3632621,149.1652374
1778627370.379266,110584915,0,6,256188400,2418,10,1.21,-35.3632621,149.1652374,599.09,0.0050000003539025,330.6246337890625,0.0,0.0,1,55.979266,0,-35.3632621,149.1652374
1778627370.5791862,110784835,0,6,256188600,2418,10,1.21,-35.363262,149.1652374,599.09,0.0050000003539025,333.7939453125,0.0,0.0,1,56.179186,0,-35.363262,149.1652374
1778627370.7799392,110985588,0,6,256188800,2418,10,1.21,-35.363262,149.1652374,599.09,0.0050000003539025,337.648681640625,0.0,0.0,1,56.379939,0,-35.363262,149.1652374
1778627370.979859,111185508,0,6,256189000,2418,10,1.21,-35.363262,149.1652374,599.09,0.0040000001899898,338.4552307128906,0.0010000000474974,0.0,1,56.579859,0,-35.363262,149.1652374
1778627371.179779,111385428,0,6,256189200,2418,10,1.21,-35.363262,149.1652374,599.09,0.0040000001899898,334.6186828613281,0.0010000000474974,0.0,1,56.779779,0,-35.363262,149.1652374
1778627371.3796988,111585348,0,6,256189400,2418,10,1.21,-35.363262,149.1652374,599.09,0.003000000026077,325.36431884765625,0.0010000000474974,0.0,1,56.979699,0,-35.363262,149.1652374
1778627371.5796192,111785268,0,6,256189600,2418,10,1.21,-35.363262,149.1652374,599.08,0.0020000000949949,310.20166015625,0.0010000000474974,0.0,1,57.179619,0,-35.363262,149.1652374
1778627371.779539,111985188,0,6,256189800,2418,10,1.21,-35.363262,149.1652374,599.08,0.0020000000949949,287.3868408203125,0.0010000000474974,0.0,1,57.379539,0,-35.363262,149.1652374
1778627371.979459,112185108,0,6,256190000,2418,10,1.21,-35.363262,149.1652374,599.08,0.0020000000949949,263.14923095703125,0.0010000000474974,0.0,1,57.579459,0,-35.363262,149.1652374
1778627372.1793787,112385028,0,6,256190200,2418,10,1.21,-35.363262,149.1652374,599.08,0.0020000000949949,246.70529174804688,0.0010000000474974,0.0,1,57.779379,0,-35.363262,149.1652374
1778627372.3792992,112584948,0,6,256190400,2418,10,1.21,-35.363262,149.1652374,599.08,0.0020000000949949,235.35220336914065,0.0,0.0,1,57.979299,0,-35.363262,149.1652374
1778627372.579219,112784868,0,6,256190600,2418,10,1.21,-35.363262,149.1652374,599.08,0.003000000026077,230.63360595703125,0.0,0.0,1,58.179219,0,-35.363262,149.1652374
1778627372.779972,112985621,0,6,256190800,2418,10,1.21,-35.363262,149.1652374,599.08,0.003000000026077,232.43728637695312,0.0,0.0,1,58.379972,0,-35.363262,149.1652374
1778627372.979892,113185541,0,6,256191000,2418,10,1.21,-35.363262,149.1652374,599.08,0.003000000026077,233.5816345214844,0.0,0.0,1,58.579892,0,-35.363262,149.1652374
1778627373.179812,113385461,0,6,256191200,2418,10,1.21,-35.363262,149.1652374,599.08,0.003000000026077,233.0641632080078,-0.0010000000474974,0.0,1,58.779812,0,-35.363262,149.1652374
1778627373.379732,113585381,0,6,256191400,2418,10,1.21,-35.363262,149.1652374,599.08,0.003000000026077,233.68624877929688,-0.0010000000474974,0.0,1,58.979732,0,-35.363262,149.1652374
1778627373.579652,113785301,0,6,256191600,2418,10,1.21,-35.363262,149.1652374,599.08,0.003000000026077,232.73208618164065,-0.0010000000474974,0.0,1,59.179652,0,-35.363262,149.1652374
1778627373.779572,113985221,0,6,256191800,2418,10,1.21,-35.363262,149.1652373,599.09,0.003000000026077,229.52247619628903,-0.0010000000474974,0.0,1,59.379572,0,-35.363262,149.1652373
1778627373.979492,114185141,0,6,256192000,2418,10,1.21,-35.363262,149.1652373,599.09,0.003000000026077,229.25135803222656,-0.0010000000474974,0.0,1,59.579492,0,-35.363262,149.1652373
1778627374.179412,114385061,0,6,256192200,2418,10,1.21,-35.363262,149.1652373,599.09,0.003000000026077,230.02996826171875,-0.0010000000474974,0.0,1,59.779412,0,-35.363262,149.1652373
1778627374.379332,114584981,0,6,256192400,2418,10,1.21,-35.363262,149.1652373,599.09,0.003000000026077,227.3575592041016,0.0,0.0,1,59.979332,0,-35.363262,149.1652373
1778627374.579252,114784901,0,6,256192600,2418,10,1.21,-35.363262,149.1652373,599.09,0.003000000026077,220.7177276611328,0.0,0.0,1,60.179252,0,-35.363262,149.1652373
1778627374.7800052,114985654,0,6,256192800,2418,10,1.21,-35.363262,149.1652373,599.09,0.0020000000949949,207.30050659179688,0.0,0.0,1,60.380005,0,-35.363262,149.1652373
1778627374.9799252,115185574,0,6,256193000,2418,10,1.21,-35.363262,149.1652373,599.09,0.0010000000474974,175.69400024414062,0.0,0.0,1,60.579925,0,-35.363262,149.1652373
1778627375.179845,115385494,0,6,256193200,2418,10,1.21,-35.363262,149.1652373,599.09,0.0020000000949949,144.73236083984375,0.0,0.0,1,60.779845,0,-35.363262,149.1652373
1778627375.379765,115585414,0,6,256193400,2418,10,1.21,-35.363262,149.1652373,599.09,0.0020000000949949,133.39218139648438,0.0010000000474974,0.0,1,60.979765,0,-35.363262,149.1652373
1778627375.5796852,115785334,0,6,256193600,2418,10,1.21,-35.363262,149.1652373,599.09,0.003000000026077,129.997802734375,0.0010000000474974,0.0,1,61.179685,0,-35.363262,149.1652373
1778627375.7796052,115985254,0,6,256193800,2418,10,1.21,-35.363262,149.1652373,599.08,0.0040000001899898,130.5515899658203,0.0010000000474974,0.0,1,61.379605,0,-35.363262,149.1652373
1778627375.979525,116185174,0,6,256194000,2418,10,1.21,-35.363262,149.1652373,599.08,0.0040000001899898,135.2259521484375,0.0010000000474974,0.0,1,61.579525,0,-35.363262,149.1652373
1778627376.179445,116385094,0,6,256194200,2418,10,1.21,-35.363262,149.1652373,599.08,0.0040000001899898,139.8280792236328,0.0010000000474974,0.0,1,61.779445,0,-35.363262,149.1652373
1778627376.3793652,116585014,0,6,256194400,2418,10,1.21,-35.363262,149.1652373,599.08,0.0050000003539025,141.6537322998047,0.0,0.0,1,61.979365,0,-35.363262,149.1652373
1778627376.5792851,116784934,0,6,256194600,2418,10,1.21,-35.363262,149.1652373,599.08,0.0040000001899898,143.20828247070312,0.0,0.0,1,62.179285,0,-35.363262,149.1652373
1778627376.779205,116984854,0,6,256194800,2418,10,1.21,-35.363262,149.1652373,599.08,0.0040000001899898,147.99046325683594,0.0,0.0,1,62.379205,0,-35.363262,149.1652373
1778627376.979958,117185607,0,6,256195000,2418,10,1.21,-35.363262,149.1652373,599.08,0.0040000001899898,154.39610290527344,0.0,0.0,1,62.579958,0,-35.363262,149.1652373
1778627377.179878,117385527,0,6,256195200,2418,10,1.21,-35.363262,149.1652373,599.08,0.0040000001899898,157.41664123535156,0.0,0.0,1,62.779878,0,-35.363262,149.1652373
1778627377.379798,117585447,0,6,256195400,2418,10,1.21,-35.363262,149.1652373,599.08,0.0040000001899898,154.04396057128906,0.0,0.0,1,62.979798,0,-35.363262,149.1652373
1778627377.579718,117785367,0,6,256195600,2418,10,1.21,-35.363262,149.1652373,599.08,0.0040000001899898,145.69235229492188,-0.0010000000474974,0.0,1,63.179718,0,-35.363262,149.1652373
1778627377.779638,117985287,0,6,256195800,2418,10,1.21,-35.363262,149.1652373,599.08,0.0040000001899898,137.19483947753906,-0.0010000000474974,0.0,1,63.379638,0,-35.363262,149.1652373
1778627377.979558,118185207,0,6,256196000,2418,10,1.21,-35.3632621,149.1652373,599.08,0.0040000001899898,131.6684112548828,-0.0010000000474974,0.0,1,63.579558,0,-35.3632621,149.1652373
1778627378.179478,118385127,0,6,256196200,2418,10,1.21,-35.3632621,149.1652373,599.09,0.0040000001899898,131.74037170410156,-0.0010000000474974,0.0,1,63.779478,0,-35.3632621,149.1652373
1778627378.379398,118585047,0,6,256196400,2418,10,1.21,-35.3632621,149.1652373,599.09,0.0040000001899898,133.14288330078125,-0.0010000000474974,0.0,1,63.979398,0,-35.3632621,149.1652373
1778627378.579318,118784967,0,6,256196600,2418,10,1.21,-35.3632621,149.1652373,599.09,0.0040000001899898,129.8611602783203,0.0,0.0,1,64.179318,0,-35.3632621,149.1652373
1778627378.779238,118984887,0,6,256196800,2418,10,1.21,-35.3632621,149.1652373,599.09,0.0040000001899898,120.51041412353516,0.0,0.0,1,64.379238,0,-35.3632621,149.1652373
1778627378.9799912,119185640,0,6,256197000,2418,10,1.21,-35.3632621,149.1652373,599.09,0.003000000026077,102.781494140625,0.0,0.0,1,64.579991,0,-35.3632621,149.1652373
1778627379.1799111,119385560,0,6,256197200,2418,10,1.21,-35.3632621,149.1652373,599.09,0.003000000026077,80.68669891357422,0.0,0.0,1,64.779911,0,-35.3632621,149.1652373
1778627379.379831,119585480,0,6,256197400,2418,10,1.21,-35.3632621,149.1652374,599.09,0.0040000001899898,62.67055892944336,0.0,0.0,1,64.979831,0,-35.3632621,149.1652374
1778627379.579751,119785400,0,6,256197600,2418,10,1.21,-35.3632621,149.1652374,599.09,0.0040000001899898,51.11882781982422,0.0,0.0,1,65.179751,0,-35.3632621,149.1652374
1778627379.7796712,119985320,0,6,256197800,2418,10,1.21,-35.3632621,149.1652374,599.09,0.0040000001899898,44.73242950439453,0.0010000000474974,0.0,1,65.379671,0,-35.3632621,149.1652374
1778627379.9795911,120185240,0,6,256198000,2418,10,1.21,-35.3632621,149.1652374,599.09,0.0040000001899898,40.14891815185547,0.0010000000474974,0.0,1,65.579591,0,-35.3632621,149.1652374
1778627380.179511,120385160,0,6,256198200,2418,10,1.21,-35.3632621,149.1652374,599.08,0.0040000001899898,34.86602020263672,0.0010000000474974,0.0,1,65.779511,0,-35.3632621,149.1652374
1778627380.379431,120585080,0,6,256198400,2418,10,1.21,-35.3632621,149.1652374,599.08,0.0040000001899898,26.11823844909668,0.0010000000474974,0.0,1,65.979431,0,-35.3632621,149.1652374
1778627380.5793512,120785000,0,6,256198600,2418,10,1.21,-35.3632621,149.1652374,599.08,0.003000000026077,12.699159622192385,0.0010000000474974,0.0,1,66.179351,0,-35.3632621,149.1652374
1778627380.7792711,120984920,0,6,256198800,2418,10,1.21,-35.3632621,149.1652374,599.08,0.003000000026077,355.5948791503906,0.0010000000474974,0.0,1,66.379271,0,-35.3632621,149.1652374
1778627380.979191,121184840,0,6,256199000,2418,10,1.21,-35.3632621,149.1652374,599.08,0.0040000001899898,339.1313171386719,0.0,0.0,1,66.579191,0,-35.3632621,149.1652374
1778627381.179944,121385593,0,6,256199200,2418,10,1.21,-35.3632621,149.1652374,599.08,0.0040000001899898,329.7065734863281,0.0,0.0,1,66.779944,0,-35.3632621,149.1652374
1778627381.3798642,121585513,0,6,256199400,2418,10,1.21,-35.3632621,149.1652374,599.08,0.0050000003539025,326.8956298828125,0.0,0.0,1,66.979864,0,-35.3632621,149.1652374
1778627381.579784,121785433,0,6,256199600,2418,10,1.21,-35.3632621,149.1652374,599.08,0.0050000003539025,326.26287841796875,0.0,0.0,1,67.179784,0,-35.3632621,149.1652374
1778627381.779704,121985353,0,6,256199800,2418,10,1.21,-35.3632621,149.1652374,599.08,0.0050000003539025,326.1625061035156,0.0,0.0,1,67.379704,0,-35.3632621,149.1652374
1778627381.979624,122185273,0,6,256200000,2418,10,1.21,-35.3632621,149.1652374,599.08,0.006000000052154,327.7924499511719,-0.0010000000474974,0.0,1,67.579624,0,-35.3632621,149.1652374
1778627382.1795442,122385193,0,6,256200200,2418,10,1.21,-35.3632621,149.1652374,599.08,0.006000000052154,329.00018310546875,-0.0010000000474974,0.0,1,67.779544,0,-35.3632621,149.1652374
1778627382.379464,122585113,0,6,256200400,2418,10,1.21,-35.3632621,149.1652374,599.08,0.006000000052154,327.2728881835937,-0.0010000000474974,0.0,1,67.979464,0,-35.3632621,149.1652374
1778627382.579384,122785033,0,6,256200600,2418,10,1.21,-35.3632621,149.1652374,599.08,0.0050000003539025,325.75,-0.0010000000474974,0.0,1,68.179384,0,-35.3632621,149.1652374
1778627382.779304,122984953,0,6,256200800,2418,10,1.21,-35.363262,149.1652374,599.09,0.0040000001899898,327.5268859863281,-0.0010000000474974,0.0,1,68.379304,0,-35.363262,149.1652374
