timestamp,TimeUS,I,Status,GMS,GWk,NSats,HDop,Lat,Lng,Alt,Spd,GCrs,VZ,Yaw,U
1778627314.40000010,54605649,0,6,256132400,2418,10,1.21,-35.3632621,149.1652374,584.09,0.0,0.0,0.0,0.0,1
1778627314.57992816,54785577,0,6,256132600,2418,10,1.21,-35.3632621,149.1652374,584.09,0.0,0.0,0.0,0.0,1
1778627314.77984810,54985497,0,6,256132800,2418,10,1.21,-35.3632621,149.1652374,584.09,0.0,0.0,0.0,0.0,1
1778627314.97976804,55185417,0,6,256133000,2418,10,1.21,-35.3632621,149.1652374,584.09,0.0,0.0,0.0,0.0,1
1778627315.17968822,55385337,0,6,256133200,2418,10,1.21,-35.3632621,149.1652374,584.09,0.0,0.0,0.0,0.0,1
1778627315.37960815,55585257,0,6,256133400,2418,10,1.21,-35.3632621,149.1652374,584.09,0.0,0.0,0.0,0.0,1
1778627315.57952809,55785177,0,6,256133600,2418,10,1.21,-35.3632621,149.1652374,584.09,0.0,0.0,0.0,0.0,1
1778627315.77944803,55985097,0,6,256133800,2418,10,1.21,-35.3632621,149.1652374,584.09,0.0,0.0,0.0,0.0,1
1778627315.97936821,56185017,0,6,256134000,2418,10,1.21,-35.3632621,149.1652374,584.09,0.0,0.0,0.0,0.0,1
1778627316.17928815,56384937,0,6,256134200,2418,10,1.21,-35.3632621,149.1652374,584.09,0.0,0.0,0.0,0.0,1
1778627316.37920809,56584857,0,6,256134400,2418,10,1.21,-35.3632621,149.1652374,584.09,0.0,0.0,0.0,0.0,1
1778627316.57996106,56785610,0,6,256134600,2418,10,1.21,-35.3632621,149.1652374,584.09,0.0,0.0,0.0,0.0,1
1778627316.77988100,56985530,0,6,256134800,2418,10,1.21,-35.3632621,149.1652374,584.09,0.0,0.0,0.0,0.0,1
1778627316.97980118,57185450,0,6,256135000,2418,10,1.21,-35.3632621,149.1652374,584.09,0.0,0.0,0.0,0.0,1
1778627317.17972112,57385370,0,6,256135200,2418,10,1.21,-35.3632621,149.1652374,584.09,0.0,0.0,0.0,0.0,1
1778627317.37964106,57585290,0,6,256135400,2418,10,1.21,-35.3632621,149.1652374,584.09,0.0,0.0,0.0,0.0,1
1778627317.57956100,57785210,0,6,256135600,2418,10,1.21,-35.3632621,149.1652374,584.09,0.0,0.0,0.0,0.0,1
1778627317.77948117,57985130,0,6,256135800,2418,10,1.21,-35.3632621,149.1652374,584.09,0.0,0.0,0.0,0.0,1
1778627317.97940111,58185050,0,6,256136000,2418,10,1.21,-35.3632621,149.1652374,584.09,0.0,0.0,0.0,0.0,1
1778627318.17932105,58384970,0,6,256136200,2418,10,1.21,-35.3632621,149.1652374,584.09,0.0,0.0,0.0,0.0,1
1778627318.37924099,58584890,0,6,256136400,2418,10,1.21,-35.3632621,149.1652374,584.09,0.0,0.0,0.0,0.0,1
1778627318.57999420,58785643,0,6,256136600,2418,10,1.21,-35.3632621,149.1652374,584.09,0.0,0.0,0.0,0.0,1
1778627318.77991414,58985563,0,6,256136800,2418,10,1.21,-35.3632621,149.1652374,584.09,0.0,0.0,0.0,0.0,1
1778627318.97983408,59185483,0,6,256137000,2418,10,1.21,-35.3632621,149.1652374,584.09,0.0,0.0,0.0,0.0,1
1778627319.17975402,59385403,0,6,256137200,2418,10,1.21,-35.3632621,149.1652374,584.09,0.0,0.0,0.0,0.0,1
1778627319.37967420,59585323,0,6,256137400,2418,10,1.21,-35.3632621,149.1652374,584.09,0.0,0.0,0.0,0.0,1
1778627319.57959414,59785243,0,6,256137600,2418,10,1.21,-35.3632621,149.1652374,584.09,0.0,0.0,0.0,0.0,1
1778627319.77951407,59985163,0,6,256137800,2418,10,1.21,-35.3632621,149.1652374,584.09,0.0,0.0,0.0,0.0,1
1778627319.97943401,60185083,0,6,256138000,2418,10,1.21,-35.3632621,149.1652374,584.09,0.0,0.0,0.0,0.0,1
1778627320.17935419,60385003,0,6,256138200,2418,10,1.21,-35.3632621,149.1652374,584.09,0.0,0.0,0.0,0.0,1
1778627320.37927413,60584923,0,6,256138400,2418,10,1.21,-35.3632621,149.1652374,584.09,0.0,0.0,0.0,0.0,1
1778627320.57919407,60784843,0,6,256138600,2418,10,1.21,-35.3632621,149.1652374,584.09,0.0,0.0,0.0,0.0,1
1778627320.77994704,60985596,0,6,256138800,2418,10,1.21,-35.3632621,149.1652374,584.09,0.0,0.0,0.0,0.0,1
1778627320.97986722,61185516,0,6,256139000,2418,10,1.21,-35.3632621,149.1652374,584.09,0.0,0.0,0.0,0.0,1
1778627321.17978716,61385436,0,6,256139200,2418,10,1.21,-35.3632621,149.1652374,584.09,0.0,0.0,0.0,0.0,1
1778627321.37970710,61585356,0,6,256139400,2418,10,1.21,-35.3632621,149.1652374,584.09,0.0,0.0,0.0,0.0,1
1778627321.57962704,61785276,0,6,256139600,2418,10,1.21,-35.3632621,149.1652374,584.09,0.0,126.14114379882812,0.0,0.0,1
1778627321.77954721,61985196,0,6,256139800,2418,10,1.21,-35.3632621,149.1652374,584.09,0.0,126.87613677978516,0.0,0.0,1
1778627321.97946715,62185116,0,6,256140000,2418,10,1.21,-35.3632621,149.1652374,584.09,0.0,305.9374694824219,0.0,0.0,1
1778627322.17938709,62385036,0,6,256140200,2418,10,1.21,-35.3632621,149.1652374,584.09,0.0,305.97991943359375,-0.015000000596046448,0.0,1
1778627322.37930703,62584956,0,6,256140400,2418,10,1.21,-35.3632621,149.1652374,584.1,0.0,306.0906677246094,-0.08800000697374344,0.0,1
1778627322.57922721,62784876,0,6,256140600,2418,10,1.21,-35.3632621,149.1652374,584.13,0.0,310.54107666015625,-0.19700001180171967,0.0,1
1778627322.77998018,62985629,0,6,256140800,2418,10,1.21,-35.3632621,149.1652374,584.18,0.0,306.62664794921875,-0.31300002336502075,0.0,1
1778627322.97990012,63185549,0,6,256141000,2418,10,1.21,-35.3632621,149.1652374,584.3,0.004000000189989805,307.2537841796875,-0.7740000486373901,0.0,1
1778627323.17982006,63385469,0,6,256141200,2418,10,1.21,-35.3632621,149.1652374,584.5,0.015000000596046448,307.2510681152344,-1.1880000829696655,0.0,1
1778627323.37974000,63585389,0,6,256141400,2418,10,1.21,-35.3632621,149.1652374,584.74,0.03100000135600567,307.291259765625,-1.1950000524520874,0.0,1
1778627323.57966018,63785309,0,6,256141600,2418,10,1.21,-35.363262,149.1652373,584.98,0.0430000014603138,307.4559631347656,-1.277000069618225,0.0,1
1778627323.77958012,63985229,0,6,256141800,2418,10,1.21,-35.363262,149.1652372,585.25,0.04500000178813934,307.8123779296875,-1.4660000801086426,0.0,1
1778627323.97950006,64185149,0,6,256142000,2418,10,1.21,-35.363262,149.1652371,585.57,0.04000000283122063,308.1727600097656,-1.665000081062317,0.0,1
1778627324.17941999,64385069,0,6,256142200,2418,10,1.21,-35.3632619,149.165237,585.92,0.03200000151991844,308.4802551269531,-1.8660000562667847,0.0,1
1778627324.37934017,64584989,0,6,256142400,2418,10,1.21,-35.3632619,149.165237,586.31,0.02200000174343586,309.471923828125,-2.071000099182129,0.0,1
1778627324.57926011,64784909,0,6,256142600,2418,10,1.21,-35.3632619,149.165237,586.75,0.012000000104308128,313.1707763671875,-2.2710001468658447,0.0,1
1778627324.77918005,64984829,0,6,256142800,2418,10,1.21,-35.3632619,149.165237,587.22,0.004000000189989805,329.67803955078125,-2.4250001907348633,0.0,1
1778627324.97993302,65185582,0,6,256143000,2418,10,1.21,-35.3632619,149.165237,587.72,0.0020000000949949026,82.72223663330078,-2.502000093460083,0.0,1
1778627325.17985320,65385502,0,6,256143200,2418,10,1.21,-35.3632619,149.165237,588.22,0.006000000052154064,109.03926086425781,-2.5250000953674316,0.0,1
1778627325.37977314,65585422,0,6,256143400,2418,10,1.21,-35.3632619,149.165237,588.72,0.009000000543892384,114.00505065917969,-2.5190000534057617,0.0,1
1778627325.57969308,65785342,0,6,256143600,2418,10,1.21,-35.3632619,149.165237,589.23,0.009000000543892384,114.57630920410156,-2.501000165939331,0.0,1
1778627325.77961302,65985262,0,6,256143800,2418,10,1.21,-35.3632619,149.165237,589.72,0.010000000707805157,112.2557373046875,-2.4820001125335693,0.0,1
1778627325.97953320,66185182,0,6,256144000,2418,10,1.21,-35.3632619,149.165237,590.22,0.010000000707805157,111.68502807617188,-2.4680001735687256,0.0,1
1778627326.17945313,66385102,0,6,256144200,2418,10,1.21,-35.3632619,149.165237,590.71,0.010000000707805157,114.27235412597656,-2.4600000381469727,0.0,1
1778627326.37937307,66585022,0,6,256144400,2418,10,1.21,-35.3632619,149.165237,591.2,0.010000000707805157,117.8508071899414,-2.4570000171661377,0.0,1
1778627326.57929301,66784942,0,6,256144600,2418,10,1.21,-35.3632619,149.165237,591.69,0.01100000087171793,122.25597381591797,-2.4580001831054688,0.0,1
1778627326.77921319,66984862,0,6,256144800,2418,10,1.21,-35.3632619,149.165237,592.18,0.013000000268220901,126.67092895507812,-2.4610002040863037,0.0,1
1778627326.97996616,67185615,0,6,256145000,2418,10,1.21,-35.3632619,149.165237,592.68,0.01600000075995922,129.10159301757812,-2.4650001525878906,0.0,1
1778627327.17988610,67385535,0,6,256145200,2418,10,1.21,-35.3632619,149.1652371,593.17,0.01900000125169754,129.30641174316406,-2.4700000286102295,0.0,1
1778627327.37980604,67585455,0,6,256145400,2418,10,1.21,-35.3632619,149.1652372,593.67,0.02200000174343586,128.44000244140625,-2.4740002155303955,0.0,1
1778627327.57972622,67785375,0,6,256145600,2418,10,1.21,-35.3632619,149.1652372,594.16,0.024000000208616257,127.45773315429688,-2.4780001640319824,0.0,1
1778627327.77964616,67985295,0,6,256145800,2418,10,1.21,-35.3632619,149.1652372,594.66,0.02500000037252903,127.33538818359375,-2.4810001850128174,0.0,1
1778627327.97956610,68185215,0,6,256146000,2418,10,1.21,-35.363262,149.1652373,595.16,0.02500000037252903,128.57350158691406,-2.4830000400543213,0.0,1
1778627328.17948604,68385135,0,6,256146200,2418,10,1.21,-35.363262,149.1652373,595.65,0.024000000208616257,130.7285614013672,-2.4650001525878906,0.0,1
1778627328.37940621,68585055,0,6,256146400,2418,10,1.21,-35.363262,149.1652374,596.14,0.02200000174343586,133.25067138671875,-2.384000062942505,0.0,1
1778627328.57932615,68784975,0,6,256146600,2418,10,1.21,-35.363262,149.1652374,596.6,0.020000001415610313,135.99049377441406,-2.2330000400543213,0.0,1
1778627328.77924609,68984895,0,6,256146800,2418,10,1.21,-35.3632621,149.1652374,597.03,0.018000001087784767,139.0801544189453,-2.0410001277923584,0.0,1
1778627328.97999907,69185648,0,6,256147000,2418,10,1.21,-35.3632621,149.1652375,597.41,0.01600000075995922,142.81578063964844,-1.8270001411437988,0.0,1
1778627329.17991900,69385568,0,6,256147200,2418,10,1.21,-35.3632621,149.1652375,597.76,0.014000000432133675,147.09454345703125,-1.6070001125335693,0.0,1
1778627329.37983918,69585488,0,6,256147400,2418,10,1.21,-35.3632621,149.1652375,598.06,0.01100000087171793,151.41905212402344,-1.3870000839233398,0.0,1
1778627329.57975912,69785408,0,6,256147600,2418,10,1.21,-35.3632622,149.1652375,598.31,0.009000000543892384,156.73683166503906,-1.1720000505447388,0.0,1
1778627329.77967906,69985328,0,6,256147800,2418,10,1.21,-35.3632622,149.1652375,598.53,0.006000000052154064,165.85562133789062,-0.9630000591278076,0.0,1
1778627329.97959900,70185248,0,6,256148000,2418,10,1.21,-35.3632622,149.1652375,598.7,0.004000000189989805,185.77476501464844,-0.7580000162124634,0.0,1
1778627330.17951918,70385168,0,6,256148200,2418,10,1.21,-35.3632622,149.1652375,598.83,0.003000000026077032,226.54795837402344,-0.5570000410079956,0.0,1
1778627330.37943912,70585088,0,6,256148400,2418,10,1.21,-35.3632622,149.1652375,598.92,0.003000000026077032,267.9842834472656,-0.359000027179718,0.0,1
1778627330.57935905,70785008,0,6,256148600,2418,10,1.21,-35.3632622,149.1652375,598.97,0.004000000189989805,292.1515197753906,-0.1680000126361847,0.0,1
1778627330.77927899,70984928,0,6,256148800,2418,10,1.21,-35.3632622,149.1652375,598.99,0.006000000052154064,305.1549072265625,-0.02200000174343586,0.0,1
1778627330.97919917,71184848,0,6,256149000,2418,10,1.21,-35.3632622,149.1652375,598.99,0.007000000216066837,310.9811706542969,0.046000003814697266,0.0,1
1778627331.17995214,71385601,0,6,256149200,2418,10,1.21,-35.3632622,149.1652375,598.98,0.009000000543892384,312.79541015625,0.06100000441074371,0.0,1
1778627331.37987208,71585521,0,6,256149400,2418,10,1.21,-35.3632622,149.1652375,598.96,0.01100000087171793,313.0096130371094,0.04700000211596489,0.0,1
1778627331.57979202,71785441,0,6,256149600,2418,10,1.21,-35.3632622,149.1652375,598.96,0.013000000268220901,313.43670654296875,0.02200000174343586,0.0,1
1778627331.77971220,71985361,0,6,256149800,2418,10,1.21,-35.3632622,149.1652375,598.96,0.015000000596046448,313.86962890625,-0.0020000000949949026,0.0,1
1778627331.97963214,72185281,0,6,256150000,2418,10,1.21,-35.3632622,149.1652375,598.96,0.017000000923871994,312.93402099609375,-0.02200000174343586,0.0,1
1778627332.17955208,72385201,0,6,256150200,2418,10,1.21,-35.3632622,149.1652374,598.97,0.018000001087784767,311.55322265625,-0.03500000014901161,0.0,1
1778627332.37947202,72585121,0,6,256150400,2418,10,1.21,-35.3632622,149.1652374,598.97,0.01900000125169754,311.7195739746094,-0.04200000315904617,0.0,1
1778627332.57939219,72785041,0,6,256150600,2418,10,1.21,-35.3632621,149.1652374,598.98,0.020000001415610313,313.03759765625,-0.0430000014603138,0.0,1
1778627332.77931213,72984961,0,6,256150800,2418,10,1.21,-35.3632621,149.1652374,598.99,0.020000001415610313,313.9073791503906,-0.04100000113248825,0.0,1
1778627332.97923207,73184881,0,6,256151000,2418,10,1.21,-35.3632621,149.1652373,599.0,0.020000001415610313,314.3871765136719,-0.036000002175569534,0.0,1
1778627333.17998505,73385634,0,6,256151200,2418,10,1.21,-35.3632621,149.1652373,599.01,0.020000001415610313,314.806640625,-0.030000001192092896,0.0,1
1778627333.37990499,73585554,0,6,256151400,2418,10,1.21,-35.363262,149.1652373,599.01,0.01900000125169754,314.7933349609375,-0.02500000037252903,0.0,1
1778627333.57982516,73785474,0,6,256151600,2418,10,1.21,-35.363262,149.1652372,599.02,0.018000001087784767,314.6376953125,-0.02200000174343586,0.0,1
1778627333.77974510,73985394,0,6,256151800,2418,10,1.21,-35.363262,149.1652372,599.02,0.017000000923871994,314.7649841308594,-0.020000001415610313,0.0,1
1778627333.97966504,74185314,0,6,256152000,2418,10,1.21,-35.363262,149.1652372,599.03,0.015000000596046448,315.3391418457031,-0.020000001415610313,0.0,1
1778627334.17958522,74385234,0,6,256152200,2418,10,1.21,-35.3632619,149.1652372,599.03,0.012000000104308128,316.1579895019531,-0.01900000125169754,0.0,1
1778627334.37950516,74585154,0,6,256152400,2418,10,1.21,-35.3632619,149.1652371,599.03,0.010000000707805157,316.8875732421875,-0.017000000923871994,0.0,1
1778627334.57942510,74785074,0,6,256152600,2418,10,1.21,-35.3632619,149.165237,599.04,0.00800000037997961,317.5795593261719,-0.015000000596046448,0.0,1
1778627334.77934504,74984994,0,6,256152800,2418,10,1.21,-35.3632619,149.165237,599.04,0.006000000052154064,317.75274658203125,-0.014000000432133675,0.0,1
1778627334.97926521,75184914,0,6,256153000,2418,10,1.21,-35.3632619,149.165237,599.04,0.003000000026077032,319.73907470703125,-0.013000000268220901,0.0,1
1778627335.17918515,75384834,0,6,256153200,2418,10,1.21,-35.3632619,149.165237,599.05,0.0010000000474974513,343.864013671875,-0.012000000104308128,0.0,1
1778627335.37993813,75585587,0,6,256153400,2418,10,1.21,-35.3632619,149.165237,599.05,0.0020000000949949026,86.11257934570312,-0.012000000104308128,0.0,1
1778627335.57985806,75785507,0,6,256153600,2418,10,1.21,-35.3632619,149.165237,599.05,0.004000000189989805,103.93043518066406,-0.012000000104308128,0.0,1
1778627335.77977800,75985427,0,6,256153800,2418,10,1.21,-35.3632619,149.165237,599.05,0.006000000052154064,109.44923400878906,-0.01100000087171793,0.0,1
1778627335.97969818,76185347,0,6,256154000,2418,10,1.21,-35.3632619,149.165237,599.06,0.007000000216066837,110.09748077392578,-0.010000000707805157,0.0,1
1778627336.17961812,76385267,0,6,256154200,2418,10,1.21,-35.3632619,149.165237,599.06,0.00800000037997961,107.36589050292969,-0.009000000543892384,0.0,1
1778627336.37953806,76585187,0,6,256154400,2418,10,1.21,-35.3632619,149.165237,599.06,0.009000000543892384,103.46189880371094,-0.00800000037997961,0.0,1
1778627336.57945800,76785107,0,6,256154600,2418,10,1.21,-35.3632619,149.165237,599.06,0.009000000543892384,101.18152618408203,-0.00800000037997961,0.0,1
1778627336.77937818,76985027,0,6,256154800,2418,10,1.21,-35.3632619,149.165237,599.06,0.010000000707805157,102.24390411376953,-0.00800000037997961,0.0,1
1778627336.97929811,77184947,0,6,256155000,2418,10,1.21,-35.3632619,149.1652371,599.06,0.010000000707805157,105.24317932128906,-0.00800000037997961,0.0,1
1778627337.17921805,77384867,0,6,256155200,2418,10,1.21,-35.3632619,149.1652372,599.07,0.01100000087171793,108.80310821533203,-0.00800000037997961,0.0,1
1778627337.37997103,77585620,0,6,256155400,2418,10,1.21,-35.3632619,149.1652372,599.07,0.012000000104308128,112.0258560180664,-0.00800000037997961,0.0,1
1778627337.57989120,77785540,0,6,256155600,2418,10,1.21,-35.3632619,149.1652372,599.07,0.012000000104308128,114.40091705322266,-0.007000000216066837,0.0,1
1778627337.77981114,77985460,0,6,256155800,2418,10,1.21,-35.3632619,149.1652372,599.07,0.01100000087171793,116.23041534423828,-0.006000000052154064,0.0,1
1778627337.97973108,78185380,0,6,256156000,2418,10,1.21,-35.3632619,149.1652373,599.07,0.010000000707805157,118.21385955810547,-0.006000000052154064,0.0,1
1778627338.17965102,78385300,0,6,256156200,2418,10,1.21,-35.3632619,149.1652373,599.07,0.00800000037997961,121.02823638916016,-0.006000000052154064,0.0,1
1778627338.37957120,78585220,0,6,256156400,2418,10,1.21,-35.3632619,149.1652373,599.07,0.007000000216066837,126.56707000732422,-0.006000000052154064,0.0,1
1778627338.57949114,78785140,0,6,256156600,2418,10,1.21,-35.3632619,149.1652373,599.08,0.006000000052154064,136.34750366210938,-0.006000000052154064,0.0,1
1778627338.77941108,78985060,0,6,256156800,2418,10,1.21,-35.3632619,149.1652373,599.08,0.006000000052154064,148.67433166503906,-0.006000000052154064,0.0,1
1778627338.97933102,79184980,0,6,256157000,2418,10,1.21,-35.3632619,149.1652373,599.08,0.006000000052154064,161.879150390625,-0.005000000353902578,0.0,1
1778627339.17925119,79384900,0,6,256157200,2418,10,1.21,-35.3632619,149.1652373,599.08,0.006000000052154064,173.2908935546875,-0.004000000189989805,0.0,1
1778627339.38000417,79585653,0,6,256157400,2418,10,1.21,-35.3632619,149.1652373,599.08,0.006000000052154064,180.37384033203125,-0.004000000189989805,0.0,1
1778627339.57992411,79785573,0,6,256157600,2418,10,1.21,-35.3632619,149.1652373,599.08,0.006000000052154064,183.05967712402344,-0.004000000189989805,0.0,1
1778627339.77984405,79985493,0,6,256157800,2418,10,1.21,-35.363262,149.1652373,599.08,0.006000000052154064,181.673828125,-0.004000000189989805,0.0,1
1778627339.97976398,80185413,0,6,256158000,2418,10,1.21,-35.363262,149.1652373,599.08,0.006000000052154064,177.68211364746094,-0.004000000189989805,0.0,1
1778627340.17968416,80385333,0,6,256158200,2418,10,1.21,-35.363262,149.1652373,599.08,0.007000000216066837,174.17250061035156,-0.004000000189989805,0.0,1
1778627340.37960410,80585253,0,6,256158400,2418,10,1.21,-35.363262,149.1652373,599.08,0.007000000216066837,171.6578369140625,-0.003000000026077032,0.0,1
1778627340.57952404,80785173,0,6,256158600,2418,10,1.21,-35.363262,149.1652373,599.09,0.006000000052154064,169.4585723876953,-0.003000000026077032,0.0,1
1778627340.77944422,80985093,0,6,256158800,2418,10,1.21,-35.363262,149.1652373,599.09,0.005000000353902578,166.62557983398438,-0.0020000000949949026,0.0,1
1778627340.97936416,81185013,0,6,256159000,2418,10,1.21,-35.363262,149.1652373,599.09,0.004000000189989805,160.87637329101562,-0.0020000000949949026,0.0,1
1778627341.17928410,81384933,0,6,256159200,2418,10,1.21,-35.363262,149.1652373,599.09,0.003000000026077032,148.8806610107422,-0.0010000000474974513,0.0,1
1778627341.37920403,81584853,0,6,256159400,2418,10,1.21,-35.363262,149.1652373,599.09,0.0020000000949949026,128.32933044433594,-0.0010000000474974513,0.0,1
1778627341.57995701,81785606,0,6,256159600,2418,10,1.21,-35.363262,149.1652374,599.09,0.0020000000949949026,113.229736328125,-0.0010000000474974513,0.0,1
1778627341.77987719,81985526,0,6,256159800,2418,10,1.21,-35.363262,149.1652374,599.09,0.0020000000949949026,109.32117462158203,0.0,0.0,1
1778627341.97979712,82185446,0,6,256160000,2418,10,1.21,-35.363262,149.1652374,599.09,0.0020000000949949026,113.24662780761719,0.0,0.0,1
1778627342.17971706,82385366,0,6,256160200,2418,10,1.21,-35.363262,149.1652374,599.09,0.0020000000949949026,130.0643310546875,0.0,0.0,1
1778627342.37963700,82585286,0,6,256160400,2418,10,1.21,-35.3632621,149.1652374,599.09,0.0020000000949949026,157.8590087890625,0.0,0.0,1
1778627342.57955718,82785206,0,6,256160600,2418,10,1.21,-35.3632621,149.1652374,599.09,0.0020000000949949026,180.26620483398438,0.0,0.0,1
1778627342.77947712,82985126,0,6,256160800,2418,10,1.21,-35.3632621,149.1652374,599.09,0.0020000000949949026,197.20791625976562,0.0,0.0,1
1778627342.97939706,83185046,0,6,256161000,2418,10,1.21,-35.3632621,149.1652374,599.09,0.0020000000949949026,213.763427734375,0.0,0.0,1
1778627343.17931700,83384966,0,6,256161200,2418,10,1.21,-35.3632621,149.1652374,599.09,0.0020000000949949026,230.73121643066406,0.0,0.0,1
1778627343.37923717,83584886,0,6,256161400,2418,10,1.21,-35.3632621,149.1652374,599.09,0.0010000000474974513,251.85781860351562,0.0,0.0,1
1778627343.57999015,83785639,0,6,256161600,2418,10,1.21,-35.3632621,149.1652374,599.09,0.0020000000949949026,277.7009582519531,0.0,0.0,1
1778627343.77991009,83985559,0,6,256161800,2418,10,1.21,-35.3632621,149.1652374,599.09,0.0020000000949949026,301.0235290527344,0.0,0.0,1
1778627343.97983003,84185479,0,6,256162000,2418,10,1.21,-35.3632621,149.1652374,599.09,0.003000000026077032,316.4173583984375,0.0,0.0,1
1778627344.17975020,84385399,0,6,256162200,2418,10,1.21,-35.3632621,149.1652374,599.09,0.004000000189989805,324.4855041503906,0.0,0.0,1
1778627344.37967014,84585319,0,6,256162400,2418,10,1.21,-35.3632621,149.1652374,599.09,0.005000000353902578,328.556884765625,0.0,0.0,1
1778627344.57959008,84785239,0,6,256162600,2418,10,1.21,-35.3632621,149.1652374,599.09,0.005000000353902578,331.4118347167969,0.0,0.0,1
1778627344.77951002,84985159,0,6,256162800,2418,10,1.21,-35.3632621,149.1652374,599.09,0.005000000353902578,332.6035461425781,0.0,0.0,1
1778627344.97943020,85185079,0,6,256163000,2418,10,1.21,-35.3632621,149.1652374,599.09,0.006000000052154064,331.6312255859375,0.0,0.0,1
1778627345.17935014,85384999,0,6,256163200,2418,10,1.21,-35.3632621,149.1652374,599.09,0.006000000052154064,330.3185119628906,0.0,0.0,1
1778627345.37927008,85584919,0,6,256163400,2418,10,1.21,-35.3632621,149.1652374,599.09,0.006000000052154064,330.3648376464844,0.0,0.0,1
1778627345.57919002,85784839,0,6,256163600,2418,10,1.21,-35.3632621,149.1652374,599.09,0.006000000052154064,330.3105773925781,0.0,0.0,1
1778627345.77994299,85985592,0,6,256163800,2418,10,1.21,-35.3632621,149.1652374,599.09,0.005000000353902578,329.3619689941406,0.0,0.0,1
1778627345.97986317,86185512,0,6,256164000,2418,10,1.21,-35.3632621,149.1652374,599.09,0.005000000353902578,330.2013854980469,0.0,0.0,1
1778627346.17978311,86385432,0,6,256164200,2418,10,1.21,-35.3632621,149.1652374,599.09,0.005000000353902578,335.1305236816406,0.0,0.0,1
1778627346.37970304,86585352,0,6,256164400,2418,10,1.21,-35.3632621,149.1652374,599.09,0.004000000189989805,343.2132263183594,0.0,0.0,1
1778627346.57962298,86785272,0,6,256164600,2418,10,1.21,-35.363262,149.1652374,599.09,0.004000000189989805,348.42755126953125,0.0,0.0,1
1778627346.77954316,86985192,0,6,256164800,2418,10,1.21,-35.363262,149.1652374,599.09,0.004000000189989805,347.5525817871094,0.0,0.0,1
1778627346.97946310,87185112,0,6,256165000,2418,10,1.21,-35.363262,149.1652374,599.09,0.003000000026077032,344.0859069824219,0.0010000000474974513,0.0,1
1778627347.17938304,87385032,0,6,256165200,2418,10,1.21,-35.363262,149.1652374,599.09,0.003000000026077032,339.3833312988281,0.0010000000474974513,0.0,1
1778627347.37930322,87584952,0,6,256165400,2418,10,1.21,-35.363262,149.1652374,599.09,0.003000000026077032,332.0691223144531,0.0010000000474974513,0.0,1
1778627347.57922316,87784872,0,6,256165600,2418,10,1.21,-35.363262,149.1652374,599.09,0.0020000000949949026,318.989013671875,0.0010000000474974513,0.0,1
1778627347.77997613,87985625,0,6,256165800,2418,10,1.21,-35.363262,149.1652373,599.09,0.0020000000949949026,294.35760498046875,0.0010000000474974513,0.0,1
1778627347.97989607,88185545,0,6,256166000,2418,10,1.21,-35.363262,149.1652373,599.09,0.0010000000474974513,260.8607177734375,0.0010000000474974513,0.0,1
1778627348.17981601,88385465,0,6,256166200,2418,10,1.21,-35.363262,149.1652373,599.09,0.0020000000949949026,232.83627319335938,0.0010000000474974513,0.0,1
1778627348.37973619,88585385,0,6,256166400,2418,10,1.21,-35.363262,149.1652373,599.09,0.0020000000949949026,206.9498291015625,0.0010000000474974513,0.0,1
1778627348.57965612,88785305,0,6,256166600,2418,10,1.21,-35.363262,149.1652373,599.09,0.0020000000949949026,184.0969696044922,0.0010000000474974513,0.0,1
1778627348.77957606,88985225,0,6,256166800,2418,10,1.21,-35.363262,149.1652373,599.09,0.003000000026077032,167.62808227539062,0.0010000000474974513,0.0,1
1778627348.97949600,89185145,0,6,256167000,2418,10,1.21,-35.363262,149.1652373,599.09,0.003000000026077032,150.7786102294922,0.0010000000474974513,0.0,1
1778627349.17941618,89385065,0,6,256167200,2418,10,1.21,-35.363262,149.1652373,599.08,0.003000000026077032,133.6572723388672,0.0010000000474974513,0.0,1
1778627349.37933612,89584985,0,6,256167400,2418,10,1.21,-35.363262,149.1652373,599.08,0.004000000189989805,122.31376647949219,0.0010000000474974513,0.0,1
1778627349.57925606,89784905,0,6,256167600,2418,10,1.21,-35.363262,149.1652373,599.08,0.004000000189989805,115.80926513671875,0.0010000000474974513,0.0,1
1778627349.77917600,89984825,0,6,256167800,2418,10,1.21,-35.363262,149.1652373,599.08,0.005000000353902578,111.80684661865234,0.0010000000474974513,0.0,1
1778627349.97992921,90185578,0,6,256168000,2418,10,1.21,-35.363262,149.1652373,599.08,0.005000000353902578,109.87252044677734,0.0,0.0,1
1778627350.17984915,90385498,0,6,256168200,2418,10,1.21,-35.363262,149.1652373,599.08,0.005000000353902578,110.76363372802734,0.0,0.0,1
1778627350.37976909,90585418,0,6,256168400,2418,10,1.21,-35.363262,149.1652373,599.08,0.005000000353902578,114.1697006225586,0.0,0.0,1
1778627350.57968903,90785338,0,6,256168600,2418,10,1.21,-35.363262,149.1652373,599.08,0.005000000353902578,117.66073608398438,0.0,0.0,1
1778627350.77960920,90985258,0,6,256168800,2418,10,1.21,-35.363262,149.1652373,599.08,0.005000000353902578,119.8921890258789,0.0,0.0,1
1778627350.97952914,91185178,0,6,256169000,2418,10,1.21,-35.363262,149.1652373,599.08,0.006000000052154064,121.7178955078125,-0.0010000000474974513,0.0,1
1778627351.17944908,91385098,0,6,256169200,2418,10,1.21,-35.363262,149.1652373,599.08,0.006000000052154064,123.97732543945312,-0.0010000000474974513,0.0,1
1778627351.37936902,91585018,0,6,256169400,2418,10,1.21,-35.363262,149.1652374,599.08,0.007000000216066837,125.49608612060547,-0.0010000000474974513,0.0,1
1778627351.57928920,91784938,0,6,256169600,2418,10,1.21,-35.363262,149.1652374,599.09,0.007000000216066837,125.70586395263672,-0.0010000000474974513,0.0,1
1778627351.77920914,91984858,0,6,256169800,2418,10,1.21,-35.363262,149.1652374,599.09,0.007000000216066837,125.50971984863281,-0.0010000000474974513,0.0,1
1778627351.97996211,92185611,0,6,256170000,2418,10,1.21,-35.363262,149.1652374,599.09,0.006000000052154064,126.23796844482422,-0.0010000000474974513,0.0,1
1778627352.17988205,92385531,0,6,256170200,2418,10,1.21,-35.363262,149.1652374,599.09,0.006000000052154064,130.2950439453125,0.0,0.0,1
1778627352.37980199,92585451,0,6,256170400,2418,10,1.21,-35.363262,149.1652374,599.09,0.005000000353902578,138.5428924560547,0.0,0.0,1
1778627352.57972217,92785371,0,6,256170600,2418,10,1.21,-35.363262,149.1652374,599.09,0.004000000189989805,150.7030029296875,0.0,0.0,1
1778627352.77964211,92985291,0,6,256170800,2418,10,1.21,-35.363262,149.1652374,599.09,0.004000000189989805,162.72702026367188,0.0,0.0,1
1778627352.97956204,93185211,0,6,256171000,2418,10,1.21,-35.363262,149.1652374,599.09,0.004000000189989805,167.8851318359375,0.0010000000474974513,0.0,1
1778627353.17948198,93385131,0,6,256171200,2418,10,1.21,-35.3632621,149.1652374,599.09,0.004000000189989805,169.330322265625,0.0010000000474974513,0.0,1
1778627353.37940216,93585051,0,6,256171400,2418,10,1.21,-35.3632621,149.1652374,599.08,0.004000000189989805,172.25833129882812,0.0010000000474974513,0.0,1
1778627353.57932210,93784971,0,6,256171600,2418,10,1.21,-35.3632621,149.1652374,599.08,0.003000000026077032,174.15892028808594,0.0010000000474974513,0.0,1
1778627353.77924204,93984891,0,6,256171800,2418,10,1.21,-35.3632621,149.1652374,599.08,0.0020000000949949026,172.33656311035156,0.0010000000474974513,0.0,1
1778627353.97999501,94185644,0,6,256172000,2418,10,1.21,-35.3632621,149.1652374,599.08,0.0010000000474974513,157.50340270996094,0.0010000000474974513,0.0,1
1778627354.17991519,94385564,0,6,256172200,2418,10,1.21,-35.3632621,149.1652374,599.08,0.0,62.91388702392578,0.0,0.0,1
1778627354.37983513,94585484,0,6,256172400,2418,10,1.21,-35.3632621,149.1652374,599.08,0.0020000000949949026,41.07904052734375,0.0,0.0,1
1778627354.57975507,94785404,0,6,256172600,2418,10,1.21,-35.3632621,149.1652374,599.08,0.0020000000949949026,33.432228088378906,0.0,0.0,1
1778627354.77967501,94985324,0,6,256172800,2418,10,1.21,-35.3632621,149.1652374,599.08,0.0020000000949949026,22.12908935546875,0.0,0.0,1
1778627354.97959518,95185244,0,6,256173000,2418,10,1.21,-35.3632621,149.1652375,599.08,0.0020000000949949026,9.042840003967285,0.0,0.0,1
1778627355.17951512,95385164,0,6,256173200,2418,10,1.21,-35.3632621,149.1652375,599.08,0.0020000000949949026,359.6522216796875,-0.0010000000474974513,0.0,1
1778627355.37943506,95585084,0,6,256173400,2418,10,1.21,-35.3632621,149.1652375,599.08,0.0020000000949949026,358.1412048339844,-0.0010000000474974513,0.0,1
1778627355.57935500,95785004,0,6,256173600,2418,10,1.21,-35.3632621,149.1652375,599.08,0.0020000000949949026,357.283935546875,-0.0010000000474974513,0.0,1
1778627355.77927518,95984924,0,6,256173800,2418,10,1.21,-35.3632621,149.1652375,599.09,0.003000000026077032,347.5439758300781,-0.0010000000474974513,0.0,1
1778627355.97919512,96184844,0,6,256174000,2418,10,1.21,-35.3632621,149.1652375,599.09,0.004000000189989805,333.9245910644531,-0.0010000000474974513,0.0,1
1778627356.17994809,96385597,0,6,256174200,2418,10,1.21,-35.3632621,149.1652375,599.09,0.005000000353902578,322.4483337402344,-0.0010000000474974513,0.0,1
1778627356.37986803,96585517,0,6,256174400,2418,10,1.21,-35.3632621,149.1652375,599.09,0.005000000353902578,315.4458312988281,0.0,0.0,1
1778627356.57978821,96785437,0,6,256174600,2418,10,1.21,-35.3632621,149.1652375,599.09,0.006000000052154064,310.7257080078125,0.0,0.0,1
1778627356.77970815,96985357,0,6,256174800,2418,10,1.21,-35.3632621,149.1652375,599.09,0.006000000052154064,306.7650146484375,0.0,0.0,1
1778627356.97962809,97185277,0,6,256175000,2418,10,1.21,-35.3632621,149.1652375,599.09,0.006000000052154064,304.0668640136719,0.0,0.0,1
1778627357.17954803,97385197,0,6,256175200,2418,10,1.21,-35.3632621,149.1652375,599.09,0.006000000052154064,302.7639465332031,0.0010000000474974513,0.0,1
1778627357.37946820,97585117,0,6,256175400,2418,10,1.21,-35.3632621,149.1652375,599.09,0.006000000052154064,301.3710021972656,0.0010000000474974513,0.0,1
1778627357.57938814,97785037,0,6,256175600,2418,10,1.21,-35.3632621,149.1652375,599.09,0.006000000052154064,298.8345031738281,0.0010000000474974513,0.0,1
1778627357.77930808,97984957,0,6,256175800,2418,10,1.21,-35.3632621,149.1652374,599.08,0.006000000052154064,298.8408508300781,0.0010000000474974513,0.0,1
1778627357.97922802,98184877,0,6,256176000,2418,10,1.21,-35.3632621,149.1652374,599.08,0.006000000052154064,301.8388671875,0.0010000000474974513,0.0,1
1778627358.17998099,98385630,0,6,256176200,2418,10,1.21,-35.3632621,149.1652374,599.08,0.006000000052154064,304.0661926269531,0.0010000000474974513,0.0,1
1778627358.37990117,98585550,0,6,256176400,2418,10,1.21,-35.3632621,149.1652374,599.08,0.007000000216066837,305.736328125,0.0010000000474974513,0.0,1
1778627358.57982111,98785470,0,6,256176600,2418,10,1.21,-35.3632621,149.1652374,599.08,0.007000000216066837,309.5140380859375,0.0,0.0,1
1778627358.77974105,98985390,0,6,256176800,2418,10,1.21,-35.363262,149.1652374,599.08,0.006000000052154064,316.72259521484375,0.0,0.0,1
1778627358.97966099,99185310,0,6,256177000,2418,10,1.21,-35.363262,149.1652374,599.08,0.005000000353902578,327.3623046875,0.0,0.0,1
1778627359.17958117,99385230,0,6,256177200,2418,10,1.21,-35.363262,149.1652374,599.08,0.005000000353902578,338.86553955078125,0.0,0.0,1
1778627359.37950110,99585150,0,6,256177400,2418,10,1.21,-35.363262,149.1652374,599.08,0.004000000189989805,347.65155029296875,0.0,0.0,1
1778627359.57942104,99785070,0,6,256177600,2418,10,1.21,-35.363262,149.1652374,599.08,0.003000000026077032,352.966796875,-0.0010000000474974513,0.0,1
1778627359.77934098,99984990,0,6,256177800,2418,10,1.21,-35.363262,149.1652374,599.08,0.0010000000474974513,348.39251708984375,-0.0010000000474974513,0.0,1
1778627359.97926116,100184910,0,6,256178000,2418,10,1.21,-35.363262,149.1652374,599.08,0.0,286.0940856933594,-0.0010000000474974513,0.0,1
1778627360.17918110,100384830,0,6,256178200,2418,10,1.21,-35.363262,149.1652374,599.09,0.0010000000474974513,223.7757110595703,-0.0010000000474974513,0.0,1
1778627360.37993407,100585583,0,6,256178400,2418,10,1.21,-35.363262,149.1652374,599.09,0.0020000000949949026,217.45913696289062,-0.0010000000474974513,0.0,1
1778627360.57985401,100785503,0,6,256178600,2418,10,1.21,-35.363262,149.1652374,599.09,0.003000000026077032,217.85321044921875,0.0,0.0,1
1778627360.77977419,100985423,0,6,256178800,2418,10,1.21,-35.363262,149.1652374,599.09,0.003000000026077032,217.92774963378906,0.0,0.0,1
1778627360.97969413,101185343,0,6,256179000,2418,10,1.21,-35.363262,149.1652374,599.09,0.003000000026077032,217.47158813476562,0.0,0.0,1
1778627361.17961407,101385263,0,6,256179200,2418,10,1.21,-35.363262,149.1652373,599.09,0.0020000000949949026,218.94464111328125,0.0,0.0,1
1778627361.37953401,101585183,0,6,256179400,2418,10,1.21,-35.363262,149.1652373,599.09,0.0020000000949949026,223.69776916503906,0.0,0.0,1
1778627361.57945418,101785103,0,6,256179600,2418,10,1.21,-35.363262,149.1652373,599.09,0.0020000000949949026,222.9016571044922,0.0010000000474974513,0.0,1
1778627361.77937412,101985023,0,6,256179800,2418,10,1.21,-35.363262,149.1652373,599.09,0.0020000000949949026,211.3933868408203,0.0010000000474974513,0.0,1
1778627361.97929406,102184943,0,6,256180000,2418,10,1.21,-35.363262,149.1652373,599.08,0.0020000000949949026,191.60691833496094,0.0010000000474974513,0.0,1
1778627362.17921400,102384863,0,6,256180200,2418,10,1.21,-35.363262,149.1652373,599.08,0.0020000000949949026,169.61563110351562,0.0010000000474974513,0.0,1
1778627362.37996721,102585616,0,6,256180400,2418,10,1.21,-35.363262,149.1652373,599.08,0.003000000026077032,151.6405487060547,0.0010000000474974513,0.0,1
1778627362.57988715,102785536,0,6,256180600,2418,10,1.21,-35.363262,149.1652373,599.08,0.003000000026077032,142.00572204589844,0.0010000000474974513,0.0,1
1778627362.77980709,102985456,0,6,256180800,2418,10,1.21,-35.363262,149.1652373,599.08,0.004000000189989805,137.27908325195312,0.0,0.0,1
1778627362.97972703,103185376,0,6,256181000,2418,10,1.21,-35.363262,149.1652373,599.08,0.005000000353902578,133.00047302246094,0.0,0.0,1
1778627363.17964721,103385296,0,6,256181200,2418,10,1.21,-35.363262,149.1652373,599.08,0.006000000052154064,127.48320770263672,0.0,0.0,1
1778627363.37956715,103585216,0,6,256181400,2418,10,1.21,-35.363262,149.1652373,599.08,0.006000000052154064,122.81439971923828,0.0,0.0,1
1778627363.57948709,103785136,0,6,256181600,2418,10,1.21,-35.363262,149.1652373,599.08,0.006000000052154064,121.36845397949219,0.0,0.0,1
1778627363.77940702,103985056,0,6,256181800,2418,10,1.21,-35.363262,149.1652373,599.08,0.006000000052154064,121.94744873046875,0.0,0.0,1
1778627363.97932720,104184976,0,6,256182000,2418,10,1.21,-35.363262,149.1652373,599.08,0.005000000353902578,122.53986358642578,0.0,0.0,1
1778627364.17924714,104384896,0,6,256182200,2418,10,1.21,-35.363262,149.1652373,599.08,0.004000000189989805,124.05422973632812,0.0,0.0,1
1778627364.38000011,104585649,0,6,256182400,2418,10,1.21,-35.363262,149.1652373,599.08,0.004000000189989805,127.57137298583984,-0.0010000000474974513,0.0,1
1778627364.57992005,104785569,0,6,256182600,2418,10,1.21,-35.363262,149.1652373,599.08,0.004000000189989805,131.38414001464844,-0.0010000000474974513,0.0,1
1778627364.77983999,104985489,0,6,256182800,2418,10,1.21,-35.363262,149.1652373,599.08,0.005000000353902578,133.1786346435547,-0.0010000000474974513,0.0,1
1778627364.97976017,105185409,0,6,256183000,2418,10,1.21,-35.363262,149.1652374,599.09,0.005000000353902578,132.18289184570312,-0.0010000000474974513,0.0,1
1778627365.17968011,105385329,0,6,256183200,2418,10,1.21,-35.363262,149.1652374,599.09,0.006000000052154064,129.72621154785156,-0.0010000000474974513,0.0,1
1778627365.37960005,105585249,0,6,256183400,2418,10,1.21,-35.363262,149.1652374,599.09,0.005000000353902578,128.53761291503906,-0.0010000000474974513,0.0,1
1778627365.57951999,105785169,0,6,256183600,2418,10,1.21,-35.3632621,149.1652374,599.09,0.005000000353902578,131.17288208007812,0.0,0.0,1
1778627365.77944016,105985089,0,6,256183800,2418,10,1.21,-35.3632621,149.1652374,599.09,0.004000000189989805,137.42787170410156,0.0,0.0,1
1778627365.97936010,106185009,0,6,256184000,2418,10,1.21,-35.3632621,149.1652374,599.09,0.004000000189989805,145.7454833984375,0.0,0.0,1
1778627366.17928004,106384929,0,6,256184200,2418,10,1.21,-35.3632621,149.1652374,599.09,0.003000000026077032,156.56163024902344,0.0,0.0,1
1778627366.37920022,106584849,0,6,256184400,2418,10,1.21,-35.3632621,149.1652374,599.09,0.0020000000949949026,171.56362915039062,0.0,0.0,1
1778627366.57995319,106785602,0,6,256184600,2418,10,1.21,-35.3632621,149.1652374,599.09,0.0010000000474974513,199.01937866210938,0.0010000000474974513,0.0,1
1778627366.77987313,106985522,0,6,256184800,2418,10,1.21,-35.3632621,149.1652374,599.09,0.0010000000474974513,259.1604309082031,0.0010000000474974513,0.0,1
1778627366.97979307,107185442,0,6,256185000,2418,10,1.21,-35.3632621,149.1652374,599.09,0.0010000000474974513,307.1374206542969,0.0010000000474974513,0.0,1
1778627367.17971301,107385362,0,6,256185200,2418,10,1.21,-35.3632621,149.1652374,599.08,0.0020000000949949026,331.7857666015625,0.0010000000474974513,0.0,1
1778627367.37963319,107585282,0,6,256185400,2418,10,1.21,-35.3632621,149.1652374,599.08,0.003000000026077032,345.67437744140625,0.0010000000474974513,0.0,1
1778627367.57955313,107785202,0,6,256185600,2418,10,1.21,-35.3632621,149.1652374,599.08,0.004000000189989805,351.48553466796875,0.0010000000474974513,0.0,1
1778627367.77947307,107985122,0,6,256185800,2418,10,1.21,-35.3632621,149.1652374,599.08,0.004000000189989805,353.95684814453125,0.0010000000474974513,0.0,1
1778627367.97939301,108185042,0,6,256186000,2418,10,1.21,-35.3632621,149.1652374,599.08,0.004000000189989805,355.1030578613281,0.0,0.0,1
1778627368.17931318,108384962,0,6,256186200,2418,10,1.21,-35.3632621,149.1652374,599.08,0.004000000189989805,354.8357849121094,0.0,0.0,1
1778627368.37923312,108584882,0,6,256186400,2418,10,1.21,-35.3632621,149.1652374,599.08,0.004000000189989805,354.6194152832031,0.0,0.0,1
1778627368.57998610,108785635,0,6,256186600,2418,10,1.21,-35.3632621,149.1652374,599.08,0.003000000026077032,352.4748229980469,0.0,0.0,1
1778627368.77990603,108985555,0,6,256186800,2418,10,1.21,-35.3632621,149.1652374,599.08,0.003000000026077032,343.7337341308594,-0.0010000000474974513,0.0,1
1778627368.97982621,109185475,0,6,256187000,2418,10,1.21,-35.3632621,149.1652374,599.08,0.003000000026077032,331.7591552734375,-0.0010000000474974513,0.0,1
1778627369.17974615,109385395,0,6,256187200,2418,10,1.21,-35.3632621,149.1652374,599.08,0.004000000189989805,325.5365905761719,-0.0010000000474974513,0.0,1
1778627369.37966609,109585315,0,6,256187400,2418,10,1.21,-35.3632621,149.1652374,599.08,0.004000000189989805,324.1286926269531,-0.0010000000474974513,0.0,1
1778627369.57958603,109785235,0,6,256187600,2418,10,1.21,-35.3632621,149.1652374,599.09,0.005000000353902578,324.8800048828125,-0.0010000000474974513,0.0,1
1778627369.77950621,109985155,0,6,256187800,2418,10,1.21,-35.3632621,149.1652374,599.09,0.005000000353902578,326.17633056640625,-0.0010000000474974513,0.0,1
1778627369.97942615,110185075,0,6,256188000,2418,10,1.21,-35.3632621,149.1652374,599.09,0.005000000353902578,327.36212158203125,0.0,0.0,1
1778627370.17934608,110384995,0,6,256188200,2418,10,1.21,-35.3632621,149.1652374,599.09,0.005000000353902578,329.0406494140625,0.0,0.0,1
1778627370.37926602,110584915,0,6,256188400,2418,10,1.21,-35.3632621,149.1652374,599.09,0.005000000353902578,330.6246337890625,0.0,0.0,1
1778627370.57918620,110784835,0,6,256188600,2418,10,1.21,-35.363262,149.1652374,599.09,0.005000000353902578,333.7939453125,0.0,0.0,1
1778627370.77993917,110985588,0,6,256188800,2418,10,1.21,-35.363262,149.1652374,599.09,0.005000000353902578,337.648681640625,0.0,0.0,1
1778627370.97985911,111185508,0,6,256189000,2418,10,1.21,-35.363262,149.1652374,599.09,0.004000000189989805,338.4552307128906,0.0010000000474974513,0.0,1
1778627371.17977905,111385428,0,6,256189200,2418,10,1.21,-35.363262,149.1652374,599.09,0.004000000189989805,334.6186828613281,0.0010000000474974513,0.0,1
1778627371.37969899,111585348,0,6,256189400,2418,10,1.21,-35.363262,149.1652374,599.09,0.003000000026077032,325.36431884765625,0.0010000000474974513,0.0,1
1778627371.57961917,111785268,0,6,256189600,2418,10,1.21,-35.363262,149.1652374,599.08,0.0020000000949949026,310.20166015625,0.0010000000474974513,0.0,1
1778627371.77953911,111985188,0,6,256189800,2418,10,1.21,-35.363262,149.1652374,599.08,0.0020000000949949026,287.3868408203125,0.0010000000474974513,0.0,1
1778627371.97945905,112185108,0,6,256190000,2418,10,1.21,-35.363262,149.1652374,599.08,0.0020000000949949026,263.14923095703125,0.0010000000474974513,0.0,1
1778627372.17937899,112385028,0,6,256190200,2418,10,1.21,-35.363262,149.1652374,599.08,0.0020000000949949026,246.70529174804688,0.0010000000474974513,0.0,1
1778627372.37929916,112584948,0,6,256190400,2418,10,1.21,-35.363262,149.1652374,599.08,0.0020000000949949026,235.35220336914062,0.0,0.0,1
1778627372.57921910,112784868,0,6,256190600,2418,10,1.21,-35.363262,149.1652374,599.08,0.003000000026077032,230.63360595703125,0.0,0.0,1
1778627372.77997208,112985621,0,6,256190800,2418,10,1.21,-35.363262,149.1652374,599.08,0.003000000026077032,232.43728637695312,0.0,0.0,1
1778627372.97989202,113185541,0,6,256191000,2418,10,1.21,-35.363262,149.1652374,599.08,0.003000000026077032,233.58163452148438,0.0,0.0,1
1778627373.17981219,113385461,0,6,256191200,2418,10,1.21,-35.363262,149.1652374,599.08,0.003000000026077032,233.0641632080078,-0.0010000000474974513,0.0,1
1778627373.37973213,113585381,0,6,256191400,2418,10,1.21,-35.363262,149.1652374,599.08,0.003000000026077032,233.68624877929688,-0.0010000000474974513,0.0,1
1778627373.57965207,113785301,0,6,256191600,2418,10,1.21,-35.363262,149.1652374,599.08,0.003000000026077032,232.73208618164062,-0.0010000000474974513,0.0,1
1778627373.77957201,113985221,0,6,256191800,2418,10,1.21,-35.363262,149.1652373,599.09,0.003000000026077032,229.52247619628906,-0.0010000000474974513,0.0,1
1778627373.97949219,114185141,0,6,256192000,2418,10,1.21,-35.363262,149.1652373,599.09,0.003000000026077032,229.25135803222656,-0.0010000000474974513,0.0,1
1778627374.17941213,114385061,0,6,256192200,2418,10,1.21,-35.363262,149.1652373,599.09,0.003000000026077032,230.02996826171875,-0.0010000000474974513,0.0,1
1778627374.37933207,114584981,0,6,256192400,2418,10,1.21,-35.363262,149.1652373,599.09,0.003000000026077032,227.35755920410156,0.0,0.0,1
1778627374.57925200,114784901,0,6,256192600,2418,10,1.21,-35.363262,149.1652373,599.09,0.003000000026077032,220.7177276611328,0.0,0.0,1
1778627374.78000522,114985654,0,6,256192800,2418,10,1.21,-35.363262,149.1652373,599.09,0.0020000000949949026,207.30050659179688,0.0,0.0,1
1778627374.97992516,115185574,0,6,256193000,2418,10,1.21,-35.363262,149.1652373,599.09,0.0010000000474974513,175.69400024414062,0.0,0.0,1
1778627375.17984509,115385494,0,6,256193200,2418,10,1.21,-35.363262,149.1652373,599.09,0.0020000000949949026,144.73236083984375,0.0,0.0,1
1778627375.37976503,115585414,0,6,256193400,2418,10,1.21,-35.363262,149.1652373,599.09,0.0020000000949949026,133.39218139648438,0.0010000000474974513,0.0,1
1778627375.57968521,115785334,0,6,256193600,2418,10,1.21,-35.363262,149.1652373,599.09,0.003000000026077032,129.997802734375,0.0010000000474974513,0.0,1
1778627375.77960515,115985254,0,6,256193800,2418,10,1.21,-35.363262,149.1652373,599.08,0.004000000189989805,130.5515899658203,0.0010000000474974513,0.0,1
1778627375.97952509,116185174,0,6,256194000,2418,10,1.21,-35.363262,149.1652373,599.08,0.004000000189989805,135.2259521484375,0.0010000000474974513,0.0,1
1778627376.17944503,116385094,0,6,256194200,2418,10,1.21,-35.363262,149.1652373,599.08,0.004000000189989805,139.8280792236328,0.0010000000474974513,0.0,1
1778627376.37936521,116585014,0,6,256194400,2418,10,1.21,-35.363262,149.1652373,599.08,0.005000000353902578,141.6537322998047,0.0,0.0,1
1778627376.57928514,116784934,0,6,256194600,2418,10,1.21,-35.363262,149.1652373,599.08,0.004000000189989805,143.20828247070312,0.0,0.0,1
1778627376.77920508,116984854,0,6,256194800,2418,10,1.21,-35.363262,149.1652373,599.08,0.004000000189989805,147.99046325683594,0.0,0.0,1
1778627376.97995806,117185607,0,6,256195000,2418,10,1.21,-35.363262,149.1652373,599.08,0.004000000189989805,154.39610290527344,0.0,0.0,1
1778627377.17987800,117385527,0,6,256195200,2418,10,1.21,-35.363262,149.1652373,599.08,0.004000000189989805,157.41664123535156,0.0,0.0,1
1778627377.37979817,117585447,0,6,256195400,2418,10,1.21,-35.363262,149.1652373,599.08,0.004000000189989805,154.04396057128906,0.0,0.0,1
1778627377.57971811,117785367,0,6,256195600,2418,10,1.21,-35.363262,149.1652373,599.08,0.004000000189989805,145.69235229492188,-0.0010000000474974513,0.0,1
1778627377.77963805,117985287,0,6,256195800,2418,10,1.21,-35.363262,149.1652373,599.08,0.004000000189989805,137.19483947753906,-0.0010000000474974513,0.0,1
1778627377.97955799,118185207,0,6,256196000,2418,10,1.21,-35.3632621,149.1652373,599.08,0.004000000189989805,131.6684112548828,-0.0010000000474974513,0.0,1
1778627378.17947817,118385127,0,6,256196200,2418,10,1.21,-35.3632621,149.1652373,599.09,0.004000000189989805,131.74037170410156,-0.0010000000474974513,0.0,1
1778627378.37939811,118585047,0,6,256196400,2418,10,1.21,-35.3632621,149.1652373,599.09,0.004000000189989805,133.14288330078125,-0.0010000000474974513,0.0,1
1778627378.57931805,118784967,0,6,256196600,2418,10,1.21,-35.3632621,149.1652373,599.09,0.004000000189989805,129.8611602783203,0.0,0.0,1
1778627378.77923799,118984887,0,6,256196800,2418,10,1.21,-35.3632621,149.1652373,599.09,0.004000000189989805,120.51041412353516,0.0,0.0,1
1778627378.97999120,119185640,0,6,256197000,2418,10,1.21,-35.3632621,149.1652373,599.09,0.003000000026077032,102.781494140625,0.0,0.0,1
1778627379.17991114,119385560,0,6,256197200,2418,10,1.21,-35.3632621,149.1652373,599.09,0.003000000026077032,80.68669891357422,0.0,0.0,1
1778627379.37983108,119585480,0,6,256197400,2418,10,1.21,-35.3632621,149.1652374,599.09,0.004000000189989805,62.67055892944336,0.0,0.0,1
1778627379.57975101,119785400,0,6,256197600,2418,10,1.21,-35.3632621,149.1652374,599.09,0.004000000189989805,51.11882781982422,0.0,0.0,1
1778627379.77967119,119985320,0,6,256197800,2418,10,1.21,-35.3632621,149.1652374,599.09,0.004000000189989805,44.73242950439453,0.0010000000474974513,0.0,1
1778627379.97959113,120185240,0,6,256198000,2418,10,1.21,-35.3632621,149.1652374,599.09,0.004000000189989805,40.14891815185547,0.0010000000474974513,0.0,1
1778627380.17951107,120385160,0,6,256198200,2418,10,1.21,-35.3632621,149.1652374,599.08,0.004000000189989805,34.86602020263672,0.0010000000474974513,0.0,1
1778627380.37943101,120585080,0,6,256198400,2418,10,1.21,-35.3632621,149.1652374,599.08,0.004000000189989805,26.11823844909668,0.0010000000474974513,0.0,1
1778627380.57935119,120785000,0,6,256198600,2418,10,1.21,-35.3632621,149.1652374,599.08,0.003000000026077032,12.699159622192383,0.0010000000474974513,0.0,1
1778627380.77927113,120984920,0,6,256198800,2418,10,1.21,-35.3632621,149.1652374,599.08,0.003000000026077032,355.5948791503906,0.0010000000474974513,0.0,1
1778627380.97919106,121184840,0,6,256199000,2418,10,1.21,-35.3632621,149.1652374,599.08,0.004000000189989805,339.1313171386719,0.0,0.0,1
1778627381.17994404,121385593,0,6,256199200,2418,10,1.21,-35.3632621,149.1652374,599.08,0.004000000189989805,329.7065734863281,0.0,0.0,1
1778627381.37986422,121585513,0,6,256199400,2418,10,1.21,-35.3632621,149.1652374,599.08,0.005000000353902578,326.8956298828125,0.0,0.0,1
1778627381.57978415,121785433,0,6,256199600,2418,10,1.21,-35.3632621,149.1652374,599.08,0.005000000353902578,326.26287841796875,0.0,0.0,1
1778627381.77970409,121985353,0,6,256199800,2418,10,1.21,-35.3632621,149.1652374,599.08,0.005000000353902578,326.1625061035156,0.0,0.0,1
1778627381.97962403,122185273,0,6,256200000,2418,10,1.21,-35.3632621,149.1652374,599.08,0.006000000052154064,327.7924499511719,-0.0010000000474974513,0.0,1
1778627382.17954421,122385193,0,6,256200200,2418,10,1.21,-35.3632621,149.1652374,599.08,0.006000000052154064,329.00018310546875,-0.0010000000474974513,0.0,1
1778627382.37946415,122585113,0,6,256200400,2418,10,1.21,-35.3632621,149.1652374,599.08,0.006000000052154064,327.27288818359375,-0.0010000000474974513,0.0,1
1778627382.57938409,122785033,0,6,256200600,2418,10,1.21,-35.3632621,149.1652374,599.08,0.005000000353902578,325.75,-0.0010000000474974513,0.0,1
1778627382.77930403,122984953,0,6,256200800,2418,10,1.21,-35.363262,149.1652374,599.09,0.004000000189989805,327.5268859863281,-0.0010000000474974513,0.0,1
1778627382.97922421,123184873,0,6,256201000,2418,10,1.21,-35.363262,149.1652374,599.09,0.004000000189989805,332.5270080566406,-0.0010000000474974513,0.0,1
1778627383.17997718,123385626,0,6,256201200,2418,10,1.21,-35.363262,149.1652374,599.09,0.004000000189989805,335.3717346191406,0.0,0.0,1
1778627383.37989712,123585546,0,6,256201400,2418,10,1.21,-35.363262,149.1652374,599.09,0.004000000189989805,332.00665283203125,0.0,0.0,1
1778627383.57981706,123785466,0,6,256201600,2418,10,1.21,-35.363262,149.1652374,599.09,0.003000000026077032,324.4689636230469,0.0,0.0,1
1778627383.77973700,123985386,0,6,256201800,2418,10,1.21,-35.363262,149.1652374,599.09,0.003000000026077032,312.83111572265625,0.0,0.0,1
1778627383.97965717,124185306,0,6,256202000,2418,10,1.21,-35.363262,149.1652374,599.09,0.0020000000949949026,295.6400146484375,0.0,0.0,1
1778627384.17957711,124385226,0,6,256202200,2418,10,1.21,-35.363262,149.1652374,599.09,0.0020000000949949026,272.17315673828125,0.0010000000474974513,0.0,1
1778627384.37949705,124585146,0,6,256202400,2418,10,1.21,-35.363262,149.1652374,599.09,0.003000000026077032,253.03366088867188,0.0010000000474974513,0.0,1
1778627384.57941699,124785066,0,6,256202600,2418,10,1.21,-35.363262,149.1652374,599.08,0.003000000026077032,246.36749267578125,0.0010000000474974513,0.0,1
1778627384.77933717,124984986,0,6,256202800,2418,10,1.21,-35.363262,149.1652374,599.08,0.003000000026077032,248.97238159179688,0.0010000000474974513,0.0,1
1778627384.97925711,125184906,0,6,256203000,2418,10,1.21,-35.363262,149.1652374,599.08,0.003000000026077032,252.76882934570312,0.0010000000474974513,0.0,1
1778627385.17917705,125384826,0,6,256203200,2418,10,1.21,-35.363262,149.1652374,599.08,0.003000000026077032,255.73313903808594,0.0010000000474974513,0.0,1
1778627385.37993002,125585579,0,6,256203400,2418,10,1.21,-35.363262,149.1652373,599.08,0.003000000026077032,257.6085510253906,0.0,0.0,1
1778627385.57985020,125785499,0,6,256203600,2418,10,1.21,-35.363262,149.1652373,599.08,0.004000000189989805,252.79100036621094,0.0,0.0,1
1778627385.77977014,125985419,0,6,256203800,2418,10,1.21,-35.363262,149.1652373,599.08,0.004000000189989805,242.91949462890625,0.0,0.0,1
1778627385.97969007,126185339,0,6,256204000,2418,10,1.21,-35.363262,149.1652373,599.08,0.004000000189989805,232.32980346679688,0.0,0.0,1
1778627386.17961001,126385259,0,6,256204200,2418,10,1.21,-35.363262,149.1652373,599.08,0.004000000189989805,222.4092559814453,0.0,0.0,1
1778627386.37953019,126585179,0,6,256204400,2418,10,1.21,-35.363262,149.1652373,599.08,0.003000000026077032,211.3675994873047,0.0,0.0,1
1778627386.57945013,126785099,0,6,256204600,2418,10,1.21,-35.363262,149.1652373,599.08,0.003000000026077032,194.90016174316406,-0.0010000000474974513,0.0,1
1778627386.77937007,126985019,0,6,256204800,2418,10,1.21,-35.363262,149.1652373,599.08,0.0020000000949949026,172.72792053222656,-0.0010000000474974513,0.0,1
1778627386.97929001,127184939,0,6,256205000,2418,10,1.21,-35.363262,149.1652373,599.08,0.0020000000949949026,156.90379333496094,-0.0010000000474974513,0.0,1
1778627387.17921019,127384859,0,6,256205200,2418,10,1.21,-35.363262,149.1652373,599.09,0.0020000000949949026,152.7302703857422,-0.0010000000474974513,0.0,1
1778627387.37996316,127585612,0,6,256205400,2418,10,1.21,-35.363262,149.1652373,599.09,0.0020000000949949026,148.45982360839844,-0.0010000000474974513,0.0,1
1778627387.57988310,127785532,0,6,256205600,2418,10,1.21,-35.363262,149.1652373,599.09,0.0020000000949949026,136.30917358398438,0.0,0.0,1
1778627387.77980304,127985452,0,6,256205800,2418,10,1.21,-35.363262,149.1652373,599.09,0.003000000026077032,127.1361083984375,0.0,0.0,1
1778627387.97972322,128185372,0,6,256206000,2418,10,1.21,-35.363262,149.1652373,599.09,0.003000000026077032,127.42796325683594,0.0,0.0,1
1778627388.17964315,128385292,0,6,256206200,2418,10,1.21,-35.363262,149.1652373,599.09,0.003000000026077032,134.34396362304688,0.0,0.0,1
1778627388.37956309,128585212,0,6,256206400,2418,10,1.21,-35.363262,149.1652373,599.09,0.003000000026077032,143.29534912109375,0.0,0.0,1
1778627388.57948303,128785132,0,6,256206600,2418,10,1.21,-35.363262,149.1652373,599.09,0.003000000026077032,152.26437377929688,0.0,0.0,1
1778627388.77940321,128985052,0,6,256206800,2418,10,1.21,-35.363262,149.1652373,599.09,0.004000000189989805,156.52574157714844,0.0010000000474974513,0.0,1
1778627388.97932315,129184972,0,6,256207000,2418,10,1.21,-35.363262,149.1652373,599.09,0.004000000189989805,154.7896728515625,0.0010000000474974513,0.0,1
1778627389.17924309,129384892,0,6,256207200,2418,10,1.21,-35.363262,149.1652373,599.08,0.003000000026077032,149.83859252929688,0.0010000000474974513,0.0,1
1778627389.37999606,129585645,0,6,256207400,2418,10,1.21,-35.363262,149.1652373,599.08,0.003000000026077032,141.56166076660156,0.0010000000474974513,0.0,1
1778627389.57991600,129785565,0,6,256207600,2418,10,1.21,-35.363262,149.1652373,599.08,0.003000000026077032,131.50668334960938,0.0010000000474974513,0.0,1
1778627389.77983618,129985485,0,6,256207800,2418,10,1.21,-35.363262,149.1652373,599.08,0.003000000026077032,128.07901000976562,0.0010000000474974513,0.0,1
1778627389.97975612,130185405,0,6,256208000,2418,10,1.21,-35.363262,149.1652373,599.08,0.004000000189989805,131.81838989257812,0.0,0.0,1
1778627390.17967606,130385325,0,6,256208200,2418,10,1.21,-35.363262,149.1652373,599.08,0.004000000189989805,138.34158325195312,0.0,0.0,1
1778627390.37959599,130585245,0,6,256208400,2418,10,1.21,-35.363262,149.1652373,599.08,0.004000000189989805,144.0605010986328,0.0,0.0,1
1778627390.57951617,130785165,0,6,256208600,2418,10,1.21,-35.363262,149.1652373,599.08,0.003000000026077032,144.6956329345703,0.0,0.0,1
1778627390.77943611,130985085,0,6,256208800,2418,10,1.21,-35.3632621,149.1652373,599.08,0.003000000026077032,138.7050323486328,0.0,0.0,1
1778627390.97935605,131185005,0,6,256209000,2418,10,1.21,-35.3632621,149.1652373,599.08,0.003000000026077032,134.07852172851562,-0.0010000000474974513,0.0,1
1778627391.17927599,131384925,0,6,256209200,2418,10,1.21,-35.3632621,149.1652373,599.08,0.004000000189989805,133.90884399414062,-0.0010000000474974513,0.0,1
1778627391.37919617,131584845,0,6,256209400,2418,10,1.21,-35.3632621,149.1652373,599.08,0.003000000026077032,133.91824340820312,-0.0010000000474974513,0.0,1
1778627391.57994914,131785598,0,6,256209600,2418,10,1.21,-35.3632621,149.1652373,599.08,0.003000000026077032,126.48641967773438,-0.0010000000474974513,0.0,1
1778627391.77986908,131985518,0,6,256209800,2418,10,1.21,-35.3632621,149.1652373,599.09,0.003000000026077032,107.88953399658203,-0.0010000000474974513,0.0,1
1778627391.97978902,132185438,0,6,256210000,2418,10,1.21,-35.3632621,149.1652373,599.09,0.003000000026077032,84.4193344116211,-0.0010000000474974513,0.0,1
1778627392.17970920,132385358,0,6,256210200,2418,10,1.21,-35.3632621,149.1652373,599.09,0.003000000026077032,62.307838439941406,-0.0010000000474974513,0.0,1
1778627392.37962914,132585278,0,6,256210400,2418,10,1.21,-35.3632621,149.1652374,599.09,0.003000000026077032,45.39316940307617,0.0,0.0,1
1778627392.57954907,132785198,0,6,256210600,2418,10,1.21,-35.3632621,149.1652374,599.09,0.004000000189989805,34.826778411865234,0.0,0.0,1
1778627392.77946901,132985118,0,6,256210800,2418,10,1.21,-35.3632621,149.1652374,599.09,0.004000000189989805,30.28400993347168,0.0,0.0,1
1778627392.97938919,133185038,0,6,256211000,2418,10,1.21,-35.3632621,149.1652374,599.09,0.005000000353902578,26.929819107055664,0.0010000000474974513,0.0,1
1778627393.17930913,133384958,0,6,256211200,2418,10,1.21,-35.3632621,149.1652374,599.09,0.004000000189989805,19.244680404663086,0.0010000000474974513,0.0,1
1778627393.37922907,133584878,0,6,256211400,2418,10,1.21,-35.3632621,149.1652374,599.09,0.004000000189989805,7.777219772338867,0.0010000000474974513,0.0,1
1778627393.57998204,133785631,0,6,256211600,2418,10,1.21,-35.3632621,149.1652374,599.08,0.004000000189989805,355.16656494140625,0.0010000000474974513,0.0,1
1778627393.77990222,133985551,0,6,256211800,2418,10,1.21,-35.3632621,149.1652374,599.08,0.004000000189989805,341.773193359375,0.0010000000474974513,0.0,1
1778627393.97982216,134185471,0,6,256212000,2418,10,1.21,-35.3632621,149.1652374,599.08,0.004000000189989805,329.7147521972656,0.0010000000474974513,0.0,1
1778627394.17974210,134385391,0,6,256212200,2418,10,1.21,-35.3632621,149.1652374,599.08,0.004000000189989805,325.7615051269531,0.0010000000474974513,0.0,1
1778627394.37966204,134585311,0,6,256212400,2418,10,1.21,-35.3632621,149.1652374,599.08,0.005000000353902578,328.42108154296875,0.0,0.0,1
1778627394.57958221,134785231,0,6,256212600,2418,10,1.21,-35.3632621,149.1652374,599.08,0.005000000353902578,332.9139099121094,0.0,0.0,1
1778627394.77950215,134985151,0,6,256212800,2418,10,1.21,-35.3632621,149.1652374,599.08,0.005000000353902578,336.40814208984375,0.0,0.0,1
1778627394.97942209,135185071,0,6,256213000,2418,10,1.21,-35.3632621,149.1652374,599.08,0.005000000353902578,337.1634216308594,0.0,0.0,1
1778627395.17934203,135384991,0,6,256213200,2418,10,1.21,-35.3632621,149.1652374,599.08,0.005000000353902578,335.78106689453125,0.0,0.0,1
1778627395.37926221,135584911,0,6,256213400,2418,10,1.21,-35.3632621,149.1652374,599.08,0.005000000353902578,333.6102294921875,-0.0010000000474974513,0.0,1
1778627395.57918215,135784831,0,6,256213600,2418,10,1.21,-35.363262,149.1652374,599.08,0.006000000052154064,330.7078552246094,-0.0010000000474974513,0.0,1
1778627395.77993512,135985584,0,6,256213800,2418,10,1.21,-35.363262,149.1652374,599.08,0.006000000052154064,326.89892578125,-0.0010000000474974513,0.0,1
1778627395.97985506,136185504,0,6,256214000,2418,10,1.21,-35.363262,149.1652374,599.09,0.006000000052154064,322.3187255859375,-0.0010000000474974513,0.0,1
1778627396.17977500,136385424,0,6,256214200,2418,10,1.21,-35.363262,149.1652374,599.09,0.005000000353902578,317.08306884765625,-0.0010000000474974513,0.0,1
1778627396.37969518,136585344,0,6,256214400,2418,10,1.21,-35.363262,149.1652374,599.09,0.004000000189989805,310.42071533203125,-0.0010000000474974513,0.0,1
1778627396.57961512,136785264,0,6,256214600,2418,10,1.21,-35.363262,149.1652374,599.09,0.004000000189989805,299.41387939453125,0.0,0.0,1
1778627396.77953506,136985184,0,6,256214800,2418,10,1.21,-35.363262,149.1652374,599.09,0.003000000026077032,283.08734130859375,0.0,0.0,1
1778627396.97945499,137185104,0,6,256215000,2418,10,1.21,-35.363262,149.1652374,599.09,0.004000000189989805,266.8612976074219,0.0,0.0,1
1778627397.17937517,137385024,0,6,256215200,2418,10,1.21,-35.363262,149.1652374,599.09,0.004000000189989805,256.26641845703125,0.0,0.0,1
1778627397.37929511,137584944,0,6,256215400,2418,10,1.21,-35.363262,149.1652374,599.09,0.004000000189989805,250.21942138671875,0.0,0.0,1
1778627397.57921505,137784864,0,6,256215600,2418,10,1.21,-35.363262,149.1652373,599.09,0.004000000189989805,244.98475646972656,0.007000000216066837,0.0,1
