timestamp,TimeUS,I,Status,GMS,GWk,NSats,HDop,Lat,Lng,Alt,Spd,GCrs,VZ,Yaw,U
1778788392.79999995,65985262,0,6,417210800,2418,10,1.21,-35.3632621,149.1652374,584.09,0.0,0.0,0.0,0.0,1
1778788392.99992013,66185182,0,6,417211000,2418,10,1.21,-35.3632621,149.1652374,584.09,0.0,0.0,0.0,0.0,1
1778788393.19984007,66385102,0,6,417211200,2418,10,1.21,-35.3632621,149.1652374,584.09,0.0,0.0,0.0,0.0,1
1778788393.39976001,66585022,0,6,417211400,2418,10,1.21,-35.3632621,149.1652374,584.09,0.0,0.0,0.0,0.0,1
1778788393.59967995,66784942,0,6,417211600,2418,10,1.21,-35.3632621,149.1652374,584.09,0.0,0.0,0.0,0.0,1
1778788393.79960012,66984862,0,6,417211800,2418,10,1.21,-35.3632621,149.1652374,584.09,0.0,0.0,0.0,0.0,1
1778788393.99952006,67184782,0,6,417212000,2418,10,1.21,-35.3632621,149.1652374,584.09,0.0,0.0,0.0,0.0,1
1778788394.19944000,67384702,0,6,417212200,2418,10,1.21,-35.3632621,149.1652374,584.09,0.0,0.0,0.0,0.0,1
1778788394.39935994,67584622,0,6,417212400,2418,10,1.21,-35.3632621,149.1652374,584.09,0.0,0.0,0.0,0.0,1
1778788394.59928012,67784542,0,6,417212600,2418,10,1.21,-35.3632621,149.1652374,584.09,0.0,0.0,0.0,0.0,1
1778788394.80003309,67985295,0,6,417212800,2418,10,1.21,-35.3632621,149.1652374,584.09,0.0,0.0,0.0,0.0,1
1778788394.99995303,68185215,0,6,417213000,2418,10,1.21,-35.3632621,149.1652374,584.09,0.0,0.0,0.0,0.0,1
1778788395.19987297,68385135,0,6,417213200,2418,10,1.21,-35.3632621,149.1652374,584.09,0.0,0.0,0.0,0.0,1
1778788395.39979315,68585055,0,6,417213400,2418,10,1.21,-35.3632621,149.1652374,584.09,0.0,0.0,0.0,0.0,1
1778788395.59971309,68784975,0,6,417213600,2418,10,1.21,-35.3632621,149.1652374,584.09,0.0,0.0,0.0,0.0,1
1778788395.79963303,68984895,0,6,417213800,2418,10,1.21,-35.3632621,149.1652374,584.09,0.0,0.0,0.0,0.0,1
1778788395.99955297,69184815,0,6,417214000,2418,10,1.21,-35.3632621,149.1652374,584.09,0.0,0.0,0.0,0.0,1
1778788396.19947314,69384735,0,6,417214200,2418,10,1.21,-35.3632621,149.1652374,584.09,0.0,0.0,0.0,0.0,1
1778788396.39939308,69584655,0,6,417214400,2418,10,1.21,-35.3632621,149.1652374,584.09,0.0,124.04850006103516,0.0,0.0,1
1778788396.59931302,69784575,0,6,417214600,2418,10,1.21,-35.3632621,149.1652374,584.09,0.0,124.89191436767578,0.0,0.0,1
1778788396.79923296,69984495,0,6,417214800,2418,10,1.21,-35.3632621,149.1652374,584.09,0.0,299.4878234863281,0.0,0.0,1
1778788396.99998593,70185248,0,6,417215000,2418,10,1.21,-35.3632621,149.1652374,584.09,0.0,304.8885498046875,0.0,0.0,1
1778788397.19990611,70385168,0,6,417215200,2418,10,1.21,-35.3632621,149.1652374,584.09,0.0,305.4314880371094,-0.030000001192092896,0.0,1
1778788397.39982605,70585088,0,6,417215400,2418,10,1.21,-35.3632621,149.1652374,584.11,0.0,305.63970947265625,-0.11500000208616257,0.0,1
1778788397.59974599,70785008,0,6,417215600,2418,10,1.21,-35.3632621,149.1652374,584.14,0.0,307.4236755371094,-0.2240000069141388,0.0,1
1778788397.79966593,70984928,0,6,417215800,2418,10,1.21,-35.3632621,149.1652374,584.2,0.0,307.0205993652344,-0.4190000295639038,0.0,1
1778788397.99958611,71184848,0,6,417216000,2418,10,1.21,-35.3632621,149.1652374,584.33,0.003000000026077032,306.6708984375,-0.8950000405311584,0.0,1
1778788398.19950604,71384768,0,6,417216200,2418,10,1.21,-35.3632621,149.1652374,584.55,0.01100000087171793,306.564453125,-1.1980000734329224,0.0,1
1778788398.39942598,71584688,0,6,417216400,2418,10,1.21,-35.3632621,149.1652374,584.79,0.02200000174343586,306.45458984375,-1.186000108718872,0.0,1
1778788398.59934592,71784608,0,6,417216600,2418,10,1.21,-35.3632621,149.1652373,585.04,0.029000001028180122,306.486328125,-1.3050000667572021,0.0,1
1778788398.79926610,71984528,0,6,417216800,2418,10,1.21,-35.363262,149.1652373,585.31,0.03100000135600567,306.7333068847656,-1.503000020980835,0.0,1
1778788399.00001907,72185281,0,6,417217000,2418,10,1.21,-35.363262,149.1652372,585.64,0.029000001028180122,307.23199462890625,-1.7040001153945923,0.0,1
1778788399.19993901,72385201,0,6,417217200,2418,10,1.21,-35.363262,149.1652372,586.0,0.02500000037252903,307.9399108886719,-1.909000039100647,0.0,1
1778788399.39985895,72585121,0,6,417217400,2418,10,1.21,-35.363262,149.1652371,586.4,0.021000001579523087,308.860107421875,-2.118000030517578,0.0,1
1778788399.59977913,72785041,0,6,417217600,2418,10,1.21,-35.3632619,149.165237,586.85,0.017000000923871994,310.38189697265625,-2.314000129699707,0.0,1
1778788399.79969907,72984961,0,6,417217800,2418,10,1.21,-35.3632619,149.165237,587.32,0.013000000268220901,312.95867919921875,-2.452000141143799,0.0,1
1778788399.99961901,73184881,0,6,417218000,2418,10,1.21,-35.3632619,149.165237,587.82,0.010000000707805157,316.5078430175781,-2.515000104904175,0.0,1
1778788400.19953895,73384801,0,6,417218200,2418,10,1.21,-35.3632619,149.165237,588.33,0.007000000216066837,320.8578796386719,-2.5310001373291016,0.0,1
1778788400.39945912,73584721,0,6,417218400,2418,10,1.21,-35.3632619,149.165237,588.84,0.005000000353902578,328.24310302734375,-2.5230000019073486,0.0,1
1778788400.59937906,73784641,0,6,417218600,2418,10,1.21,-35.3632619,149.165237,589.34,0.003000000026077032,343.78411865234375,-2.50600004196167,0.0,1
1778788400.79929900,73984561,0,6,417218800,2418,10,1.21,-35.3632619,149.165237,589.84,0.0020000000949949026,14.657730102539062,-2.4880001544952393,0.0,1
1778788400.99921894,74184481,0,6,417219000,2418,10,1.21,-35.3632619,149.165237,590.33,0.0020000000949949026,49.53215026855469,-2.4740002155303955,0.0,1
1778788401.19997215,74385234,0,6,417219200,2418,10,1.21,-35.3632619,149.165237,590.83,0.0020000000949949026,72.87281799316406,-2.4640002250671387,0.0,1
1778788401.39989209,74585154,0,6,417219400,2418,10,1.21,-35.3632619,149.165237,591.32,0.003000000026077032,93.0867691040039,-2.4600000381469727,0.0,1
1778788401.59981203,74785074,0,6,417219600,2418,10,1.21,-35.3632619,149.165237,591.81,0.005000000353902578,104.14282989501953,-2.4590001106262207,0.0,1
1778788401.79973197,74984994,0,6,417219800,2418,10,1.21,-35.3632619,149.165237,592.3,0.007000000216066837,108.85310363769531,-2.4590001106262207,0.0,1
1778788401.99965215,75184914,0,6,417220000,2418,10,1.21,-35.3632619,149.165237,592.79,0.009000000543892384,111.82292938232422,-2.4610002040863037,0.0,1
1778788402.19957209,75384834,0,6,417220200,2418,10,1.21,-35.3632619,149.165237,593.29,0.010000000707805157,113.6569595336914,-2.4620001316070557,0.0,1
1778788402.39949203,75584754,0,6,417220400,2418,10,1.21,-35.3632619,149.165237,593.78,0.010000000707805157,114.0759048461914,-2.4640002250671387,0.0,1
1778788402.59941196,75784674,0,6,417220600,2418,10,1.21,-35.3632619,149.165237,594.27,0.01100000087171793,113.24840545654297,-2.4660000801086426,0.0,1
1778788402.79933214,75984594,0,6,417220800,2418,10,1.21,-35.3632619,149.165237,594.77,0.012000000104308128,113.68596649169922,-2.4680001735687256,0.0,1
1778788402.99925208,76184514,0,6,417221000,2418,10,1.21,-35.3632619,149.165237,595.26,0.013000000268220901,115.74654388427734,-2.4690001010894775,0.0,1
1778788403.20000505,76385267,0,6,417221200,2418,10,1.21,-35.3632619,149.1652371,595.75,0.014000000432133675,117.46424865722656,-2.438000202178955,0.0,1
1778788403.39992499,76585187,0,6,417221400,2418,10,1.21,-35.3632619,149.1652372,596.23,0.014000000432133675,118.83745574951172,-2.3360002040863037,0.0,1
1778788403.59984493,76785107,0,6,417221600,2418,10,1.21,-35.3632619,149.1652372,596.68,0.014000000432133675,120.2636947631836,-2.1740000247955322,0.0,1
1778788403.79976511,76985027,0,6,417221800,2418,10,1.21,-35.3632619,149.1652372,597.1,0.013000000268220901,122.24144744873047,-1.977000117301941,0.0,1
1778788403.99968505,77184947,0,6,417222000,2418,10,1.21,-35.3632619,149.1652373,597.47,0.012000000104308128,125.4352035522461,-1.7650001049041748,0.0,1
1778788404.19960499,77384867,0,6,417222200,2418,10,1.21,-35.3632619,149.1652373,597.8,0.010000000707805157,130.08009338378906,-1.5480000972747803,0.0,1
1778788404.39952493,77584787,0,6,417222400,2418,10,1.21,-35.3632619,149.1652373,598.09,0.00800000037997961,137.4835205078125,-1.3330000638961792,0.0,1
1778788404.59944510,77784707,0,6,417222600,2418,10,1.21,-35.3632619,149.1652373,598.33,0.006000000052154064,151.8992919921875,-1.1230000257492065,0.0,1
1778788404.79936504,77984627,0,6,417222800,2418,10,1.21,-35.3632619,149.1652373,598.54,0.005000000353902578,174.6341094970703,-0.9180000424385071,0.0,1
1778788404.99928498,78184547,0,6,417223000,2418,10,1.21,-35.3632619,149.1652373,598.71,0.005000000353902578,195.6468505859375,-0.7170000076293945,0.0,1
1778788405.20003796,78385300,0,6,417223200,2418,10,1.21,-35.3632619,149.1652373,598.83,0.006000000052154064,208.5413055419922,-0.5200000405311584,0.0,1
1778788405.39995813,78585220,0,6,417223400,2418,10,1.21,-35.363262,149.1652373,598.91,0.006000000052154064,218.7802276611328,-0.3240000009536743,0.0,1
1778788405.59987807,78785140,0,6,417223600,2418,10,1.21,-35.363262,149.1652373,598.96,0.007000000216066837,230.74575805664062,-0.14100000262260437,0.0,1
1778788405.79979801,78985060,0,6,417223800,2418,10,1.21,-35.363262,149.1652373,598.98,0.007000000216066837,242.74588012695312,-0.012000000104308128,0.0,1
1778788405.99971795,79184980,0,6,417224000,2418,10,1.21,-35.363262,149.1652373,598.97,0.00800000037997961,254.315673828125,0.04100000113248825,0.0,1
1778788406.19963813,79384900,0,6,417224200,2418,10,1.21,-35.363262,149.1652373,598.96,0.009000000543892384,266.97222900390625,0.04700000211596489,0.0,1
1778788406.39955807,79584820,0,6,417224400,2418,10,1.21,-35.363262,149.1652373,598.95,0.010000000707805157,279.1744384765625,0.030000001192092896,0.0,1
1778788406.59947801,79784740,0,6,417224600,2418,10,1.21,-35.363262,149.1652373,598.95,0.012000000104308128,288.4896240234375,0.006000000052154064,0.0,1
1778788406.79939795,79984660,0,6,417224800,2418,10,1.21,-35.363262,149.1652373,598.95,0.014000000432133675,294.4962158203125,-0.01600000075995922,0.0,1
1778788406.99931812,80184580,0,6,417225000,2418,10,1.21,-35.363262,149.1652372,598.95,0.01600000075995922,298.4165954589844,-0.032999999821186066,0.0,1
1778788407.19923806,80384500,0,6,417225200,2418,10,1.21,-35.363262,149.1652372,598.96,0.018000001087784767,301.5173645019531,-0.0430000014603138,0.0,1
1778788407.39999104,80585253,0,6,417225400,2418,10,1.21,-35.363262,149.1652371,598.97,0.020000001415610313,303.80926513671875,-0.04700000211596489,0.0,1
1778788407.59991097,80785173,0,6,417225600,2418,10,1.21,-35.363262,149.165237,598.98,0.020000001415610313,305.1031188964844,-0.04700000211596489,0.0,1
1778788407.79983115,80985093,0,6,417225800,2418,10,1.21,-35.363262,149.165237,598.99,0.020000001415610313,306.39678955078125,-0.04400000348687172,0.0,1
1778788407.99975109,81185013,0,6,417226000,2418,10,1.21,-35.3632619,149.165237,599.0,0.01900000125169754,309.1431884765625,-0.03700000047683716,0.0,1
1778788408.19967103,81384933,0,6,417226200,2418,10,1.21,-35.3632619,149.165237,599.0,0.017000000923871994,313.8943786621094,-0.03100000135600567,0.0,1
1778788408.39959097,81584853,0,6,417226400,2418,10,1.21,-35.3632619,149.165237,599.01,0.01600000075995922,319.854736328125,-0.026000000536441803,0.0,1
1778788408.59951115,81784773,0,6,417226600,2418,10,1.21,-35.3632619,149.165237,599.02,0.014000000432133675,325.54705810546875,-0.023000001907348633,0.0,1
1778788408.79943109,81984693,0,6,417226800,2418,10,1.21,-35.3632619,149.165237,599.02,0.012000000104308128,330.1866760253906,-0.021000001579523087,0.0,1
1778788408.99935102,82184613,0,6,417227000,2418,10,1.21,-35.3632618,149.1652369,599.03,0.010000000707805157,333.75738525390625,-0.020000001415610313,0.0,1
1778788409.19927096,82384533,0,6,417227200,2418,10,1.21,-35.3632617,149.1652369,599.03,0.009000000543892384,336.1603088378906,-0.01900000125169754,0.0,1
1778788409.40002394,82585286,0,6,417227400,2418,10,1.21,-35.3632617,149.1652369,599.03,0.007000000216066837,337.6769714355469,-0.017000000923871994,0.0,1
1778788409.59994411,82785206,0,6,417227600,2418,10,1.21,-35.3632617,149.1652369,599.04,0.006000000052154064,338.45172119140625,-0.015000000596046448,0.0,1
1778788409.79986405,82985126,0,6,417227800,2418,10,1.21,-35.3632617,149.1652369,599.04,0.004000000189989805,338.6517028808594,-0.014000000432133675,0.0,1
1778788409.99978399,83185046,0,6,417228000,2418,10,1.21,-35.3632617,149.1652369,599.04,0.0020000000949949026,337.3789978027344,-0.013000000268220901,0.0,1
1778788410.19970393,83384966,0,6,417228200,2418,10,1.21,-35.3632617,149.1652369,599.05,0.0,177.6730499267578,-0.013000000268220901,0.0,1
1778788410.39962411,83584886,0,6,417228400,2418,10,1.21,-35.3632617,149.1652369,599.05,0.003000000026077032,166.3405303955078,-0.013000000268220901,0.0,1
1778788410.59954405,83784806,0,6,417228600,2418,10,1.21,-35.3632617,149.1652369,599.05,0.005000000353902578,162.5499725341797,-0.013000000268220901,0.0,1
1778788410.79946399,83984726,0,6,417228800,2418,10,1.21,-35.3632617,149.1652369,599.05,0.006000000052154064,158.8740234375,-0.012000000104308128,0.0,1
1778788410.99938393,84184646,0,6,417229000,2418,10,1.21,-35.3632617,149.1652369,599.06,0.007000000216066837,155.02835083007812,-0.01100000087171793,0.0,1
1778788411.19930410,84384566,0,6,417229200,2418,10,1.21,-35.3632617,149.1652369,599.06,0.007000000216066837,150.29071044921875,-0.010000000707805157,0.0,1
1778788411.39922404,84584486,0,6,417229400,2418,10,1.21,-35.3632617,149.1652369,599.06,0.007000000216066837,146.59458923339844,-0.009000000543892384,0.0,1
1778788411.59997702,84785239,0,6,417229600,2418,10,1.21,-35.3632617,149.1652369,599.06,0.00800000037997961,145.01712036132812,-0.009000000543892384,0.0,1
1778788411.79989696,84985159,0,6,417229800,2418,10,1.21,-35.3632617,149.1652369,599.06,0.00800000037997961,143.9928436279297,-0.009000000543892384,0.0,1
1778788411.99981713,85185079,0,6,417230000,2418,10,1.21,-35.3632617,149.1652369,599.07,0.00800000037997961,142.40103149414062,-0.010000000707805157,0.0,1
1778788412.19973707,85384999,0,6,417230200,2418,10,1.21,-35.3632617,149.1652369,599.07,0.00800000037997961,139.5904541015625,-0.009000000543892384,0.0,1
1778788412.39965701,85584919,0,6,417230400,2418,10,1.21,-35.3632617,149.1652369,599.07,0.00800000037997961,136.6044921875,-0.00800000037997961,0.0,1
1778788412.59957695,85784839,0,6,417230600,2418,10,1.21,-35.3632617,149.1652369,599.07,0.00800000037997961,135.68994140625,-0.007000000216066837,0.0,1
1778788412.79949713,85984759,0,6,417230800,2418,10,1.21,-35.3632617,149.1652369,599.07,0.009000000543892384,136.56097412109375,-0.007000000216066837,0.0,1
1778788412.99941707,86184679,0,6,417231000,2418,10,1.21,-35.3632618,149.1652369,599.08,0.010000000707805157,137.08163452148438,-0.007000000216066837,0.0,1
1778788413.19933701,86384599,0,6,417231200,2418,10,1.21,-35.3632619,149.165237,599.08,0.01100000087171793,136.7366943359375,-0.007000000216066837,0.0,1
1778788413.39925694,86584519,0,6,417231400,2418,10,1.21,-35.3632619,149.165237,599.08,0.012000000104308128,135.9053192138672,-0.007000000216066837,0.0,1
1778788413.60000992,86785272,0,6,417231600,2418,10,1.21,-35.3632619,149.165237,599.08,0.012000000104308128,135.07138061523438,-0.006000000052154064,0.0,1
1778788413.79993010,86985192,0,6,417231800,2418,10,1.21,-35.3632619,149.165237,599.08,0.01100000087171793,133.49452209472656,-0.006000000052154064,0.0,1
1778788413.99985003,87185112,0,6,417232000,2418,10,1.21,-35.3632619,149.165237,599.08,0.010000000707805157,128.60745239257812,-0.005000000353902578,0.0,1
1778788414.19976997,87385032,0,6,417232200,2418,10,1.21,-35.3632619,149.165237,599.08,0.00800000037997961,119.46841430664062,-0.005000000353902578,0.0,1
1778788414.39969015,87584952,0,6,417232400,2418,10,1.21,-35.3632619,149.165237,599.08,0.007000000216066837,107.57767486572266,-0.004000000189989805,0.0,1
1778788414.59961009,87784872,0,6,417232600,2418,10,1.21,-35.3632619,149.165237,599.09,0.005000000353902578,92.61886596679688,-0.004000000189989805,0.0,1
1778788414.79953003,87984792,0,6,417232800,2418,10,1.21,-35.3632619,149.165237,599.09,0.005000000353902578,76.98600769042969,-0.004000000189989805,0.0,1
1778788414.99944997,88184712,0,6,417233000,2418,10,1.21,-35.3632619,149.165237,599.09,0.005000000353902578,66.33442687988281,-0.004000000189989805,0.0,1
1778788415.19937015,88384632,0,6,417233200,2418,10,1.21,-35.3632619,149.165237,599.09,0.005000000353902578,62.2582893371582,-0.004000000189989805,0.0,1
1778788415.39929008,88584552,0,6,417233400,2418,10,1.21,-35.3632619,149.165237,599.09,0.006000000052154064,62.40546798706055,-0.003000000026077032,0.0,1
1778788415.59921002,88784472,0,6,417233600,2418,10,1.21,-35.3632619,149.165237,599.09,0.006000000052154064,63.530338287353516,-0.003000000026077032,0.0,1
1778788415.79996300,88985225,0,6,417233800,2418,10,1.21,-35.3632619,149.1652371,599.09,0.006000000052154064,65.34735107421875,-0.0020000000949949026,0.0,1
1778788415.99988294,89185145,0,6,417234000,2418,10,1.21,-35.3632619,149.1652372,599.09,0.007000000216066837,68.76644134521484,-0.0020000000949949026,0.0,1
1778788416.19980311,89385065,0,6,417234200,2418,10,1.21,-35.3632619,149.1652372,599.09,0.007000000216066837,73.54158020019531,-0.0010000000474974513,0.0,1
1778788416.39972305,89584985,0,6,417234400,2418,10,1.21,-35.3632619,149.1652372,599.09,0.007000000216066837,79.1261215209961,-0.0010000000474974513,0.0,1
1778788416.59964299,89784905,0,6,417234600,2418,10,1.21,-35.3632619,149.1652372,599.09,0.005000000353902578,82.37025451660156,-0.0010000000474974513,0.0,1
1778788416.79956293,89984825,0,6,417234800,2418,10,1.21,-35.3632619,149.1652372,599.09,0.004000000189989805,79.32479095458984,-0.0010000000474974513,0.0,1
1778788416.99948311,90184745,0,6,417235000,2418,10,1.21,-35.3632619,149.1652372,599.09,0.0020000000949949026,60.46931838989258,-0.0010000000474974513,0.0,1
1778788417.19940305,90384665,0,6,417235200,2418,10,1.21,-35.3632619,149.1652372,599.09,0.0010000000474974513,11.794739723205566,-0.0010000000474974513,0.0,1
1778788417.39932299,90584585,0,6,417235400,2418,10,1.21,-35.3632619,149.1652372,599.09,0.0010000000474974513,330.79833984375,-0.0010000000474974513,0.0,1
1778788417.59924293,90784505,0,6,417235600,2418,10,1.21,-35.3632619,149.1652372,599.09,0.0020000000949949026,305.92071533203125,-0.0010000000474974513,0.0,1
1778788417.79999614,90985258,0,6,417235800,2418,10,1.21,-35.3632619,149.1652372,599.09,0.0020000000949949026,292.1129455566406,-0.0010000000474974513,0.0,1
1778788417.99991608,91185178,0,6,417236000,2418,10,1.21,-35.3632619,149.1652372,599.09,0.0020000000949949026,288.8609619140625,-0.0010000000474974513,0.0,1
1778788418.19983602,91385098,0,6,417236200,2418,10,1.21,-35.3632619,149.1652372,599.09,0.003000000026077032,288.36090087890625,-0.0010000000474974513,0.0,1
1778788418.39975595,91585018,0,6,417236400,2418,10,1.21,-35.3632619,149.1652372,599.09,0.0020000000949949026,287.7340393066406,-0.0010000000474974513,0.0,1
1778788418.59967613,91784938,0,6,417236600,2418,10,1.21,-35.3632619,149.1652372,599.09,0.0020000000949949026,293.2394714355469,0.0,0.0,1
1778788418.79959607,91984858,0,6,417236800,2418,10,1.21,-35.3632619,149.1652372,599.09,0.0020000000949949026,306.21875,0.0,0.0,1
1778788418.99951601,92184778,0,6,417237000,2418,10,1.21,-35.3632619,149.1652372,599.09,0.0020000000949949026,314.0421447753906,0.0,0.0,1
1778788419.19943595,92384698,0,6,417237200,2418,10,1.21,-35.3632619,149.1652372,599.1,0.0020000000949949026,312.57977294921875,0.0,0.0,1
1778788419.39935613,92584618,0,6,417237400,2418,10,1.21,-35.3632619,149.1652372,599.1,0.0020000000949949026,308.68206787109375,0.0,0.0,1
1778788419.59927607,92784538,0,6,417237600,2418,10,1.21,-35.3632619,149.1652372,599.1,0.0020000000949949026,306.33489990234375,0.0,0.0,1
1778788419.80002904,92985291,0,6,417237800,2418,10,1.21,-35.3632619,149.1652372,599.1,0.0020000000949949026,300.8821716308594,0.0,0.0,1
1778788419.99994898,93185211,0,6,417238000,2418,10,1.21,-35.3632619,149.1652372,599.1,0.0010000000474974513,286.7601623535156,0.0,0.0,1
1778788420.19986892,93385131,0,6,417238200,2418,10,1.21,-35.3632619,149.1652372,599.09,0.0010000000474974513,274.606689453125,0.0010000000474974513,0.0,1
1778788420.39978909,93585051,0,6,417238400,2418,10,1.21,-35.3632619,149.1652372,599.09,0.0010000000474974513,276.2491149902344,0.0010000000474974513,0.0,1
1778788420.59970903,93784971,0,6,417238600,2418,10,1.21,-35.3632619,149.1652372,599.09,0.0020000000949949026,280.286865234375,0.0010000000474974513,0.0,1
1778788420.79962897,93984891,0,6,417238800,2418,10,1.21,-35.3632619,149.1652372,599.09,0.0020000000949949026,284.01129150390625,0.0010000000474974513,0.0,1
1778788420.99954915,94184811,0,6,417239000,2418,10,1.21,-35.3632619,149.1652372,599.09,0.0020000000949949026,288.51983642578125,0.0010000000474974513,0.0,1
1778788421.19946909,94384731,0,6,417239200,2418,10,1.21,-35.3632619,149.1652372,599.09,0.0020000000949949026,294.4432678222656,0.0010000000474974513,0.0,1
1778788421.39938903,94584651,0,6,417239400,2418,10,1.21,-35.3632619,149.1652372,599.09,0.0020000000949949026,302.77581787109375,0.0,0.0,1
1778788421.59930897,94784571,0,6,417239600,2418,10,1.21,-35.3632619,149.1652372,599.09,0.0020000000949949026,311.5277404785156,0.0,0.0,1
1778788421.79922915,94984491,0,6,417239800,2418,10,1.21,-35.3632619,149.1652372,599.09,0.0010000000474974513,318.81317138671875,0.0,0.0,1
1778788421.99998212,95185244,0,6,417240000,2418,10,1.21,-35.3632619,149.1652372,599.09,0.0010000000474974513,321.77880859375,0.0,0.0,1
1778788422.19990206,95385164,0,6,417240200,2418,10,1.21,-35.3632619,149.1652372,599.09,0.0,300.2236022949219,0.0,0.0,1
1778788422.39982200,95585084,0,6,417240400,2418,10,1.21,-35.3632619,149.1652372,599.09,0.0,255.90972900390625,0.0,0.0,1
1778788422.59974194,95785004,0,6,417240600,2418,10,1.21,-35.3632619,149.1652372,599.09,0.0,250.9608154296875,0.0,0.0,1
1778788422.79966211,95984924,0,6,417240800,2418,10,1.21,-35.3632619,149.1652372,599.09,0.0,256.53790283203125,0.0,0.0,1
1778788422.99958205,96184844,0,6,417241000,2418,10,1.21,-35.3632619,149.1652372,599.09,0.0010000000474974513,259.5776062011719,0.0,0.0,1
1778788423.19950199,96384764,0,6,417241200,2418,10,1.21,-35.3632619,149.1652372,599.09,0.0010000000474974513,263.5774230957031,0.0,0.0,1
1778788423.39942193,96584684,0,6,417241400,2418,10,1.21,-35.3632619,149.1652372,599.09,0.0010000000474974513,271.9881286621094,0.0,0.0,1
1778788423.59934211,96784604,0,6,417241600,2418,10,1.21,-35.3632619,149.1652372,599.09,0.0010000000474974513,275.38092041015625,0.0,0.0,1
1778788423.79926205,96984524,0,6,417241800,2418,10,1.21,-35.3632619,149.1652372,599.09,0.0010000000474974513,265.52471923828125,0.0,0.0,1
1778788424.00001502,97185277,0,6,417242000,2418,10,1.21,-35.3632619,149.1652372,599.09,0.0010000000474974513,249.41845703125,0.0,0.0,1
1778788424.19993496,97385197,0,6,417242200,2418,10,1.21,-35.3632619,149.1652372,599.09,0.0010000000474974513,232.25650024414062,0.0010000000474974513,0.0,1
1778788424.39985514,97585117,0,6,417242400,2418,10,1.21,-35.3632619,149.1652372,599.09,0.0010000000474974513,216.8248291015625,0.0010000000474974513,0.0,1
1778788424.59977508,97785037,0,6,417242600,2418,10,1.21,-35.3632619,149.1652372,599.09,0.0010000000474974513,200.3719482421875,0.0010000000474974513,0.0,1
1778788424.79969501,97984957,0,6,417242800,2418,10,1.21,-35.3632619,149.1652372,599.09,0.0010000000474974513,180.85939025878906,0.0010000000474974513,0.0,1
1778788424.99961495,98184877,0,6,417243000,2418,10,1.21,-35.3632619,149.1652372,599.09,0.0010000000474974513,163.98178100585938,0.0010000000474974513,0.0,1
1778788425.19953513,98384797,0,6,417243200,2418,10,1.21,-35.3632619,149.1652372,599.09,0.0010000000474974513,153.1575927734375,0.0010000000474974513,0.0,1
1778788425.39945507,98584717,0,6,417243400,2418,10,1.21,-35.3632619,149.1652372,599.09,0.0010000000474974513,153.47119140625,0.0010000000474974513,0.0,1
1778788425.59937501,98784637,0,6,417243600,2418,10,1.21,-35.3632619,149.1652372,599.09,0.0,163.8203582763672,0.0010000000474974513,0.0,1
1778788425.79929495,98984557,0,6,417243800,2418,10,1.21,-35.3632619,149.1652372,599.09,0.0,171.04550170898438,0.0010000000474974513,0.0,1
1778788425.99921513,99184477,0,6,417244000,2418,10,1.21,-35.3632619,149.1652372,599.09,0.0,170.7945556640625,0.0010000000474974513,0.0,1
1778788426.19996810,99385230,0,6,417244200,2418,10,1.21,-35.3632619,149.1652372,599.09,0.0010000000474974513,173.24314880371094,0.0010000000474974513,0.0,1
1778788426.39988804,99585150,0,6,417244400,2418,10,1.21,-35.3632619,149.1652372,599.09,0.0010000000474974513,174.9320526123047,0.0010000000474974513,0.0,1
1778788426.59980798,99785070,0,6,417244600,2418,10,1.21,-35.3632619,149.1652372,599.09,0.0010000000474974513,175.00376892089844,0.0010000000474974513,0.0,1
1778788426.79972792,99984990,0,6,417244800,2418,10,1.21,-35.3632619,149.1652372,599.09,0.0010000000474974513,174.446533203125,0.0010000000474974513,0.0,1
1778788426.99964809,100184910,0,6,417245000,2418,10,1.21,-35.3632619,149.1652372,599.09,0.0010000000474974513,176.25979614257812,0.0010000000474974513,0.0,1
1778788427.19956803,100384830,0,6,417245200,2418,10,1.21,-35.3632619,149.1652372,599.09,0.0010000000474974513,178.3653106689453,0.0010000000474974513,0.0,1
1778788427.39948797,100584750,0,6,417245400,2418,10,1.21,-35.3632619,149.1652372,599.09,0.0020000000949949026,175.51243591308594,0.0010000000474974513,0.0,1
1778788427.59940815,100784670,0,6,417245600,2418,10,1.21,-35.3632619,149.1652372,599.09,0.0020000000949949026,168.4579620361328,0.0010000000474974513,0.0,1
1778788427.79932809,100984590,0,6,417245800,2418,10,1.21,-35.3632619,149.1652372,599.09,0.0020000000949949026,157.80686950683594,0.0010000000474974513,0.0,1
1778788427.99924803,101184510,0,6,417246000,2418,10,1.21,-35.3632619,149.1652372,599.09,0.0020000000949949026,143.42941284179688,0.0010000000474974513,0.0,1
1778788428.20000100,101385263,0,6,417246200,2418,10,1.21,-35.3632619,149.1652372,599.09,0.0020000000949949026,132.3343505859375,0.0010000000474974513,0.0,1
1778788428.39992094,101585183,0,6,417246400,2418,10,1.21,-35.3632619,149.1652372,599.09,0.0020000000949949026,132.00279235839844,0.0010000000474974513,0.0,1
1778788428.59984112,101785103,0,6,417246600,2418,10,1.21,-35.3632619,149.1652372,599.08,0.0020000000949949026,142.68138122558594,0.0020000000949949026,0.0,1
1778788428.79976106,101985023,0,6,417246800,2418,10,1.21,-35.3632619,149.1652372,599.08,0.0020000000949949026,159.27301025390625,0.0020000000949949026,0.0,1
1778788428.99968100,102184943,0,6,417247000,2418,10,1.21,-35.3632619,149.1652372,599.08,0.0020000000949949026,168.60556030273438,0.0010000000474974513,0.0,1
1778788429.19960093,102384863,0,6,417247200,2418,10,1.21,-35.3632619,149.1652372,599.08,0.0020000000949949026,167.64183044433594,0.0010000000474974513,0.0,1
1778788429.39952111,102584783,0,6,417247400,2418,10,1.21,-35.3632619,149.1652372,599.08,0.0020000000949949026,161.82778930664062,0.0,0.0,1
1778788429.59944105,102784703,0,6,417247600,2418,10,1.21,-35.3632619,149.1652372,599.08,0.0020000000949949026,153.12730407714844,0.0,0.0,1
1778788429.79936099,102984623,0,6,417247800,2418,10,1.21,-35.3632619,149.1652372,599.08,0.0020000000949949026,143.07135009765625,0.0,0.0,1
1778788429.99928093,103184543,0,6,417248000,2418,10,1.21,-35.3632619,149.1652372,599.08,0.0020000000949949026,134.612060546875,0.0,0.0,1
1778788430.20003414,103385296,0,6,417248200,2418,10,1.21,-35.3632619,149.1652372,599.08,0.0020000000949949026,131.62286376953125,0.0,0.0,1
1778788430.39995408,103585216,0,6,417248400,2418,10,1.21,-35.3632619,149.1652372,599.08,0.0020000000949949026,133.8454132080078,0.0,0.0,1
1778788430.59987402,103785136,0,6,417248600,2418,10,1.21,-35.363262,149.1652372,599.08,0.0020000000949949026,139.719482421875,0.0,0.0,1
1778788430.79979396,103985056,0,6,417248800,2418,10,1.21,-35.363262,149.1652372,599.08,0.0020000000949949026,145.671630859375,-0.0010000000474974513,0.0,1
1778788430.99971414,104184976,0,6,417249000,2418,10,1.21,-35.363262,149.1652372,599.08,0.0020000000949949026,141.14906311035156,-0.0010000000474974513,0.0,1
1778788431.19963408,104384896,0,6,417249200,2418,10,1.21,-35.363262,149.1652372,599.08,0.0020000000949949026,125.14030456542969,-0.0010000000474974513,0.0,1
1778788431.39955401,104584816,0,6,417249400,2418,10,1.21,-35.363262,149.1652372,599.08,0.0020000000949949026,103.18319702148438,-0.0010000000474974513,0.0,1
1778788431.59947395,104784736,0,6,417249600,2418,10,1.21,-35.363262,149.1652372,599.08,0.0020000000949949026,75.5875473022461,-0.0010000000474974513,0.0,1
1778788431.79939413,104984656,0,6,417249800,2418,10,1.21,-35.363262,149.1652372,599.09,0.0020000000949949026,43.32455825805664,-0.0010000000474974513,0.0,1
1778788431.99931407,105184576,0,6,417250000,2418,10,1.21,-35.363262,149.1652372,599.09,0.003000000026077032,21.985870361328125,-0.0010000000474974513,0.0,1
1778788432.19923401,105384496,0,6,417250200,2418,10,1.21,-35.363262,149.1652372,599.09,0.004000000189989805,17.174779891967773,0.0,0.0,1
1778788432.39998698,105585249,0,6,417250400,2418,10,1.21,-35.363262,149.1652372,599.09,0.004000000189989805,18.69217872619629,0.0,0.0,1
1778788432.59990692,105785169,0,6,417250600,2418,10,1.21,-35.363262,149.1652372,599.09,0.004000000189989805,18.2413387298584,0.0,0.0,1
1778788432.79982710,105985089,0,6,417250800,2418,10,1.21,-35.363262,149.1652372,599.09,0.004000000189989805,14.11909008026123,0.0,0.0,1
1778788432.99974704,106185009,0,6,417251000,2418,10,1.21,-35.363262,149.1652372,599.09,0.004000000189989805,8.546689987182617,0.0,0.0,1
1778788433.19966698,106384929,0,6,417251200,2418,10,1.21,-35.363262,149.1652372,599.09,0.005000000353902578,4.699309825897217,0.0,0.0,1
1778788433.39958715,106584849,0,6,417251400,2418,10,1.21,-35.363262,149.1652372,599.09,0.005000000353902578,4.16087007522583,0.0,0.0,1
1778788433.59950709,106784769,0,6,417251600,2418,10,1.21,-35.363262,149.1652372,599.09,0.005000000353902578,5.983870029449463,0.0010000000474974513,0.0,1
1778788433.79942703,106984689,0,6,417251800,2418,10,1.21,-35.363262,149.1652372,599.09,0.005000000353902578,7.588279724121094,0.0010000000474974513,0.0,1
1778788433.99934697,107184609,0,6,417252000,2418,10,1.21,-35.363262,149.1652372,599.08,0.006000000052154064,8.718119621276855,0.0010000000474974513,0.0,1
1778788434.19926715,107384529,0,6,417252200,2418,10,1.21,-35.363262,149.1652372,599.08,0.006000000052154064,9.370339393615723,0.0010000000474974513,0.0,1
1778788434.40002012,107585282,0,6,417252400,2418,10,1.21,-35.3632619,149.1652372,599.08,0.006000000052154064,10.014969825744629,0.0010000000474974513,0.0,1
1778788434.59994006,107785202,0,6,417252600,2418,10,1.21,-35.3632619,149.1652372,599.08,0.005000000353902578,12.840889930725098,0.0010000000474974513,0.0,1
1778788434.79986000,107985122,0,6,417252800,2418,10,1.21,-35.3632619,149.1652372,599.08,0.005000000353902578,19.268339157104492,0.0,0.0,1
1778788434.99977994,108185042,0,6,417253000,2418,10,1.21,-35.3632619,149.1652372,599.08,0.004000000189989805,26.639570236206055,0.0,0.0,1
1778788435.19970012,108384962,0,6,417253200,2418,10,1.21,-35.3632619,149.1652372,599.08,0.004000000189989805,32.755027770996094,0.0,0.0,1
1778788435.39962006,108584882,0,6,417253400,2418,10,1.21,-35.3632619,149.1652372,599.08,0.003000000026077032,40.33987808227539,0.0,0.0,1
1778788435.59954000,108784802,0,6,417253600,2418,10,1.21,-35.3632619,149.1652372,599.08,0.0020000000949949026,51.05577850341797,-0.0010000000474974513,0.0,1
1778788435.79945993,108984722,0,6,417253800,2418,10,1.21,-35.3632619,149.1652372,599.08,0.0020000000949949026,65.427978515625,-0.0010000000474974513,0.0,1
1778788435.99938011,109184642,0,6,417254000,2418,10,1.21,-35.3632619,149.1652372,599.08,0.0010000000474974513,82.92757415771484,-0.0010000000474974513,0.0,1
1778788436.19930005,109384562,0,6,417254200,2418,10,1.21,-35.3632619,149.1652372,599.08,0.0,97.52721405029297,-0.0010000000474974513,0.0,1
1778788436.39921999,109584482,0,6,417254400,2418,10,1.21,-35.3632619,149.1652372,599.09,0.0,112.45974731445312,-0.0010000000474974513,0.0,1
1778788436.59997296,109785235,0,6,417254600,2418,10,1.21,-35.3632619,149.1652372,599.09,0.0,158.0481414794922,-0.0010000000474974513,0.0,1
1778788436.79989314,109985155,0,6,417254800,2418,10,1.21,-35.3632619,149.1652372,599.09,0.0,170.06643676757812,-0.0010000000474974513,0.0,1
1778788436.99981308,110185075,0,6,417255000,2418,10,1.21,-35.3632619,149.1652372,599.09,0.0,161.09503173828125,0.0,0.0,1
1778788437.19973302,110384995,0,6,417255200,2418,10,1.21,-35.3632619,149.1652372,599.09,0.0,150.0399932861328,0.0,0.0,1
1778788437.39965296,110584915,0,6,417255400,2418,10,1.21,-35.3632619,149.1652372,599.09,0.0,142.76991271972656,0.0,0.0,1
1778788437.59957314,110784835,0,6,417255600,2418,10,1.21,-35.3632619,149.1652372,599.09,0.0,151.95516967773438,0.0,0.0,1
1778788437.79949307,110984755,0,6,417255800,2418,10,1.21,-35.3632619,149.1652372,599.09,0.0,174.13583374023438,0.0,0.0,1
1778788437.99941301,111184675,0,6,417256000,2418,10,1.21,-35.3632619,149.1652372,599.09,0.0010000000474974513,183.10533142089844,0.0,0.0,1
1778788438.19933295,111384595,0,6,417256200,2418,10,1.21,-35.3632619,149.1652372,599.09,0.0010000000474974513,188.2814178466797,0.0010000000474974513,0.0,1
1778788438.39925313,111584515,0,6,417256400,2418,10,1.21,-35.3632619,149.1652372,599.09,0.0010000000474974513,184.10308837890625,0.0010000000474974513,0.0,1
1778788438.60000610,111785268,0,6,417256600,2418,10,1.21,-35.3632619,149.1652372,599.09,0.0010000000474974513,173.20220947265625,0.0010000000474974513,0.0,1
1778788438.79992604,111985188,0,6,417256800,2418,10,1.21,-35.3632619,149.1652372,599.08,0.0010000000474974513,167.7721405029297,0.0010000000474974513,0.0,1
1778788438.99984598,112185108,0,6,417257000,2418,10,1.21,-35.3632619,149.1652372,599.08,0.0020000000949949026,163.6701202392578,0.0010000000474974513,0.0,1
1778788439.19976592,112385028,0,6,417257200,2418,10,1.21,-35.3632619,149.1652372,599.08,0.0020000000949949026,158.8625030517578,0.0010000000474974513,0.0,1
1778788439.39968610,112584948,0,6,417257400,2418,10,1.21,-35.3632619,149.1652373,599.08,0.0020000000949949026,153.43399047851562,0.0,0.0,1
1778788439.59960604,112784868,0,6,417257600,2418,10,1.21,-35.3632619,149.1652373,599.08,0.0020000000949949026,153.49057006835938,0.0,0.0,1
1778788439.79952598,112984788,0,6,417257800,2418,10,1.21,-35.3632619,149.1652373,599.08,0.0020000000949949026,163.42999267578125,0.0,0.0,1
1778788439.99944615,113184708,0,6,417258000,2418,10,1.21,-35.3632619,149.1652373,599.08,0.0010000000474974513,184.13877868652344,0.0,0.0,1
1778788440.19936609,113384628,0,6,417258200,2418,10,1.21,-35.3632619,149.1652373,599.08,0.0010000000474974513,214.68650817871094,0.0,0.0,1
1778788440.39928603,113584548,0,6,417258400,2418,10,1.21,-35.3632619,149.1652373,599.08,0.0020000000949949026,237.25848388671875,0.0,0.0,1
1778788440.60003901,113785301,0,6,417258600,2418,10,1.21,-35.3632619,149.1652373,599.08,0.0020000000949949026,247.46603393554688,-0.0010000000474974513,0.0,1
1778788440.79995894,113985221,0,6,417258800,2418,10,1.21,-35.3632619,149.1652373,599.08,0.003000000026077032,251.5711669921875,-0.0010000000474974513,0.0,1
1778788440.99987912,114185141,0,6,417259000,2418,10,1.21,-35.3632619,149.1652373,599.08,0.004000000189989805,253.209228515625,-0.0010000000474974513,0.0,1
1778788441.19979906,114385061,0,6,417259200,2418,10,1.21,-35.3632619,149.1652373,599.09,0.006000000052154064,252.12518310546875,-0.0010000000474974513,0.0,1
1778788441.39971900,114584981,0,6,417259400,2418,10,1.21,-35.3632619,149.1652373,599.09,0.006000000052154064,249.16156005859375,-0.0010000000474974513,0.0,1
1778788441.59963894,114784901,0,6,417259600,2418,10,1.21,-35.3632619,149.1652373,599.09,0.006000000052154064,246.28890991210938,-0.0010000000474974513,0.0,1
1778788441.79955912,114984821,0,6,417259800,2418,10,1.21,-35.3632619,149.1652373,599.09,0.006000000052154064,244.37826538085938,0.0,0.0,1
1778788441.99947906,115184741,0,6,417260000,2418,10,1.21,-35.3632619,149.1652373,599.09,0.006000000052154064,243.2901611328125,0.0,0.0,1
1778788442.19939899,115384661,0,6,417260200,2418,10,1.21,-35.3632619,149.1652373,599.09,0.005000000353902578,244.34078979492188,0.0,0.0,1
1778788442.39931893,115584581,0,6,417260400,2418,10,1.21,-35.3632619,149.1652372,599.09,0.005000000353902578,247.901123046875,0.0,0.0,1
1778788442.59923911,115784501,0,6,417260600,2418,10,1.21,-35.3632619,149.1652372,599.09,0.005000000353902578,250.5731201171875,0.0,0.0,1
1778788442.79999208,115985254,0,6,417260800,2418,10,1.21,-35.3632619,149.1652372,599.09,0.005000000353902578,249.59170532226562,0.0010000000474974513,0.0,1
1778788442.99991202,116185174,0,6,417261000,2418,10,1.21,-35.3632619,149.1652372,599.09,0.005000000353902578,245.0887451171875,0.0010000000474974513,0.0,1
1778788443.19983196,116385094,0,6,417261200,2418,10,1.21,-35.3632619,149.1652372,599.08,0.005000000353902578,240.41845703125,0.0010000000474974513,0.0,1
1778788443.39975214,116585014,0,6,417261400,2418,10,1.21,-35.3632619,149.1652372,599.08,0.004000000189989805,236.77618408203125,0.0010000000474974513,0.0,1
1778788443.59967208,116784934,0,6,417261600,2418,10,1.21,-35.3632619,149.1652372,599.08,0.004000000189989805,231.23745727539062,0.0010000000474974513,0.0,1
1778788443.79959202,116984854,0,6,417261800,2418,10,1.21,-35.3632619,149.1652372,599.08,0.003000000026077032,223.96054077148438,0.0010000000474974513,0.0,1
1778788443.99951196,117184774,0,6,417262000,2418,10,1.21,-35.3632619,149.1652372,599.08,0.003000000026077032,214.9494171142578,0.0,0.0,1
1778788444.19943213,117384694,0,6,417262200,2418,10,1.21,-35.3632619,149.1652372,599.08,0.0020000000949949026,203.92376708984375,0.0,0.0,1
1778788444.39935207,117584614,0,6,417262400,2418,10,1.21,-35.3632619,149.1652372,599.08,0.0020000000949949026,196.73382568359375,0.0,0.0,1
1778788444.59927201,117784534,0,6,417262600,2418,10,1.21,-35.3632619,149.1652372,599.08,0.0020000000949949026,201.5851287841797,0.0,0.0,1
1778788444.80002499,117985287,0,6,417262800,2418,10,1.21,-35.3632619,149.1652372,599.08,0.0020000000949949026,216.46290588378906,-0.0010000000474974513,0.0,1
1778788444.99994493,118185207,0,6,417263000,2418,10,1.21,-35.3632619,149.1652372,599.08,0.0020000000949949026,225.218017578125,-0.0010000000474974513,0.0,1
1778788445.19986510,118385127,0,6,417263200,2418,10,1.21,-35.3632619,149.1652372,599.08,0.0020000000949949026,220.05723571777344,-0.0010000000474974513,0.0,1
1778788445.39978504,118585047,0,6,417263400,2418,10,1.21,-35.3632619,149.1652372,599.08,0.0020000000949949026,207.42832946777344,-0.0010000000474974513,0.0,1
1778788445.59970498,118784967,0,6,417263600,2418,10,1.21,-35.3632619,149.1652371,599.09,0.0010000000474974513,192.63597106933594,-0.0010000000474974513,0.0,1
1778788445.79962492,118984887,0,6,417263800,2418,10,1.21,-35.3632619,149.165237,599.09,0.0010000000474974513,184.54183959960938,-0.0010000000474974513,0.0,1
1778788445.99954510,119184807,0,6,417264000,2418,10,1.21,-35.363262,149.165237,599.09,0.0010000000474974513,185.9955291748047,-0.0010000000474974513,0.0,1
1778788446.19946504,119384727,0,6,417264200,2418,10,1.21,-35.363262,149.165237,599.09,0.0020000000949949026,182.16380310058594,0.0,0.0,1
1778788446.39938498,119584647,0,6,417264400,2418,10,1.21,-35.363262,149.165237,599.09,0.0020000000949949026,163.33197021484375,0.0,0.0,1
1778788446.59930515,119784567,0,6,417264600,2418,10,1.21,-35.363262,149.165237,599.09,0.0020000000949949026,129.8195037841797,0.0,0.0,1
1778788446.79922509,119984487,0,6,417264800,2418,10,1.21,-35.363262,149.165237,599.09,0.003000000026077032,101.27703094482422,0.0,0.0,1
1778788446.99997807,120185240,0,6,417265000,2418,10,1.21,-35.363262,149.165237,599.09,0.005000000353902578,84.44903564453125,0.0010000000474974513,0.0,1
1778788447.19989800,120385160,0,6,417265200,2418,10,1.21,-35.363262,149.165237,599.09,0.00800000037997961,76.11296081542969,0.0010000000474974513,0.0,1
1778788447.39981794,120585080,0,6,417265400,2418,10,1.21,-35.363262,149.165237,599.09,0.009000000543892384,71.5267105102539,0.0010000000474974513,0.0,1
1778788447.59973812,120785000,0,6,417265600,2418,10,1.21,-35.363262,149.165237,599.09,0.010000000707805157,67.83309173583984,0.0010000000474974513,0.0,1
1778788447.79965806,120984920,0,6,417265800,2418,10,1.21,-35.363262,149.1652371,599.08,0.010000000707805157,64.98405456542969,0.0010000000474974513,0.0,1
1778788447.99957800,121184840,0,6,417266000,2418,10,1.21,-35.363262,149.1652372,599.08,0.01100000087171793,64.03305053710938,0.0010000000474974513,0.0,1
1778788448.19949794,121384760,0,6,417266200,2418,10,1.21,-35.363262,149.1652372,599.08,0.01100000087171793,63.5323371887207,0.0010000000474974513,0.0,1
1778788448.39941812,121584680,0,6,417266400,2418,10,1.21,-35.363262,149.1652372,599.08,0.01100000087171793,61.83736801147461,0.0010000000474974513,0.0,1
1778788448.59933805,121784600,0,6,417266600,2418,10,1.21,-35.363262,149.1652372,599.08,0.010000000707805157,58.085838317871094,0.0,0.0,1
1778788448.79925799,121984520,0,6,417266800,2418,10,1.21,-35.363262,149.1652372,599.08,0.00800000037997961,49.63356018066406,0.0,0.0,1
1778788449.00001097,122185273,0,6,417267000,2418,10,1.21,-35.363262,149.1652373,599.08,0.006000000052154064,35.098087310791016,0.0,0.0,1
1778788449.19993114,122385193,0,6,417267200,2418,10,1.21,-35.363262,149.1652373,599.08,0.005000000353902578,19.235698699951172,0.0,0.0,1
1778788449.39985108,122585113,0,6,417267400,2418,10,1.21,-35.363262,149.1652373,599.08,0.005000000353902578,7.482649803161621,-0.0010000000474974513,0.0,1
1778788449.59977102,122785033,0,6,417267600,2418,10,1.21,-35.363262,149.1652373,599.08,0.005000000353902578,356.85992431640625,-0.0010000000474974513,0.0,1
1778788449.79969096,122984953,0,6,417267800,2418,10,1.21,-35.3632619,149.1652373,599.08,0.006000000052154064,346.3274841308594,-0.0010000000474974513,0.0,1
1778788449.99961114,123184873,0,6,417268000,2418,10,1.21,-35.3632619,149.1652373,599.08,0.006000000052154064,338.5806884765625,-0.0010000000474974513,0.0,1
1778788450.19953108,123384793,0,6,417268200,2418,10,1.21,-35.3632619,149.1652373,599.08,0.007000000216066837,333.7529296875,-0.0010000000474974513,0.0,1
1778788450.39945102,123584713,0,6,417268400,2418,10,1.21,-35.3632619,149.1652373,599.09,0.006000000052154064,328.7947692871094,-0.0010000000474974513,0.0,1
1778788450.59937096,123784633,0,6,417268600,2418,10,1.21,-35.3632619,149.1652373,599.09,0.006000000052154064,320.9779052734375,-0.0010000000474974513,0.0,1
1778788450.79929113,123984553,0,6,417268800,2418,10,1.21,-35.3632619,149.1652373,599.09,0.005000000353902578,310.99847412109375,0.0,0.0,1
1778788450.99921107,124184473,0,6,417269000,2418,10,1.21,-35.3632619,149.1652373,599.09,0.005000000353902578,297.7771301269531,0.0,0.0,1
1778788451.19996405,124385226,0,6,417269200,2418,10,1.21,-35.3632619,149.1652373,599.09,0.005000000353902578,282.6011657714844,0.0,0.0,1
1778788451.39988399,124585146,0,6,417269400,2418,10,1.21,-35.3632619,149.1652373,599.09,0.005000000353902578,272.9697265625,0.0,0.0,1
1778788451.59980392,124785066,0,6,417269600,2418,10,1.21,-35.3632619,149.1652373,599.09,0.005000000353902578,267.5623779296875,0.0010000000474974513,0.0,1
1778788451.79972410,124984986,0,6,417269800,2418,10,1.21,-35.3632619,149.1652373,599.09,0.006000000052154064,263.58160400390625,0.0010000000474974513,0.0,1
1778788451.99964404,125184906,0,6,417270000,2418,10,1.21,-35.3632619,149.1652373,599.09,0.006000000052154064,262.8655090332031,0.0010000000474974513,0.0,1
1778788452.19956398,125384826,0,6,417270200,2418,10,1.21,-35.3632619,149.1652372,599.08,0.006000000052154064,264.2065734863281,0.0010000000474974513,0.0,1
1778788452.39948392,125584746,0,6,417270400,2418,10,1.21,-35.3632619,149.1652372,599.08,0.006000000052154064,265.09820556640625,0.0010000000474974513,0.0,1
1778788452.59940410,125784666,0,6,417270600,2418,10,1.21,-35.3632619,149.1652372,599.08,0.006000000052154064,265.6856384277344,0.0010000000474974513,0.0,1
1778788452.79932404,125984586,0,6,417270800,2418,10,1.21,-35.3632619,149.1652372,599.08,0.005000000353902578,266.5223083496094,0.0010000000474974513,0.0,1
1778788452.99924397,126184506,0,6,417271000,2418,10,1.21,-35.3632619,149.1652372,599.08,0.004000000189989805,267.00555419921875,0.0,0.0,1
1778788453.19999695,126385259,0,6,417271200,2418,10,1.21,-35.3632619,149.1652372,599.08,0.004000000189989805,265.6494140625,0.0,0.0,1
1778788453.39991713,126585179,0,6,417271400,2418,10,1.21,-35.3632619,149.1652372,599.08,0.003000000026077032,262.8592529296875,0.0,0.0,1
1778788453.59983706,126785099,0,6,417271600,2418,10,1.21,-35.3632619,149.1652372,599.08,0.0020000000949949026,259.6993713378906,0.0,0.0,1
1778788453.79975700,126985019,0,6,417271800,2418,10,1.21,-35.3632619,149.1652372,599.08,0.0020000000949949026,253.3047332763672,0.0,0.0,1
1778788453.99967694,127184939,0,6,417272000,2418,10,1.21,-35.3632619,149.1652372,599.08,0.0020000000949949026,240.57659912109375,-0.0010000000474974513,0.0,1
1778788454.19959712,127384859,0,6,417272200,2418,10,1.21,-35.3632619,149.1652372,599.08,0.0020000000949949026,229.86585998535156,-0.0010000000474974513,0.0,1
1778788454.39951706,127584779,0,6,417272400,2418,10,1.21,-35.3632619,149.1652372,599.08,0.0010000000474974513,228.688720703125,-0.0010000000474974513,0.0,1
1778788454.59943700,127784699,0,6,417272600,2418,10,1.21,-35.3632619,149.1652371,599.08,0.0010000000474974513,231.20571899414062,-0.0010000000474974513,0.0,1
1778788454.79935694,127984619,0,6,417272800,2418,10,1.21,-35.3632619,149.165237,599.09,0.0010000000474974513,229.73507690429688,-0.0010000000474974513,0.0,1
1778788454.99927711,128184539,0,6,417273000,2418,10,1.21,-35.3632619,149.165237,599.09,0.0010000000474974513,225.897216796875,-0.0010000000474974513,0.0,1
1778788455.20003009,128385292,0,6,417273200,2418,10,1.21,-35.3632619,149.165237,599.09,0.0020000000949949026,218.99378967285156,0.0,0.0,1
1778788455.39995003,128585212,0,6,417273400,2418,10,1.21,-35.3632619,149.165237,599.09,0.0020000000949949026,195.04412841796875,0.0,0.0,1
1778788455.59986997,128785132,0,6,417273600,2418,10,1.21,-35.3632619,149.165237,599.09,0.0020000000949949026,157.07582092285156,0.0,0.0,1
1778788455.79979014,128985052,0,6,417273800,2418,10,1.21,-35.3632619,149.165237,599.09,0.003000000026077032,128.28857421875,0.0,0.0,1
1778788455.99971008,129184972,0,6,417274000,2418,10,1.21,-35.3632619,149.165237,599.09,0.004000000189989805,110.4953842163086,0.0,0.0,1
1778788456.19963002,129384892,0,6,417274200,2418,10,1.21,-35.3632619,149.165237,599.09,0.006000000052154064,99.93460845947266,0.0,0.0,1
1778788456.39954996,129584812,0,6,417274400,2418,10,1.21,-35.3632619,149.165237,599.09,0.00800000037997961,96.2513656616211,0.0010000000474974513,0.0,1
1778788456.59947014,129784732,0,6,417274600,2418,10,1.21,-35.3632619,149.165237,599.09,0.009000000543892384,97.45034790039062,0.0010000000474974513,0.0,1
1778788456.79939008,129984652,0,6,417274800,2418,10,1.21,-35.3632619,149.165237,599.08,0.009000000543892384,100.17694091796875,0.0010000000474974513,0.0,1
1778788456.99931002,130184572,0,6,417275000,2418,10,1.21,-35.3632619,149.1652371,599.08,0.009000000543892384,102.33897399902344,0.0010000000474974513,0.0,1
1778788457.19922996,130384492,0,6,417275200,2418,10,1.21,-35.3632619,149.1652372,599.08,0.009000000543892384,104.3421401977539,0.0010000000474974513,0.0,1
1778788457.39998293,130585245,0,6,417275400,2418,10,1.21,-35.3632619,149.1652372,599.08,0.009000000543892384,105.49333953857422,0.0010000000474974513,0.0,1
1778788457.59990311,130785165,0,6,417275600,2418,10,1.21,-35.3632619,149.1652372,599.08,0.00800000037997961,104.66218566894531,0.0,0.0,1
1778788457.79982305,130985085,0,6,417275800,2418,10,1.21,-35.3632619,149.1652372,599.08,0.007000000216066837,103.99942016601562,0.0,0.0,1
1778788457.99974298,131185005,0,6,417276000,2418,10,1.21,-35.3632619,149.1652372,599.08,0.005000000353902578,106.6400375366211,0.0,0.0,1
1778788458.19966292,131384925,0,6,417276200,2418,10,1.21,-35.3632619,149.1652372,599.08,0.004000000189989805,114.05117797851562,0.0,0.0,1
1778788458.39958310,131584845,0,6,417276400,2418,10,1.21,-35.3632619,149.1652372,599.08,0.0020000000949949026,127.48301696777344,0.0,0.0,1
1778788458.59950304,131784765,0,6,417276600,2418,10,1.21,-35.3632619,149.1652373,599.08,0.0010000000474974513,154.6212615966797,-0.0010000000474974513,0.0,1
1778788458.79942298,131984685,0,6,417276800,2418,10,1.21,-35.3632619,149.1652373,599.08,0.0010000000474974513,202.6582794189453,-0.0010000000474974513,0.0,1
1778788458.99934292,132184605,0,6,417277000,2418,10,1.21,-35.3632619,149.1652373,599.08,0.0020000000949949026,225.9011993408203,-0.0010000000474974513,0.0,1
1778788459.19926310,132384525,0,6,417277200,2418,10,1.21,-35.3632619,149.1652373,599.09,0.003000000026077032,231.72193908691406,-0.0010000000474974513,0.0,1
1778788459.40001607,132585278,0,6,417277400,2418,10,1.21,-35.3632619,149.1652373,599.09,0.003000000026077032,233.90370178222656,-0.0010000000474974513,0.0,1
1778788459.59993601,132785198,0,6,417277600,2418,10,1.21,-35.3632619,149.1652373,599.09,0.004000000189989805,236.50128173828125,-0.0010000000474974513,0.0,1
1778788459.79985595,132985118,0,6,417277800,2418,10,1.21,-35.3632619,149.1652373,599.09,0.004000000189989805,240.29702758789062,0.0,0.0,1
1778788459.99977612,133185038,0,6,417278000,2418,10,1.21,-35.3632619,149.1652373,599.09,0.005000000353902578,245.08480834960938,0.0,0.0,1
1778788460.19969606,133384958,0,6,417278200,2418,10,1.21,-35.3632619,149.1652373,599.09,0.006000000052154064,249.4906005859375,0.0,0.0,1
1778788460.39961600,133584878,0,6,417278400,2418,10,1.21,-35.3632619,149.1652373,599.09,0.006000000052154064,252.5091094970703,0.0,0.0,1
1778788460.59953594,133784798,0,6,417278600,2418,10,1.21,-35.3632619,149.1652373,599.09,0.006000000052154064,254.34588623046875,0.0010000000474974513,0.0,1
1778788460.79945612,133984718,0,6,417278800,2418,10,1.21,-35.3632619,149.1652373,599.09,0.006000000052154064,256.8403625488281,0.0010000000474974513,0.0,1
1778788460.99937606,134184638,0,6,417279000,2418,10,1.21,-35.3632619,149.1652372,599.09,0.005000000353902578,261.0718994140625,0.0010000000474974513,0.0,1
1778788461.19929600,134384558,0,6,417279200,2418,10,1.21,-35.3632619,149.1652372,599.08,0.006000000052154064,263.2103271484375,0.0010000000474974513,0.0,1
1778788461.39921594,134584478,0,6,417279400,2418,10,1.21,-35.3632619,149.1652372,599.08,0.006000000052154064,261.250732421875,0.0010000000474974513,0.0,1
1778788461.59996915,134785231,0,6,417279600,2418,10,1.21,-35.3632619,149.1652372,599.08,0.006000000052154064,257.0464782714844,0.0,0.0,1
1778788461.79988909,134985151,0,6,417279800,2418,10,1.21,-35.3632619,149.1652372,599.08,0.005000000353902578,251.46971130371094,0.0,0.0,1
1778788461.99980903,135185071,0,6,417280000,2418,10,1.21,-35.3632619,149.1652372,599.08,0.004000000189989805,243.60794067382812,0.0,0.0,1
1778788462.19972897,135384991,0,6,417280200,2418,10,1.21,-35.3632619,149.1652372,599.08,0.004000000189989805,235.11276245117188,0.0,0.0,1
1778788462.39964914,135584911,0,6,417280400,2418,10,1.21,-35.3632619,149.1652372,599.08,0.003000000026077032,231.73294067382812,0.0,0.0,1
1778788462.59956908,135784831,0,6,417280600,2418,10,1.21,-35.3632619,149.1652372,599.08,0.0020000000949949026,233.75125122070312,0.0,0.0,1
1778788462.79948902,135984751,0,6,417280800,2418,10,1.21,-35.3632619,149.1652372,599.08,0.0020000000949949026,238.94285583496094,-0.0010000000474974513,0.0,1
1778788462.99940896,136184671,0,6,417281000,2418,10,1.21,-35.3632619,149.1652372,599.08,0.0020000000949949026,245.85104370117188,-0.0010000000474974513,0.0,1
1778788463.19932914,136384591,0,6,417281200,2418,10,1.21,-35.3632619,149.1652371,599.08,0.0010000000474974513,251.7181396484375,-0.0010000000474974513,0.0,1
1778788463.39924908,136584511,0,6,417281400,2418,10,1.21,-35.3632619,149.165237,599.09,0.0020000000949949026,257.73712158203125,-0.0010000000474974513,0.0,1
1778788463.60000205,136785264,0,6,417281600,2418,10,1.21,-35.3632619,149.165237,599.09,0.0020000000949949026,258.0061950683594,-0.0010000000474974513,0.0,1
1778788463.79992199,136985184,0,6,417281800,2418,10,1.21,-35.3632619,149.165237,599.09,0.0010000000474974513,245.16531372070312,0.0,0.0,1
1778788463.99984193,137185104,0,6,417282000,2418,10,1.21,-35.3632619,149.165237,599.09,0.0010000000474974513,209.65145874023438,0.0,0.0,1
1778788464.19976211,137385024,0,6,417282200,2418,10,1.21,-35.3632619,149.165237,599.09,0.0010000000474974513,154.18002319335938,0.0,0.0,1
1778788464.39968204,137584944,0,6,417282400,2418,10,1.21,-35.3632619,149.165237,599.09,0.003000000026077032,128.94223022460938,0.0,0.0,1
1778788464.59960198,137784864,0,6,417282600,2418,10,1.21,-35.3632619,149.165237,599.09,0.004000000189989805,116.78548431396484,0.0,0.0,1
1778788464.79952192,137984784,0,6,417282800,2418,10,1.21,-35.363262,149.165237,599.09,0.006000000052154064,107.31837463378906,0.0010000000474974513,0.0,1
1778788464.99944210,138184704,0,6,417283000,2418,10,1.21,-35.363262,149.165237,599.09,0.007000000216066837,100.13008880615234,0.0010000000474974513,0.0,1
1778788465.19936204,138384624,0,6,417283200,2418,10,1.21,-35.363262,149.165237,599.09,0.00800000037997961,95.1102066040039,0.0010000000474974513,0.0,1
1778788465.39928198,138584544,0,6,417283400,2418,10,1.21,-35.363262,149.165237,599.08,0.00800000037997961,89.9495849609375,0.0010000000474974513,0.0,1
1778788465.60003495,138785297,0,6,417283600,2418,10,1.21,-35.363262,149.165237,599.08,0.00800000037997961,83.68904113769531,0.0010000000474974513,0.0,1
1778788465.79995513,138985217,0,6,417283800,2418,10,1.21,-35.363262,149.1652371,599.08,0.00800000037997961,77.49298095703125,0.0010000000474974513,0.0,1
1778788465.99987507,139185137,0,6,417284000,2418,10,1.21,-35.363262,149.1652372,599.08,0.00800000037997961,72.85063934326172,0.0010000000474974513,0.0,1
1778788466.19979501,139385057,0,6,417284200,2418,10,1.21,-35.363262,149.1652372,599.08,0.00800000037997961,69.35137176513672,0.0,0.0,1
1778788466.39971495,139584977,0,6,417284400,2418,10,1.21,-35.363262,149.1652372,599.08,0.00800000037997961,64.67576599121094,0.0,0.0,1
1778788466.59963512,139784897,0,6,417284600,2418,10,1.21,-35.363262,149.1652372,599.08,0.00800000037997961,57.086788177490234,0.0,0.0,1
1778788466.79955506,139984817,0,6,417284800,2418,10,1.21,-35.363262,149.1652372,599.08,0.007000000216066837,44.78091812133789,0.0,0.0,1
1778788466.99947500,140184737,0,6,417285000,2418,10,1.21,-35.363262,149.1652372,599.08,0.007000000216066837,28.157939910888672,0.0,0.0,1
1778788467.19939494,140384657,0,6,417285200,2418,10,1.21,-35.363262,149.1652372,599.08,0.007000000216066837,10.709739685058594,-0.0010000000474974513,0.0,1
1778788467.39931512,140584577,0,6,417285400,2418,10,1.21,-35.363262,149.1652372,599.08,0.007000000216066837,357.593505859375,-0.0010000000474974513,0.0,1
1778788467.59923506,140784497,0,6,417285600,2418,10,1.21,-35.363262,149.1652372,599.08,0.007000000216066837,350.5152587890625,-0.0010000000474974513,0.0,1
1778788467.79998803,140985250,0,6,417285800,2418,10,1.21,-35.363262,149.1652372,599.09,0.006000000052154064,345.9787292480469,-0.0010000000474974513,0.0,1
1778788467.99990797,141185170,0,6,417286000,2418,10,1.21,-35.3632619,149.1652372,599.09,0.006000000052154064,342.1494140625,-0.0010000000474974513,0.0,1
1778788468.19982815,141385090,0,6,417286200,2418,10,1.21,-35.3632619,149.1652372,599.09,0.006000000052154064,341.2670593261719,-0.0010000000474974513,0.0,1
1778788468.39974809,141585010,0,6,417286400,2418,10,1.21,-35.3632619,149.1652372,599.09,0.006000000052154064,342.6802673339844,0.0,0.0,1
1778788468.59966803,141784930,0,6,417286600,2418,10,1.21,-35.3632619,149.1652372,599.09,0.006000000052154064,342.8790283203125,0.0,0.0,1
1778788468.79958797,141984850,0,6,417286800,2418,10,1.21,-35.3632619,149.1652372,599.09,0.004000000189989805,341.29046630859375,0.0,0.0,1
1778788468.99950814,142184770,0,6,417287000,2418,10,1.21,-35.3632619,149.1652372,599.09,0.003000000026077032,338.76123046875,0.0,0.0,1
1778788469.19942808,142384690,0,6,417287200,2418,10,1.21,-35.3632619,149.1652372,599.09,0.0020000000949949026,336.76849365234375,0.0,0.0,1
1778788469.39934802,142584610,0,6,417287400,2418,10,1.21,-35.3632619,149.1652372,599.09,0.0010000000474974513,331.68719482421875,0.0010000000474974513,0.0,1
1778788469.59926796,142784530,0,6,417287600,2418,10,1.21,-35.3632619,149.1652372,599.09,0.0010000000474974513,314.102783203125,0.0010000000474974513,0.0,1
1778788469.80002093,142985283,0,6,417287800,2418,10,1.21,-35.3632619,149.1652372,599.09,0.0010000000474974513,295.7242126464844,0.0010000000474974513,0.0,1
1778788469.99994111,143185203,0,6,417288000,2418,10,1.21,-35.3632619,149.1652372,599.08,0.0010000000474974513,280.59716796875,0.0010000000474974513,0.0,1
1778788470.19986105,143385123,0,6,417288200,2418,10,1.21,-35.3632619,149.1652372,599.08,0.0020000000949949026,271.51861572265625,0.0010000000474974513,0.0,1
1778788470.39978099,143585043,0,6,417288400,2418,10,1.21,-35.3632619,149.1652372,599.08,0.0020000000949949026,263.9031677246094,0.0010000000474974513,0.0,1
1778788470.59970093,143784963,0,6,417288600,2418,10,1.21,-35.3632619,149.1652372,599.08,0.003000000026077032,256.21875,0.0,0.0,1
1778788470.79962111,143984883,0,6,417288800,2418,10,1.21,-35.3632619,149.1652372,599.08,0.003000000026077032,253.2673797607422,0.0,0.0,1
1778788470.99954104,144184803,0,6,417289000,2418,10,1.21,-35.3632619,149.1652372,599.08,0.003000000026077032,257.3409118652344,0.0,0.0,1
1778788471.19946098,144384723,0,6,417289200,2418,10,1.21,-35.3632619,149.1652372,599.08,0.0020000000949949026,265.7757873535156,0.0,0.0,1
1778788471.39938092,144584643,0,6,417289400,2418,10,1.21,-35.3632619,149.1652372,599.08,0.0020000000949949026,270.7271728515625,0.0,0.0,1
1778788471.59930110,144784563,0,6,417289600,2418,10,1.21,-35.3632619,149.1652372,599.08,0.0010000000474974513,268.5540771484375,0.0,0.0,1
1778788471.79922104,144984483,0,6,417289800,2418,10,1.21,-35.3632619,149.1652372,599.08,0.0010000000474974513,264.3934020996094,0.0,0.0,1
1778788471.99997401,145185236,0,6,417290000,2418,10,1.21,-35.3632619,149.1652372,599.08,0.0020000000949949026,258.4968566894531,-0.0010000000474974513,0.0,1
1778788472.19989395,145385156,0,6,417290200,2418,10,1.21,-35.3632619,149.1652372,599.08,0.0020000000949949026,253.66419982910156,-0.0010000000474974513,0.0,1
1778788472.39981413,145585076,0,6,417290400,2418,10,1.21,-35.3632619,149.1652372,599.08,0.003000000026077032,251.9835205078125,-0.0010000000474974513,0.0,1
1778788472.59973407,145784996,0,6,417290600,2418,10,1.21,-35.3632619,149.1652372,599.09,0.009000000543892384,299.927001953125,-0.0010000000474974513,0.0,1
1778788472.79965401,145984916,0,6,417290800,2418,10,1.21,-35.3632618,149.1652372,599.09,0.08100000023841858,336.9507141113281,0.0,0.0,1
1778788472.99957395,146184836,0,6,417291000,2418,10,1.21,-35.3632615,149.1652371,599.08,0.3240000009536743,346.4527587890625,0.003000000026077032,0.0,1
1778788473.19949412,146384756,0,6,417291200,2418,10,1.21,-35.3632605,149.1652368,599.08,0.7730000615119934,350.1109313964844,0.005000000353902578,0.0,1
1778788473.39941406,146584676,0,6,417291400,2418,10,1.21,-35.3632587,149.1652365,599.08,1.2780001163482666,351.3929138183594,-0.0010000000474974513,0.0,1
1778788473.59933400,146784596,0,6,417291600,2418,10,1.21,-35.3632561,149.165236,599.08,1.6470000743865967,351.89093017578125,-0.006000000052154064,0.0,1
1778788473.79925394,146984516,0,6,417291800,2418,10,1.21,-35.3632529,149.1652355,599.09,1.843000054359436,352.1826477050781,-0.005000000353902578,0.0,1
1778788474.00000715,147185269,0,6,417292000,2418,10,1.21,-35.3632496,149.1652348,599.09,1.9270000457763672,352.4408874511719,-0.0010000000474974513,0.0,1
1778788474.19992709,147385189,0,6,417292200,2418,10,1.21,-35.3632461,149.1652343,599.09,1.9530000686645508,352.6845397949219,0.0020000000949949026,0.0,1
1778788474.39984703,147585109,0,6,417292400,2418,10,1.21,-35.3632426,149.1652338,599.09,1.9560000896453857,352.8916320800781,0.003000000026077032,0.0,1
1778788474.59976697,147785029,0,6,417292600,2418,10,1.21,-35.3632391,149.1652333,599.08,1.9530000686645508,353.0502624511719,0.004000000189989805,0.0,1
1778788474.79968715,147984949,0,6,417292800,2418,10,1.21,-35.3632357,149.1652327,599.08,1.9510000944137573,353.15264892578125,0.004000000189989805,0.0,1
