timestamp,TimeUS,I,Status,GMS,GWk,NSats,HDop,Lat,Lng,Alt,Spd,GCrs,VZ,Yaw,U
1778785730.00000000,71184848,0,6,414548000,2418,10,1.21,-35.3632621,149.1652374,584.09,0.0,0.0,0.0,0.0,1
1778785730.19991994,71384768,0,6,414548200,2418,10,1.21,-35.3632621,149.1652374,584.09,0.0,0.0,0.0,0.0,1
1778785730.39983988,71584688,0,6,414548400,2418,10,1.21,-35.3632621,149.1652374,584.09,0.0,0.0,0.0,0.0,1
1778785730.59975982,71784608,0,6,414548600,2418,10,1.21,-35.3632621,149.1652374,584.09,0.0,0.0,0.0,0.0,1
1778785730.79967999,71984528,0,6,414548800,2418,10,1.21,-35.3632621,149.1652374,584.09,0.0,0.0,0.0,0.0,1
1778785730.99959993,72184448,0,6,414549000,2418,10,1.21,-35.3632621,149.1652374,584.09,0.0,0.0,0.0,0.0,1
1778785731.19951987,72384368,0,6,414549200,2418,10,1.21,-35.3632621,149.1652374,584.09,0.0,0.0,0.0,0.0,1
1778785731.39943981,72584288,0,6,414549400,2418,10,1.21,-35.3632621,149.1652374,584.09,0.0,0.0,0.0,0.0,1
1778785731.59935999,72784208,0,6,414549600,2418,10,1.21,-35.3632621,149.1652374,584.09,0.0,0.0,0.0,0.0,1
1778785731.79927993,72984128,0,6,414549800,2418,10,1.21,-35.3632621,149.1652374,584.09,0.0,0.0,0.0,0.0,1
1778785731.99919987,73184048,0,6,414550000,2418,10,1.21,-35.3632621,149.1652374,584.09,0.0,0.0,0.0,0.0,1
1778785732.19995284,73384801,0,6,414550200,2418,10,1.21,-35.3632621,149.1652374,584.09,0.0,0.0,0.0,0.0,1
1778785732.39987302,73584721,0,6,414550400,2418,10,1.21,-35.3632621,149.1652374,584.09,0.0,0.0,0.0,0.0,1
1778785732.59979296,73784641,0,6,414550600,2418,10,1.21,-35.3632621,149.1652374,584.09,0.0,0.0,0.0,0.0,1
1778785732.79971290,73984561,0,6,414550800,2418,10,1.21,-35.3632621,149.1652374,584.09,0.0,0.0,0.0,0.0,1
1778785732.99963284,74184481,0,6,414551000,2418,10,1.21,-35.3632621,149.1652374,584.09,0.0,0.0,0.0,0.0,1
1778785733.19955301,74384401,0,6,414551200,2418,10,1.21,-35.3632621,149.1652374,584.09,0.0,0.0,0.0,0.0,1
1778785733.39947295,74584321,0,6,414551400,2418,10,1.21,-35.3632621,149.1652374,584.09,0.0,0.0,0.0,0.0,1
1778785733.59939289,74784241,0,6,414551600,2418,10,1.21,-35.3632621,149.1652374,584.09,0.0,0.0,0.0,0.0,1
1778785733.79931283,74984161,0,6,414551800,2418,10,1.21,-35.3632621,149.1652374,584.09,0.0,0.0,0.0,0.0,1
1778785733.99923301,75184081,0,6,414552000,2418,10,1.21,-35.3632621,149.1652374,584.09,0.0,0.0,0.0,0.0,1
1778785734.19998598,75384834,0,6,414552200,2418,10,1.21,-35.3632621,149.1652374,584.09,0.0,0.0,0.0,0.0,1
1778785734.39990592,75584754,0,6,414552400,2418,10,1.21,-35.3632621,149.1652374,584.09,0.0,0.0,0.0,0.0,1
1778785734.59982586,75784674,0,6,414552600,2418,10,1.21,-35.3632621,149.1652374,584.09,0.0,0.0,0.0,0.0,1
1778785734.79974604,75984594,0,6,414552800,2418,10,1.21,-35.3632621,149.1652374,584.09,0.0,0.0,0.0,0.0,1
1778785734.99966598,76184514,0,6,414553000,2418,10,1.21,-35.3632621,149.1652374,584.09,0.0,0.0,0.0,0.0,1
1778785735.19958591,76384434,0,6,414553200,2418,10,1.21,-35.3632621,149.1652374,584.09,0.0,0.0,0.0,0.0,1
1778785735.39950585,76584354,0,6,414553400,2418,10,1.21,-35.3632621,149.1652374,584.09,0.0,0.0,0.0,0.0,1
1778785735.59942603,76784274,0,6,414553600,2418,10,1.21,-35.3632621,149.1652374,584.09,0.0,0.0,0.0,0.0,1
1778785735.79934597,76984194,0,6,414553800,2418,10,1.21,-35.3632621,149.1652374,584.09,0.0,0.0,0.0,0.0,1
1778785735.99926591,77184114,0,6,414554000,2418,10,1.21,-35.3632621,149.1652374,584.09,0.0,125.45657348632812,0.0,0.0,1
1778785736.19918585,77384034,0,6,414554200,2418,10,1.21,-35.3632621,149.1652374,584.09,0.0,126.34615325927734,0.0,0.0,1
1778785736.39993882,77584787,0,6,414554400,2418,10,1.21,-35.3632621,149.1652374,584.09,0.0,305.6750183105469,0.0,0.0,1
1778785736.59985900,77784707,0,6,414554600,2418,10,1.21,-35.3632621,149.1652374,584.09,0.0,306.6132507324219,0.0,0.0,1
1778785736.79977894,77984627,0,6,414554800,2418,10,1.21,-35.3632621,149.1652374,584.09,0.0,305.3632507324219,-0.05100000277161598,0.0,1
1778785736.99969888,78184547,0,6,414555000,2418,10,1.21,-35.3632621,149.1652374,584.12,0.0,306.7706604003906,-0.15700000524520874,0.0,1
1778785737.19961882,78384467,0,6,414555200,2418,10,1.21,-35.3632621,149.1652374,584.16,0.0,308.5444641113281,-0.2680000066757202,0.0,1
1778785737.39953899,78584387,0,6,414555400,2418,10,1.21,-35.3632621,149.1652374,584.24,0.0010000000474974513,307.89703369140625,-0.6360000371932983,0.0,1
1778785737.59945893,78784307,0,6,414555600,2418,10,1.21,-35.3632621,149.1652374,584.41,0.009000000543892384,307.6275329589844,-1.0920000076293945,0.0,1
1778785737.79937887,78984227,0,6,414555800,2418,10,1.21,-35.3632621,149.1652374,584.65,0.024000000208616257,307.35870361328125,-1.1910001039505005,0.0,1
1778785737.99929881,79184147,0,6,414556000,2418,10,1.21,-35.3632621,149.1652373,584.89,0.03800000250339508,307.14300537109375,-1.2030000686645508,0.0,1
1778785738.19921899,79384067,0,6,414556200,2418,10,1.21,-35.363262,149.1652372,585.14,0.04400000348687172,307.0606689453125,-1.3600000143051147,0.0,1
1778785738.39997196,79584820,0,6,414556400,2418,10,1.21,-35.363262,149.1652372,585.43,0.0430000014603138,307.2388916015625,-1.559000015258789,0.0,1
1778785738.59989190,79784740,0,6,414556600,2418,10,1.21,-35.3632619,149.1652371,585.76,0.036000002175569534,307.7911682128906,-1.7620000839233398,0.0,1
1778785738.79981184,79984660,0,6,414556800,2418,10,1.21,-35.3632619,149.165237,586.14,0.02800000086426735,308.86334228515625,-1.9720001220703125,0.0,1
1778785738.99973202,80184580,0,6,414557000,2418,10,1.21,-35.3632619,149.165237,586.55,0.01900000125169754,311.25457763671875,-2.186000108718872,0.0,1
1778785739.19965196,80384500,0,6,414557200,2418,10,1.21,-35.3632619,149.165237,587.01,0.01100000087171793,316.36602783203125,-2.370000123977661,0.0,1
1778785739.39957190,80584420,0,6,414557400,2418,10,1.21,-35.3632619,149.165237,587.5,0.005000000353902578,327.2916259765625,-2.4810001850128174,0.0,1
1778785739.59949183,80784340,0,6,414557600,2418,10,1.21,-35.3632619,149.165237,588.0,0.0010000000474974513,17.940420150756836,-2.5260000228881836,0.0,1
1778785739.79941201,80984260,0,6,414557800,2418,10,1.21,-35.3632619,149.165237,588.5,0.0020000000949949026,94.9375,-2.5330002307891846,0.0,1
1778785739.99933195,81184180,0,6,414558000,2418,10,1.21,-35.3632619,149.165237,589.01,0.003000000026077032,106.46202087402344,-2.5210001468658447,0.0,1
1778785740.19925189,81384100,0,6,414558200,2418,10,1.21,-35.3632619,149.165237,589.51,0.004000000189989805,109.9779281616211,-2.503000020980835,0.0,1
1778785740.40000486,81584853,0,6,414558400,2418,10,1.21,-35.3632619,149.165237,590.01,0.005000000353902578,112.51649475097656,-2.4860000610351562,0.0,1
1778785740.59992504,81784773,0,6,414558600,2418,10,1.21,-35.3632619,149.165237,590.51,0.006000000052154064,115.66178894042969,-2.4730000495910645,0.0,1
1778785740.79984498,81984693,0,6,414558800,2418,10,1.21,-35.3632619,149.165237,591.0,0.007000000216066837,119.29449462890625,-2.4640002250671387,0.0,1
1778785740.99976492,82184613,0,6,414559000,2418,10,1.21,-35.3632619,149.165237,591.49,0.009000000543892384,122.52972412109375,-2.4600000381469727,0.0,1
1778785741.19968486,82384533,0,6,414559200,2418,10,1.21,-35.3632619,149.165237,591.98,0.01100000087171793,124.10445404052734,-2.4580001831054688,0.0,1
1778785741.39960504,82584453,0,6,414559400,2418,10,1.21,-35.3632619,149.165237,592.48,0.014000000432133675,123.94157409667969,-2.4590001106262207,0.0,1
1778785741.59952497,82784373,0,6,414559600,2418,10,1.21,-35.3632619,149.165237,592.97,0.017000000923871994,123.74788665771484,-2.4600000381469727,0.0,1
1778785741.79944491,82984293,0,6,414559800,2418,10,1.21,-35.3632619,149.165237,593.46,0.020000001415610313,123.75578308105469,-2.4640002250671387,0.0,1
1778785741.99936485,83184213,0,6,414560000,2418,10,1.21,-35.3632619,149.165237,593.95,0.02200000174343586,123.57711791992188,-2.4690001010894775,0.0,1
1778785742.19928503,83384133,0,6,414560200,2418,10,1.21,-35.3632619,149.1652371,594.45,0.023000001907348633,123.5151138305664,-2.4750001430511475,0.0,1
1778785742.39920497,83584053,0,6,414560400,2418,10,1.21,-35.3632619,149.1652372,594.94,0.023000001907348633,124.01947784423828,-2.4820001125335693,0.0,1
1778785742.59995794,83784806,0,6,414560600,2418,10,1.21,-35.3632619,149.1652372,595.44,0.023000001907348633,124.82608032226562,-2.4790000915527344,0.0,1
1778785742.79987788,83984726,0,6,414560800,2418,10,1.21,-35.3632619,149.1652373,595.93,0.02200000174343586,125.8653793334961,-2.4260001182556152,0.0,1
1778785742.99979782,84184646,0,6,414561000,2418,10,1.21,-35.363262,149.1652373,596.41,0.021000001579523087,127.5873031616211,-2.2980000972747803,0.0,1
1778785743.19971800,84384566,0,6,414561200,2418,10,1.21,-35.363262,149.1652373,596.85,0.01900000125169754,130.30722045898438,-2.120000123977661,0.0,1
1778785743.39963794,84584486,0,6,414561400,2418,10,1.21,-35.363262,149.1652374,597.25,0.018000001087784767,134.137939453125,-1.9130001068115234,0.0,1
1778785743.59955788,84784406,0,6,414561600,2418,10,1.21,-35.363262,149.1652374,597.62,0.01600000075995922,138.78375244140625,-1.6950000524520874,0.0,1
1778785743.79947782,84984326,0,6,414561800,2418,10,1.21,-35.3632621,149.1652374,597.93,0.014000000432133675,143.38111877441406,-1.475000023841858,0.0,1
1778785743.99939799,85184246,0,6,414562000,2418,10,1.21,-35.3632621,149.1652374,598.2,0.01100000087171793,147.4179229736328,-1.2590000629425049,0.0,1
1778785744.19931793,85384166,0,6,414562200,2418,10,1.21,-35.3632621,149.1652375,598.43,0.009000000543892384,153.42056274414062,-1.0480000972747803,0.0,1
1778785744.39923787,85584086,0,6,414562400,2418,10,1.21,-35.3632621,149.1652375,598.62,0.007000000216066837,163.75965881347656,-0.843000054359436,0.0,1
1778785744.59999084,85784839,0,6,414562600,2418,10,1.21,-35.3632621,149.1652375,598.77,0.005000000353902578,181.48023986816406,-0.6410000324249268,0.0,1
1778785744.79991102,85984759,0,6,414562800,2418,10,1.21,-35.3632621,149.1652375,598.88,0.003000000026077032,214.1611785888672,-0.44300001859664917,0.0,1
1778785744.99983096,86184679,0,6,414563000,2418,10,1.21,-35.3632621,149.1652375,598.95,0.004000000189989805,252.2689208984375,-0.24700000882148743,0.0,1
1778785745.19975090,86384599,0,6,414563200,2418,10,1.21,-35.3632621,149.1652375,598.98,0.005000000353902578,275.7977294921875,-0.07900000363588333,0.0,1
1778785745.39967084,86584519,0,6,414563400,2418,10,1.21,-35.3632621,149.1652375,598.99,0.007000000216066837,285.330810546875,0.01900000125169754,0.0,1
1778785745.59959102,86784439,0,6,414563600,2418,10,1.21,-35.3632621,149.1652375,598.98,0.010000000707805157,288.8868713378906,0.052000001072883606,0.0,1
1778785745.79951096,86984359,0,6,414563800,2418,10,1.21,-35.3632621,149.1652375,598.96,0.012000000104308128,290.5800476074219,0.04800000041723251,0.0,1
1778785745.99943089,87184279,0,6,414564000,2418,10,1.21,-35.3632621,149.1652375,598.96,0.014000000432133675,291.33624267578125,0.027000000700354576,0.0,1
1778785746.19935083,87384199,0,6,414564200,2418,10,1.21,-35.3632621,149.1652374,598.96,0.01600000075995922,292.3074951171875,0.003000000026077032,0.0,1
1778785746.39927101,87584119,0,6,414564400,2418,10,1.21,-35.3632621,149.1652374,598.96,0.018000001087784767,293.820556640625,-0.017000000923871994,0.0,1
1778785746.59919095,87784039,0,6,414564600,2418,10,1.21,-35.3632621,149.1652373,598.96,0.01900000125169754,295.5204772949219,-0.032999999821186066,0.0,1
1778785746.79994392,87984792,0,6,414564800,2418,10,1.21,-35.3632621,149.1652373,598.97,0.020000001415610313,298.009033203125,-0.04100000113248825,0.0,1
1778785746.99986386,88184712,0,6,414565000,2418,10,1.21,-35.3632621,149.1652373,598.98,0.020000001415610313,301.38446044921875,-0.04400000348687172,0.0,1
1778785747.19978404,88384632,0,6,414565200,2418,10,1.21,-35.3632621,149.1652372,598.99,0.020000001415610313,304.908447265625,-0.0430000014603138,0.0,1
1778785747.39970398,88584552,0,6,414565400,2418,10,1.21,-35.3632621,149.1652372,599.0,0.01900000125169754,308.3168029785156,-0.039000000804662704,0.0,1
1778785747.59962392,88784472,0,6,414565600,2418,10,1.21,-35.3632621,149.1652372,599.0,0.018000001087784767,312.09649658203125,-0.03200000151991844,0.0,1
1778785747.79954386,88984392,0,6,414565800,2418,10,1.21,-35.363262,149.1652371,599.01,0.017000000923871994,315.99462890625,-0.027000000700354576,0.0,1
1778785747.99946404,89184312,0,6,414566000,2418,10,1.21,-35.363262,149.165237,599.02,0.01600000075995922,319.4545593261719,-0.023000001907348633,0.0,1
1778785748.19938397,89384232,0,6,414566200,2418,10,1.21,-35.363262,149.165237,599.02,0.01600000075995922,322.8251953125,-0.021000001579523087,0.0,1
1778785748.39930391,89584152,0,6,414566400,2418,10,1.21,-35.363262,149.165237,599.02,0.014000000432133675,326.78875732421875,-0.020000001415610313,0.0,1
1778785748.59922385,89784072,0,6,414566600,2418,10,1.21,-35.363262,149.165237,599.03,0.013000000268220901,331.6827087402344,-0.01900000125169754,0.0,1
1778785748.79997683,89984825,0,6,414566800,2418,10,1.21,-35.3632619,149.165237,599.03,0.01100000087171793,338.61187744140625,-0.018000001087784767,0.0,1
1778785748.99989700,90184745,0,6,414567000,2418,10,1.21,-35.3632619,149.165237,599.04,0.009000000543892384,349.462646484375,-0.01600000075995922,0.0,1
1778785749.19981694,90384665,0,6,414567200,2418,10,1.21,-35.3632619,149.165237,599.04,0.00800000037997961,2.6351399421691895,-0.014000000432133675,0.0,1
1778785749.39973688,90584585,0,6,414567400,2418,10,1.21,-35.3632619,149.165237,599.04,0.007000000216066837,15.273039817810059,-0.012000000104308128,0.0,1
1778785749.59965682,90784505,0,6,414567600,2418,10,1.21,-35.3632619,149.165237,599.04,0.006000000052154064,27.47146987915039,-0.012000000104308128,0.0,1
1778785749.79957700,90984425,0,6,414567800,2418,10,1.21,-35.3632619,149.165237,599.05,0.006000000052154064,38.372840881347656,-0.012000000104308128,0.0,1
1778785749.99949694,91184345,0,6,414568000,2418,10,1.21,-35.3632619,149.165237,599.05,0.005000000353902578,45.354007720947266,-0.012000000104308128,0.0,1
1778785750.19941688,91384265,0,6,414568200,2418,10,1.21,-35.3632619,149.165237,599.05,0.005000000353902578,50.812686920166016,-0.012000000104308128,0.0,1
1778785750.39933681,91584185,0,6,414568400,2418,10,1.21,-35.3632619,149.165237,599.05,0.005000000353902578,58.93171691894531,-0.01100000087171793,0.0,1
1778785750.59925699,91784105,0,6,414568600,2418,10,1.21,-35.3632619,149.165237,599.06,0.005000000353902578,69.71717071533203,-0.010000000707805157,0.0,1
1778785750.79917693,91984025,0,6,414568800,2418,10,1.21,-35.3632618,149.165237,599.06,0.005000000353902578,81.809814453125,-0.009000000543892384,0.0,1
1778785750.99992990,92184778,0,6,414569000,2418,10,1.21,-35.3632617,149.165237,599.06,0.005000000353902578,92.21595001220703,-0.009000000543892384,0.0,1
1778785751.19984984,92384698,0,6,414569200,2418,10,1.21,-35.3632617,149.165237,599.06,0.006000000052154064,98.67245483398438,-0.009000000543892384,0.0,1
1778785751.39977002,92584618,0,6,414569400,2418,10,1.21,-35.3632617,149.165237,599.07,0.007000000216066837,104.21788024902344,-0.009000000543892384,0.0,1
1778785751.59968996,92784538,0,6,414569600,2418,10,1.21,-35.3632617,149.165237,599.07,0.007000000216066837,112.36148834228516,-0.009000000543892384,0.0,1
1778785751.79960990,92984458,0,6,414569800,2418,10,1.21,-35.3632617,149.165237,599.07,0.00800000037997961,121.9959945678711,-0.00800000037997961,0.0,1
1778785751.99952984,93184378,0,6,414570000,2418,10,1.21,-35.3632617,149.165237,599.07,0.010000000707805157,130.98764038085938,-0.00800000037997961,0.0,1
1778785752.19945002,93384298,0,6,414570200,2418,10,1.21,-35.3632617,149.165237,599.07,0.01100000087171793,137.9967803955078,-0.007000000216066837,0.0,1
1778785752.39936996,93584218,0,6,414570400,2418,10,1.21,-35.3632617,149.165237,599.07,0.013000000268220901,143.02174377441406,-0.006000000052154064,0.0,1
1778785752.59928989,93784138,0,6,414570600,2418,10,1.21,-35.3632617,149.1652371,599.08,0.014000000432133675,146.1348114013672,-0.007000000216066837,0.0,1
1778785752.79920983,93984058,0,6,414570800,2418,10,1.21,-35.3632618,149.1652372,599.08,0.01600000075995922,148.07550048828125,-0.007000000216066837,0.0,1
1778785752.99996305,94184811,0,6,414571000,2418,10,1.21,-35.3632619,149.1652372,599.08,0.017000000923871994,149.88336181640625,-0.007000000216066837,0.0,1
1778785753.19988298,94384731,0,6,414571200,2418,10,1.21,-35.3632619,149.1652372,599.08,0.018000001087784767,151.60861206054688,-0.006000000052154064,0.0,1
1778785753.39980292,94584651,0,6,414571400,2418,10,1.21,-35.3632619,149.1652372,599.08,0.017000000923871994,152.90631103515625,-0.006000000052154064,0.0,1
1778785753.59972286,94784571,0,6,414571600,2418,10,1.21,-35.3632619,149.1652372,599.08,0.014000000432133675,153.6611785888672,-0.005000000353902578,0.0,1
1778785753.79964304,94984491,0,6,414571800,2418,10,1.21,-35.363262,149.1652373,599.08,0.01100000087171793,153.7335205078125,-0.005000000353902578,0.0,1
1778785753.99956298,95184411,0,6,414572000,2418,10,1.21,-35.363262,149.1652373,599.08,0.00800000037997961,153.74310302734375,-0.005000000353902578,0.0,1
1778785754.19948292,95384331,0,6,414572200,2418,10,1.21,-35.363262,149.1652373,599.09,0.006000000052154064,155.92738342285156,-0.005000000353902578,0.0,1
1778785754.39940286,95584251,0,6,414572400,2418,10,1.21,-35.363262,149.1652373,599.09,0.004000000189989805,162.99075317382812,-0.004000000189989805,0.0,1
1778785754.59932303,95784171,0,6,414572600,2418,10,1.21,-35.363262,149.1652373,599.09,0.0020000000949949026,179.65924072265625,-0.004000000189989805,0.0,1
1778785754.79924297,95984091,0,6,414572800,2418,10,1.21,-35.363262,149.1652373,599.09,0.0020000000949949026,218.58010864257812,-0.003000000026077032,0.0,1
1778785754.99999595,96184844,0,6,414573000,2418,10,1.21,-35.363262,149.1652373,599.09,0.0020000000949949026,266.91741943359375,-0.003000000026077032,0.0,1
1778785755.19991589,96384764,0,6,414573200,2418,10,1.21,-35.363262,149.1652373,599.09,0.003000000026077032,294.806640625,-0.003000000026077032,0.0,1
1778785755.39983582,96584684,0,6,414573400,2418,10,1.21,-35.363262,149.1652373,599.09,0.003000000026077032,306.39288330078125,-0.0020000000949949026,0.0,1
1778785755.59975600,96784604,0,6,414573600,2418,10,1.21,-35.363262,149.1652373,599.09,0.003000000026077032,307.3553466796875,-0.0020000000949949026,0.0,1
1778785755.79967594,96984524,0,6,414573800,2418,10,1.21,-35.363262,149.1652373,599.09,0.003000000026077032,301.53167724609375,-0.0010000000474974513,0.0,1
1778785755.99959588,97184444,0,6,414574000,2418,10,1.21,-35.363262,149.1652373,599.09,0.003000000026077032,295.9462585449219,-0.0010000000474974513,0.0,1
1778785756.19951582,97384364,0,6,414574200,2418,10,1.21,-35.363262,149.1652373,599.09,0.0020000000949949026,298.7709045410156,-0.0010000000474974513,0.0,1
1778785756.39943600,97584284,0,6,414574400,2418,10,1.21,-35.363262,149.1652373,599.09,0.0020000000949949026,307.62408447265625,-0.0010000000474974513,0.0,1
1778785756.59935594,97784204,0,6,414574600,2418,10,1.21,-35.363262,149.1652373,599.09,0.0020000000949949026,315.95751953125,-0.0010000000474974513,0.0,1
1778785756.79927588,97984124,0,6,414574800,2418,10,1.21,-35.363262,149.1652373,599.09,0.0020000000949949026,319.669189453125,-0.0010000000474974513,0.0,1
1778785756.99919581,98184044,0,6,414575000,2418,10,1.21,-35.363262,149.1652373,599.09,0.0020000000949949026,316.8712463378906,-0.0010000000474974513,0.0,1
1778785757.19994903,98384797,0,6,414575200,2418,10,1.21,-35.363262,149.1652373,599.09,0.0020000000949949026,310.8839416503906,-0.0010000000474974513,0.0,1
1778785757.39986897,98584717,0,6,414575400,2418,10,1.21,-35.363262,149.1652373,599.09,0.003000000026077032,308.7049560546875,-0.0010000000474974513,0.0,1
1778785757.59978890,98784637,0,6,414575600,2418,10,1.21,-35.363262,149.1652373,599.09,0.003000000026077032,310.98907470703125,-0.0010000000474974513,0.0,1
1778785757.79970884,98984557,0,6,414575800,2418,10,1.21,-35.363262,149.1652373,599.09,0.003000000026077032,313.7781066894531,-0.0010000000474974513,0.0,1
1778785757.99962902,99184477,0,6,414576000,2418,10,1.21,-35.363262,149.1652373,599.09,0.003000000026077032,315.48321533203125,0.0,0.0,1
1778785758.19954896,99384397,0,6,414576200,2418,10,1.21,-35.363262,149.1652373,599.09,0.003000000026077032,314.4658508300781,0.0,0.0,1
1778785758.39946890,99584317,0,6,414576400,2418,10,1.21,-35.363262,149.1652373,599.09,0.003000000026077032,308.68017578125,0.0,0.0,1
1778785758.59938884,99784237,0,6,414576600,2418,10,1.21,-35.363262,149.1652373,599.09,0.0020000000949949026,299.0308532714844,0.0,0.0,1
1778785758.79930902,99984157,0,6,414576800,2418,10,1.21,-35.363262,149.1652373,599.09,0.0020000000949949026,293.1719665527344,0.0,0.0,1
1778785758.99922895,100184077,0,6,414577000,2418,10,1.21,-35.363262,149.1652373,599.09,0.0010000000474974513,302.9781799316406,0.0,0.0,1
1778785759.19998193,100384830,0,6,414577200,2418,10,1.21,-35.363262,149.1652373,599.09,0.0010000000474974513,322.0395202636719,0.0,0.0,1
1778785759.39990187,100584750,0,6,414577400,2418,10,1.21,-35.363262,149.1652373,599.1,0.0020000000949949026,329.41241455078125,0.0,0.0,1
1778785759.59982204,100784670,0,6,414577600,2418,10,1.21,-35.363262,149.1652373,599.1,0.0020000000949949026,328.8888854980469,0.0,0.0,1
1778785759.79974198,100984590,0,6,414577800,2418,10,1.21,-35.363262,149.1652373,599.1,0.0020000000949949026,322.1552429199219,0.0,0.0,1
1778785759.99966192,101184510,0,6,414578000,2418,10,1.21,-35.363262,149.1652373,599.1,0.0010000000474974513,315.116943359375,0.0,0.0,1
1778785760.19958186,101384430,0,6,414578200,2418,10,1.21,-35.363262,149.1652372,599.1,0.0010000000474974513,321.9266357421875,0.0,0.0,1
1778785760.39950204,101584350,0,6,414578400,2418,10,1.21,-35.363262,149.1652372,599.09,0.0010000000474974513,334.1630554199219,0.0010000000474974513,0.0,1
1778785760.59942198,101784270,0,6,414578600,2418,10,1.21,-35.363262,149.1652372,599.09,0.0010000000474974513,344.1663513183594,0.0010000000474974513,0.0,1
1778785760.79934192,101984190,0,6,414578800,2418,10,1.21,-35.363262,149.1652372,599.09,0.0010000000474974513,356.66571044921875,0.0010000000474974513,0.0,1
1778785760.99926186,102184110,0,6,414579000,2418,10,1.21,-35.363262,149.1652372,599.09,0.0010000000474974513,15.8718900680542,0.0010000000474974513,0.0,1
1778785761.19918203,102384030,0,6,414579200,2418,10,1.21,-35.363262,149.1652372,599.09,0.0020000000949949026,38.53678894042969,0.0010000000474974513,0.0,1
1778785761.39993501,102584783,0,6,414579400,2418,10,1.21,-35.363262,149.1652372,599.09,0.0020000000949949026,50.74911880493164,0.0010000000474974513,0.0,1
1778785761.59985495,102784703,0,6,414579600,2418,10,1.21,-35.363262,149.1652372,599.09,0.003000000026077032,54.00861740112305,0.0010000000474974513,0.0,1
1778785761.79977489,102984623,0,6,414579800,2418,10,1.21,-35.363262,149.1652372,599.09,0.004000000189989805,56.5912971496582,0.0010000000474974513,0.0,1
1778785761.99969482,103184543,0,6,414580000,2418,10,1.21,-35.363262,149.1652372,599.09,0.005000000353902578,62.42709732055664,0.0,0.0,1
1778785762.19961500,103384463,0,6,414580200,2418,10,1.21,-35.363262,149.1652372,599.09,0.005000000353902578,69.84477996826172,0.0,0.0,1
1778785762.39953494,103584383,0,6,414580400,2418,10,1.21,-35.363262,149.1652372,599.09,0.005000000353902578,76.72074127197266,0.0010000000474974513,0.0,1
1778785762.59945488,103784303,0,6,414580600,2418,10,1.21,-35.363262,149.1652372,599.09,0.005000000353902578,80.32683563232422,0.0010000000474974513,0.0,1
1778785762.79937482,103984223,0,6,414580800,2418,10,1.21,-35.363262,149.1652372,599.09,0.006000000052154064,81.75648498535156,0.0010000000474974513,0.0,1
1778785762.99929500,104184143,0,6,414581000,2418,10,1.21,-35.363262,149.1652372,599.09,0.006000000052154064,83.46701049804688,0.0010000000474974513,0.0,1
1778785763.19921494,104384063,0,6,414581200,2418,10,1.21,-35.363262,149.1652372,599.09,0.006000000052154064,84.74762725830078,0.0010000000474974513,0.0,1
1778785763.39996791,104584816,0,6,414581400,2418,10,1.21,-35.363262,149.1652373,599.09,0.006000000052154064,85.68605041503906,0.0010000000474974513,0.0,1
1778785763.59988785,104784736,0,6,414581600,2418,10,1.21,-35.363262,149.1652373,599.09,0.006000000052154064,87.82679748535156,0.0010000000474974513,0.0,1
1778785763.79980803,104984656,0,6,414581800,2418,10,1.21,-35.363262,149.1652373,599.09,0.006000000052154064,90.69056701660156,0.0010000000474974513,0.0,1
1778785763.99972796,105184576,0,6,414582000,2418,10,1.21,-35.363262,149.1652373,599.09,0.006000000052154064,91.04314422607422,0.0010000000474974513,0.0,1
1778785764.19964790,105384496,0,6,414582200,2418,10,1.21,-35.363262,149.1652373,599.09,0.005000000353902578,86.7314682006836,0.0010000000474974513,0.0,1
1778785764.39956784,105584416,0,6,414582400,2418,10,1.21,-35.363262,149.1652373,599.09,0.004000000189989805,79.11421966552734,0.0010000000474974513,0.0,1
1778785764.59948802,105784336,0,6,414582600,2418,10,1.21,-35.363262,149.1652373,599.09,0.003000000026077032,74.00096130371094,0.0010000000474974513,0.0,1
1778785764.79940796,105984256,0,6,414582800,2418,10,1.21,-35.363262,149.1652373,599.09,0.0020000000949949026,75.97152709960938,0.0010000000474974513,0.0,1
1778785764.99932790,106184176,0,6,414583000,2418,10,1.21,-35.363262,149.1652374,599.09,0.0020000000949949026,83.74996948242188,0.0010000000474974513,0.0,1
1778785765.19924784,106384096,0,6,414583200,2418,10,1.21,-35.363262,149.1652374,599.09,0.0010000000474974513,90.84268951416016,0.0010000000474974513,0.0,1
1778785765.40000105,106584849,0,6,414583400,2418,10,1.21,-35.363262,149.1652374,599.09,0.0010000000474974513,98.9342269897461,0.0010000000474974513,0.0,1
1778785765.59992099,106784769,0,6,414583600,2418,10,1.21,-35.363262,149.1652374,599.09,0.0010000000474974513,109.10318756103516,0.0010000000474974513,0.0,1
1778785765.79984093,106984689,0,6,414583800,2418,10,1.21,-35.363262,149.1652374,599.09,0.0,113.12862396240234,0.0010000000474974513,0.0,1
1778785765.99976087,107184609,0,6,414584000,2418,10,1.21,-35.363262,149.1652374,599.09,0.0,306.54205322265625,0.0010000000474974513,0.0,1
1778785766.19968104,107384529,0,6,414584200,2418,10,1.21,-35.363262,149.1652374,599.09,0.0010000000474974513,295.9569091796875,0.0010000000474974513,0.0,1
1778785766.39960098,107584449,0,6,414584400,2418,10,1.21,-35.363262,149.1652374,599.09,0.0020000000949949026,287.16766357421875,0.0010000000474974513,0.0,1
1778785766.59952092,107784369,0,6,414584600,2418,10,1.21,-35.363262,149.1652374,599.09,0.0020000000949949026,281.82916259765625,0.0010000000474974513,0.0,1
1778785766.79944086,107984289,0,6,414584800,2418,10,1.21,-35.363262,149.1652374,599.09,0.0020000000949949026,278.7723388671875,0.0010000000474974513,0.0,1
1778785766.99936104,108184209,0,6,414585000,2418,10,1.21,-35.363262,149.1652374,599.09,0.0020000000949949026,277.28155517578125,0.0010000000474974513,0.0,1
1778785767.19928098,108384129,0,6,414585200,2418,10,1.21,-35.363262,149.1652374,599.09,0.0020000000949949026,278.8985595703125,0.0010000000474974513,0.0,1
1778785767.39920092,108584049,0,6,414585400,2418,10,1.21,-35.363262,149.1652374,599.09,0.0020000000949949026,279.8416748046875,0.0010000000474974513,0.0,1
1778785767.59995389,108784802,0,6,414585600,2418,10,1.21,-35.363262,149.1652374,599.08,0.003000000026077032,275.5257568359375,0.0010000000474974513,0.0,1
1778785767.79987383,108984722,0,6,414585800,2418,10,1.21,-35.363262,149.1652374,599.08,0.004000000189989805,268.54559326171875,0.0010000000474974513,0.0,1
1778785767.99979401,109184642,0,6,414586000,2418,10,1.21,-35.363262,149.1652374,599.08,0.004000000189989805,263.1424255371094,0.0010000000474974513,0.0,1
1778785768.19971395,109384562,0,6,414586200,2418,10,1.21,-35.363262,149.1652374,599.08,0.004000000189989805,259.6539306640625,0.0010000000474974513,0.0,1
1778785768.39963388,109584482,0,6,414586400,2418,10,1.21,-35.363262,149.1652374,599.08,0.004000000189989805,257.6187744140625,0.0,0.0,1
1778785768.59955382,109784402,0,6,414586600,2418,10,1.21,-35.363262,149.1652374,599.08,0.004000000189989805,258.6285705566406,0.0,0.0,1
1778785768.79947400,109984322,0,6,414586800,2418,10,1.21,-35.363262,149.1652374,599.08,0.003000000026077032,262.96038818359375,0.0,0.0,1
1778785768.99939394,110184242,0,6,414587000,2418,10,1.21,-35.363262,149.1652374,599.08,0.003000000026077032,270.5545349121094,0.0,0.0,1
1778785769.19931388,110384162,0,6,414587200,2418,10,1.21,-35.363262,149.1652374,599.08,0.003000000026077032,278.2739562988281,0.0,0.0,1
1778785769.39923382,110584082,0,6,414587400,2418,10,1.21,-35.363262,149.1652373,599.08,0.003000000026077032,278.2110900878906,-0.0010000000474974513,0.0,1
1778785769.59998703,110784835,0,6,414587600,2418,10,1.21,-35.363262,149.1652373,599.08,0.003000000026077032,272.2336730957031,-0.0010000000474974513,0.0,1
1778785769.79990697,110984755,0,6,414587800,2418,10,1.21,-35.363262,149.1652373,599.08,0.003000000026077032,266.0616149902344,-0.0010000000474974513,0.0,1
1778785769.99982691,111184675,0,6,414588000,2418,10,1.21,-35.363262,149.1652373,599.09,0.003000000026077032,260.78948974609375,-0.0010000000474974513,0.0,1
1778785770.19974685,111384595,0,6,414588200,2418,10,1.21,-35.363262,149.1652373,599.09,0.0020000000949949026,253.972412109375,-0.0010000000474974513,0.0,1
1778785770.39966702,111584515,0,6,414588400,2418,10,1.21,-35.363262,149.1652373,599.09,0.0020000000949949026,241.5687255859375,-0.0010000000474974513,0.0,1
1778785770.59958696,111784435,0,6,414588600,2418,10,1.21,-35.363262,149.1652373,599.09,0.0010000000474974513,222.2218780517578,0.0,0.0,1
1778785770.79950690,111984355,0,6,414588800,2418,10,1.21,-35.363262,149.1652373,599.09,0.0010000000474974513,182.43568420410156,0.0,0.0,1
1778785770.99942684,112184275,0,6,414589000,2418,10,1.21,-35.363262,149.1652373,599.09,0.0010000000474974513,144.31163024902344,0.0,0.0,1
1778785771.19934702,112384195,0,6,414589200,2418,10,1.21,-35.363262,149.1652373,599.09,0.0010000000474974513,134.4912109375,0.0,0.0,1
1778785771.39926696,112584115,0,6,414589400,2418,10,1.21,-35.363262,149.1652373,599.09,0.0020000000949949026,135.1219024658203,0.0,0.0,1
1778785771.59918690,112784035,0,6,414589600,2418,10,1.21,-35.363262,149.1652373,599.09,0.0020000000949949026,135.84988403320312,0.0010000000474974513,0.0,1
1778785771.79993987,112984788,0,6,414589800,2418,10,1.21,-35.363262,149.1652373,599.09,0.0010000000474974513,132.70750427246094,0.0010000000474974513,0.0,1
1778785771.99986005,113184708,0,6,414590000,2418,10,1.21,-35.363262,149.1652373,599.09,0.0020000000949949026,125.19002532958984,0.0010000000474974513,0.0,1
1778785772.19977999,113384628,0,6,414590200,2418,10,1.21,-35.363262,149.1652373,599.09,0.0020000000949949026,119.6527099609375,0.0010000000474974513,0.0,1
1778785772.39969993,113584548,0,6,414590400,2418,10,1.21,-35.363262,149.1652373,599.08,0.0020000000949949026,121.46061706542969,0.0010000000474974513,0.0,1
1778785772.59961987,113784468,0,6,414590600,2418,10,1.21,-35.363262,149.1652373,599.08,0.0020000000949949026,128.47608947753906,0.0010000000474974513,0.0,1
1778785772.79954004,113984388,0,6,414590800,2418,10,1.21,-35.363262,149.1652373,599.08,0.0010000000474974513,133.06712341308594,0.0010000000474974513,0.0,1
1778785772.99945998,114184308,0,6,414591000,2418,10,1.21,-35.363262,149.1652373,599.08,0.0010000000474974513,128.3435821533203,0.0,0.0,1
1778785773.19937992,114384228,0,6,414591200,2418,10,1.21,-35.363262,149.1652373,599.08,0.0010000000474974513,131.09901428222656,0.0,0.0,1
1778785773.39929986,114584148,0,6,414591400,2418,10,1.21,-35.363262,149.1652373,599.08,0.0010000000474974513,134.3866424560547,0.0,0.0,1
1778785773.59922004,114784068,0,6,414591600,2418,10,1.21,-35.363262,149.1652373,599.08,0.0020000000949949026,126.75125885009766,0.0,0.0,1
1778785773.79997301,114984821,0,6,414591800,2418,10,1.21,-35.363262,149.1652373,599.08,0.0020000000949949026,119.12030029296875,0.0,0.0,1
1778785773.99989295,115184741,0,6,414592000,2418,10,1.21,-35.363262,149.1652373,599.08,0.0020000000949949026,115.56327056884766,0.0,0.0,1
1778785774.19981289,115384661,0,6,414592200,2418,10,1.21,-35.363262,149.1652373,599.08,0.0020000000949949026,116.39561462402344,0.0,0.0,1
1778785774.39973283,115584581,0,6,414592400,2418,10,1.21,-35.363262,149.1652373,599.08,0.003000000026077032,118.00022888183594,-0.0010000000474974513,0.0,1
1778785774.59965301,115784501,0,6,414592600,2418,10,1.21,-35.363262,149.1652373,599.08,0.003000000026077032,117.3193359375,-0.0010000000474974513,0.0,1
1778785774.79957294,115984421,0,6,414592800,2418,10,1.21,-35.363262,149.1652373,599.09,0.003000000026077032,117.31119537353516,-0.0010000000474974513,0.0,1
1778785774.99949288,116184341,0,6,414593000,2418,10,1.21,-35.363262,149.1652373,599.09,0.003000000026077032,119.39598846435547,-0.0010000000474974513,0.0,1
1778785775.19941282,116384261,0,6,414593200,2418,10,1.21,-35.363262,149.1652373,599.09,0.003000000026077032,119.9731674194336,-0.0010000000474974513,0.0,1
1778785775.39933300,116584181,0,6,414593400,2418,10,1.21,-35.363262,149.1652373,599.09,0.0020000000949949026,118.19086456298828,-0.0010000000474974513,0.0,1
1778785775.59925294,116784101,0,6,414593600,2418,10,1.21,-35.363262,149.1652373,599.09,0.0010000000474974513,120.49250793457031,0.0,0.0,1
1778785775.80000591,116984854,0,6,414593800,2418,10,1.21,-35.363262,149.1652373,599.09,0.0010000000474974513,127.24848937988281,0.0,0.0,1
1778785775.99992585,117184774,0,6,414594000,2418,10,1.21,-35.363262,149.1652373,599.09,0.0010000000474974513,126.024658203125,0.0,0.0,1
1778785776.19984603,117384694,0,6,414594200,2418,10,1.21,-35.363262,149.1652373,599.09,0.0020000000949949026,121.46783447265625,0.0,0.0,1
1778785776.39976597,117584614,0,6,414594400,2418,10,1.21,-35.363262,149.1652373,599.09,0.0020000000949949026,120.19889068603516,0.0,0.0,1
1778785776.59968591,117784534,0,6,414594600,2418,10,1.21,-35.363262,149.1652373,599.09,0.003000000026077032,118.9983901977539,0.0010000000474974513,0.0,1
1778785776.79960585,117984454,0,6,414594800,2418,10,1.21,-35.363262,149.1652373,599.09,0.003000000026077032,115.34024047851562,0.0010000000474974513,0.0,1
1778785776.99952602,118184374,0,6,414595000,2418,10,1.21,-35.363262,149.1652373,599.09,0.0020000000949949026,110.959716796875,0.0010000000474974513,0.0,1
1778785777.19944596,118384294,0,6,414595200,2418,10,1.21,-35.363262,149.1652373,599.08,0.0020000000949949026,105.64959716796875,0.0010000000474974513,0.0,1
1778785777.39936590,118584214,0,6,414595400,2418,10,1.21,-35.363262,149.1652374,599.08,0.0020000000949949026,102.70182800292969,0.0010000000474974513,0.0,1
1778785777.59928584,118784134,0,6,414595600,2418,10,1.21,-35.363262,149.1652374,599.08,0.0020000000949949026,104.8720703125,0.0010000000474974513,0.0,1
1778785777.79920602,118984054,0,6,414595800,2418,10,1.21,-35.363262,149.1652374,599.08,0.0020000000949949026,107.1751708984375,0.0010000000474974513,0.0,1
1778785777.99995899,119184807,0,6,414596000,2418,10,1.21,-35.363262,149.1652374,599.08,0.0010000000474974513,108.16152954101562,0.0,0.0,1
1778785778.19987893,119384727,0,6,414596200,2418,10,1.21,-35.363262,149.1652374,599.08,0.0,127.79499053955078,0.0,0.0,1
1778785778.39979887,119584647,0,6,414596400,2418,10,1.21,-35.363262,149.1652374,599.08,0.0,211.81289672851562,0.0,0.0,1
1778785778.59971905,119784567,0,6,414596600,2418,10,1.21,-35.363262,149.1652374,599.08,0.0010000000474974513,237.86874389648438,0.0,0.0,1
1778785778.79963899,119984487,0,6,414596800,2418,10,1.21,-35.363262,149.1652374,599.08,0.0020000000949949026,243.62850952148438,0.0,0.0,1
1778785778.99955893,120184407,0,6,414597000,2418,10,1.21,-35.363262,149.1652374,599.08,0.003000000026077032,243.61264038085938,0.0,0.0,1
1778785779.19947886,120384327,0,6,414597200,2418,10,1.21,-35.363262,149.1652374,599.08,0.003000000026077032,241.07211303710938,0.0,0.0,1
1778785779.39939904,120584247,0,6,414597400,2418,10,1.21,-35.363262,149.1652374,599.08,0.003000000026077032,238.6945343017578,0.0,0.0,1
1778785779.59931898,120784167,0,6,414597600,2418,10,1.21,-35.363262,149.1652374,599.08,0.003000000026077032,238.60089111328125,-0.0010000000474974513,0.0,1
1778785779.79923892,120984087,0,6,414597800,2418,10,1.21,-35.363262,149.1652374,599.08,0.003000000026077032,241.22604370117188,-0.0010000000474974513,0.0,1
1778785779.99999189,121184840,0,6,414598000,2418,10,1.21,-35.363262,149.1652374,599.08,0.004000000189989805,246.4263153076172,-0.0010000000474974513,0.0,1
1778785780.19991183,121384760,0,6,414598200,2418,10,1.21,-35.363262,149.1652374,599.09,0.004000000189989805,250.815185546875,-0.0010000000474974513,0.0,1
1778785780.39983201,121584680,0,6,414598400,2418,10,1.21,-35.363262,149.1652374,599.09,0.005000000353902578,250.76553344726562,-0.0010000000474974513,0.0,1
1778785780.59975195,121784600,0,6,414598600,2418,10,1.21,-35.363262,149.1652374,599.09,0.005000000353902578,243.94277954101562,-0.0010000000474974513,0.0,1
1778785780.79967189,121984520,0,6,414598800,2418,10,1.21,-35.363262,149.1652374,599.09,0.006000000052154064,236.48573303222656,-0.0010000000474974513,0.0,1
1778785780.99959183,122184440,0,6,414599000,2418,10,1.21,-35.363262,149.1652374,599.09,0.007000000216066837,237.43548583984375,0.0,0.0,1
1778785781.19951200,122384360,0,6,414599200,2418,10,1.21,-35.363262,149.1652373,599.09,0.00800000037997961,243.89996337890625,0.0,0.0,1
1778785781.39943194,122584280,0,6,414599400,2418,10,1.21,-35.363262,149.1652373,599.09,0.00800000037997961,251.13922119140625,0.0,0.0,1
1778785781.59935188,122784200,0,6,414599600,2418,10,1.21,-35.363262,149.1652373,599.09,0.009000000543892384,256.39178466796875,0.0,0.0,1
1778785781.79927182,122984120,0,6,414599800,2418,10,1.21,-35.363262,149.1652373,599.09,0.009000000543892384,258.5133972167969,0.0010000000474974513,0.0,1
1778785781.99919200,123184040,0,6,414600000,2418,10,1.21,-35.363262,149.1652373,599.09,0.009000000543892384,258.15826416015625,0.0010000000474974513,0.0,1
1778785782.19994497,123384793,0,6,414600200,2418,10,1.21,-35.3632621,149.1652372,599.09,0.00800000037997961,256.8548583984375,0.0010000000474974513,0.0,1
1778785782.39986491,123584713,0,6,414600400,2418,10,1.21,-35.3632621,149.1652372,599.09,0.006000000052154064,254.12940979003906,0.0010000000474974513,0.0,1
1778785782.59978485,123784633,0,6,414600600,2418,10,1.21,-35.3632621,149.1652372,599.08,0.005000000353902578,248.158935546875,0.0010000000474974513,0.0,1
1778785782.79970503,123984553,0,6,414600800,2418,10,1.21,-35.3632621,149.1652372,599.08,0.004000000189989805,240.64404296875,0.0010000000474974513,0.0,1
1778785782.99962497,124184473,0,6,414601000,2418,10,1.21,-35.3632621,149.1652372,599.08,0.0020000000949949026,230.94021606445312,0.0010000000474974513,0.0,1
1778785783.19954491,124384393,0,6,414601200,2418,10,1.21,-35.3632621,149.1652372,599.08,0.0,171.3109130859375,0.0010000000474974513,0.0,1
1778785783.39946485,124584313,0,6,414601400,2418,10,1.21,-35.3632621,149.1652372,599.08,0.0020000000949949026,87.2462387084961,0.0,0.0,1
1778785783.59938502,124784233,0,6,414601600,2418,10,1.21,-35.3632621,149.1652372,599.08,0.003000000026077032,75.69245910644531,0.0,0.0,1
1778785783.79930496,124984153,0,6,414601800,2418,10,1.21,-35.3632621,149.1652372,599.08,0.005000000353902578,71.74224853515625,0.0,0.0,1
1778785783.99922490,125184073,0,6,414602000,2418,10,1.21,-35.3632621,149.1652372,599.08,0.006000000052154064,70.49330139160156,0.0,0.0,1
1778785784.19997787,125384826,0,6,414602200,2418,10,1.21,-35.3632621,149.1652372,599.08,0.007000000216066837,69.26011657714844,0.0,0.0,1
1778785784.39989781,125584746,0,6,414602400,2418,10,1.21,-35.3632621,149.1652372,599.08,0.009000000543892384,68.70457458496094,-0.0010000000474974513,0.0,1
1778785784.59981799,125784666,0,6,414602600,2418,10,1.21,-35.3632621,149.1652372,599.08,0.01100000087171793,70.47036743164062,-0.0010000000474974513,0.0,1
1778785784.79973793,125984586,0,6,414602800,2418,10,1.21,-35.3632621,149.1652372,599.08,0.012000000104308128,73.09027099609375,-0.0010000000474974513,0.0,1
1778785784.99965787,126184506,0,6,414603000,2418,10,1.21,-35.3632621,149.1652372,599.08,0.014000000432133675,74.89682006835938,-0.0010000000474974513,0.0,1
1778785785.19957805,126384426,0,6,414603200,2418,10,1.21,-35.3632621,149.1652373,599.09,0.015000000596046448,75.91799926757812,-0.0010000000474974513,0.0,1
1778785785.39949799,126584346,0,6,414603400,2418,10,1.21,-35.3632621,149.1652373,599.09,0.017000000923871994,76.35453033447266,-0.0010000000474974513,0.0,1
1778785785.59941792,126784266,0,6,414603600,2418,10,1.21,-35.3632621,149.1652373,599.09,0.01900000125169754,76.41600799560547,-0.0010000000474974513,0.0,1
1778785785.79933786,126984186,0,6,414603800,2418,10,1.21,-35.3632621,149.1652374,599.09,0.020000001415610313,76.01631164550781,-0.0010000000474974513,0.0,1
1778785785.99925804,127184106,0,6,414604000,2418,10,1.21,-35.3632621,149.1652374,599.09,0.020000001415610313,75.1477279663086,0.0,0.0,1
1778785786.19917798,127384026,0,6,414604200,2418,10,1.21,-35.3632621,149.1652375,599.09,0.020000001415610313,73.89928436279297,0.0,0.0,1
1778785786.39993095,127584779,0,6,414604400,2418,10,1.21,-35.3632621,149.1652375,599.09,0.01900000125169754,72.03578186035156,0.0,0.0,1
1778785786.59985089,127784699,0,6,414604600,2418,10,1.21,-35.3632621,149.1652375,599.09,0.018000001087784767,69.499267578125,0.0,0.0,1
1778785786.79977083,127984619,0,6,414604800,2418,10,1.21,-35.363262,149.1652375,599.09,0.017000000923871994,65.95323944091797,0.0010000000474974513,0.0,1
1778785786.99969101,128184539,0,6,414605000,2418,10,1.21,-35.363262,149.1652375,599.09,0.015000000596046448,61.805728912353516,0.0010000000474974513,0.0,1
1778785787.19961095,128384459,0,6,414605200,2418,10,1.21,-35.363262,149.1652376,599.09,0.015000000596046448,58.97517776489258,0.0010000000474974513,0.0,1
1778785787.39953089,128584379,0,6,414605400,2418,10,1.21,-35.363262,149.1652377,599.08,0.014000000432133675,57.735069274902344,0.0010000000474974513,0.0,1
1778785787.59945083,128784299,0,6,414605600,2418,10,1.21,-35.363262,149.1652377,599.08,0.014000000432133675,57.51932907104492,0.0010000000474974513,0.0,1
1778785787.79937100,128984219,0,6,414605800,2418,10,1.21,-35.363262,149.1652377,599.08,0.013000000268220901,58.1678466796875,0.0010000000474974513,0.0,1
1778785787.99929094,129184139,0,6,414606000,2418,10,1.21,-35.363262,149.1652378,599.08,0.013000000268220901,59.03846740722656,0.0010000000474974513,0.0,1
1778785788.19921088,129384059,0,6,414606200,2418,10,1.21,-35.363262,149.1652378,599.08,0.013000000268220901,60.00499725341797,0.0,0.0,1
1778785788.39996386,129584812,0,6,414606400,2418,10,1.21,-35.3632619,149.1652378,599.08,0.013000000268220901,60.53623962402344,0.0,0.0,1
1778785788.59988403,129784732,0,6,414606600,2418,10,1.21,-35.3632619,149.1652378,599.08,0.012000000104308128,60.09967803955078,0.0,0.0,1
1778785788.79980397,129984652,0,6,414606800,2418,10,1.21,-35.3632619,149.1652379,599.08,0.01100000087171793,59.773319244384766,0.0,0.0,1
1778785788.99972391,130184572,0,6,414607000,2418,10,1.21,-35.3632619,149.1652379,599.08,0.01100000087171793,60.16804885864258,0.0,0.0,1
1778785789.19964385,130384492,0,6,414607200,2418,10,1.21,-35.3632619,149.1652379,599.08,0.009000000543892384,60.25300979614258,-0.0010000000474974513,0.0,1
1778785789.39956403,130584412,0,6,414607400,2418,10,1.21,-35.3632619,149.1652379,599.08,0.007000000216066837,57.96364974975586,-0.0010000000474974513,0.0,1
1778785789.59948397,130784332,0,6,414607600,2418,10,1.21,-35.3632619,149.1652379,599.08,0.005000000353902578,51.55436706542969,-0.0010000000474974513,0.0,1
1778785789.79940391,130984252,0,6,414607800,2418,10,1.21,-35.3632619,149.1652379,599.08,0.004000000189989805,40.939048767089844,-0.0010000000474974513,0.0,1
1778785789.99932384,131184172,0,6,414608000,2418,10,1.21,-35.3632619,149.1652379,599.09,0.003000000026077032,30.48288917541504,-0.0010000000474974513,0.0,1
1778785790.19924402,131384092,0,6,414608200,2418,10,1.21,-35.3632619,149.1652379,599.09,0.003000000026077032,29.67852020263672,-0.0010000000474974513,0.0,1
1778785790.39999700,131584845,0,6,414608400,2418,10,1.21,-35.3632619,149.1652379,599.09,0.003000000026077032,38.256229400634766,-0.0010000000474974513,0.0,1
1778785790.59991693,131784765,0,6,414608600,2418,10,1.21,-35.3632619,149.1652379,599.09,0.004000000189989805,46.506919860839844,0.0,0.0,1
1778785790.79983687,131984685,0,6,414608800,2418,10,1.21,-35.3632619,149.1652379,599.09,0.005000000353902578,51.433109283447266,0.0,0.0,1
1778785790.99975681,132184605,0,6,414609000,2418,10,1.21,-35.3632618,149.1652379,599.09,0.006000000052154064,53.62352752685547,0.0,0.0,1
1778785791.19967699,132384525,0,6,414609200,2418,10,1.21,-35.3632617,149.1652379,599.09,0.007000000216066837,54.348819732666016,0.0,0.0,1
1778785791.39959693,132584445,0,6,414609400,2418,10,1.21,-35.3632617,149.1652379,599.09,0.007000000216066837,55.568668365478516,0.0,0.0,1
1778785791.59951687,132784365,0,6,414609600,2418,10,1.21,-35.3632617,149.1652379,599.09,0.006000000052154064,60.207420349121094,0.0010000000474974513,0.0,1
1778785791.79943705,132984285,0,6,414609800,2418,10,1.21,-35.3632617,149.1652379,599.09,0.006000000052154064,71.5502700805664,0.0010000000474974513,0.0,1
1778785791.99935699,133184205,0,6,414610000,2418,10,1.21,-35.3632617,149.165238,599.08,0.006000000052154064,89.28096008300781,0.0010000000474974513,0.0,1
1778785792.19927692,133384125,0,6,414610200,2418,10,1.21,-35.3632617,149.165238,599.08,0.006000000052154064,110.20906066894531,0.0010000000474974513,0.0,1
1778785792.39919686,133584045,0,6,414610400,2418,10,1.21,-35.3632617,149.165238,599.08,0.007000000216066837,129.6719512939453,0.0010000000474974513,0.0,1
1778785792.59994984,133784798,0,6,414610600,2418,10,1.21,-35.3632617,149.165238,599.08,0.00800000037997961,145.5641326904297,0.0010000000474974513,0.0,1
1778785792.79987001,133984718,0,6,414610800,2418,10,1.21,-35.3632617,149.165238,599.08,0.00800000037997961,157.22601318359375,0.0,0.0,1
1778785792.99978995,134184638,0,6,414611000,2418,10,1.21,-35.3632617,149.165238,599.08,0.009000000543892384,163.9548797607422,0.0,0.0,1
1778785793.19970989,134384558,0,6,414611200,2418,10,1.21,-35.3632617,149.165238,599.08,0.010000000707805157,166.3689422607422,0.0,0.0,1
1778785793.39962983,134584478,0,6,414611400,2418,10,1.21,-35.3632617,149.165238,599.08,0.010000000707805157,164.8530731201172,0.0,0.0,1
1778785793.59955001,134784398,0,6,414611600,2418,10,1.21,-35.3632617,149.165238,599.08,0.010000000707805157,161.61192321777344,0.0,0.0,1
1778785793.79946995,134984318,0,6,414611800,2418,10,1.21,-35.3632618,149.165238,599.08,0.010000000707805157,161.0330810546875,-0.0010000000474974513,0.0,1
1778785793.99938989,135184238,0,6,414612000,2418,10,1.21,-35.3632619,149.165238,599.08,0.010000000707805157,164.5004119873047,-0.0010000000474974513,0.0,1
1778785794.19930983,135384158,0,6,414612200,2418,10,1.21,-35.3632619,149.165238,599.08,0.010000000707805157,170.60366821289062,-0.0010000000474974513,0.0,1
1778785794.39923000,135584078,0,6,414612400,2418,10,1.21,-35.3632619,149.165238,599.08,0.009000000543892384,177.0802764892578,-0.0010000000474974513,0.0,1
1778785794.59998298,135784831,0,6,414612600,2418,10,1.21,-35.3632619,149.165238,599.09,0.007000000216066837,180.78550720214844,-0.0010000000474974513,0.0,1
1778785794.79990292,135984751,0,6,414612800,2418,10,1.21,-35.3632619,149.165238,599.09,0.005000000353902578,180.7096710205078,-0.0010000000474974513,0.0,1
1778785794.99982285,136184671,0,6,414613000,2418,10,1.21,-35.3632619,149.165238,599.09,0.003000000026077032,175.5234375,-0.0010000000474974513,0.0,1
1778785795.19974303,136384591,0,6,414613200,2418,10,1.21,-35.3632619,149.165238,599.09,0.0010000000474974513,157.7886505126953,0.0,0.0,1
1778785795.39966297,136584511,0,6,414613400,2418,10,1.21,-35.3632619,149.165238,599.09,0.0,96.01826477050781,0.0,0.0,1
1778785795.59958291,136784431,0,6,414613600,2418,10,1.21,-35.3632619,149.165238,599.09,0.0,30.054868698120117,0.0,0.0,1
1778785795.79950285,136984351,0,6,414613800,2418,10,1.21,-35.3632619,149.1652381,599.09,0.0010000000474974513,12.965879440307617,0.0,0.0,1
1778785795.99942303,137184271,0,6,414614000,2418,10,1.21,-35.3632619,149.1652382,599.09,0.0010000000474974513,17.240379333496094,0.0,0.0,1
1778785796.19934297,137384191,0,6,414614200,2418,10,1.21,-35.3632619,149.1652382,599.09,0.0010000000474974513,24.397859573364258,0.0010000000474974513,0.0,1
1778785796.39926291,137584111,0,6,414614400,2418,10,1.21,-35.3632619,149.1652382,599.09,0.0010000000474974513,15.092339515686035,0.0010000000474974513,0.0,1
1778785796.59918284,137784031,0,6,414614600,2418,10,1.21,-35.3632619,149.1652382,599.08,0.0010000000474974513,327.64727783203125,0.0010000000474974513,0.0,1
1778785796.79993582,137984784,0,6,414614800,2418,10,1.21,-35.3632619,149.1652382,599.08,0.0020000000949949026,291.1416931152344,0.0010000000474974513,0.0,1
1778785796.99985600,138184704,0,6,414615000,2418,10,1.21,-35.3632619,149.1652382,599.08,0.005000000353902578,282.2863464355469,0.0010000000474974513,0.0,1
1778785797.19977593,138384624,0,6,414615200,2418,10,1.21,-35.3632619,149.1652382,599.08,0.007000000216066837,279.9205322265625,0.0010000000474974513,0.0,1
1778785797.39969587,138584544,0,6,414615400,2418,10,1.21,-35.3632619,149.1652382,599.08,0.00800000037997961,279.4666748046875,0.0,0.0,1
1778785797.59961581,138784464,0,6,414615600,2418,10,1.21,-35.3632619,149.1652382,599.08,0.00800000037997961,279.694580078125,0.0,0.0,1
1778785797.79953599,138984384,0,6,414615800,2418,10,1.21,-35.3632619,149.1652382,599.08,0.009000000543892384,278.47979736328125,0.0,0.0,1
1778785797.99945593,139184304,0,6,414616000,2418,10,1.21,-35.3632619,149.1652381,599.08,0.010000000707805157,276.1022033691406,0.0,0.0,1
1778785798.19937587,139384224,0,6,414616200,2418,10,1.21,-35.3632619,149.165238,599.08,0.01100000087171793,274.70733642578125,-0.0010000000474974513,0.0,1
1778785798.39929605,139584144,0,6,414616400,2418,10,1.21,-35.3632619,149.165238,599.08,0.01100000087171793,274.3343505859375,-0.0010000000474974513,0.0,1
1778785798.59921598,139784064,0,6,414616600,2418,10,1.21,-35.3632619,149.165238,599.08,0.01100000087171793,274.247802734375,-0.0010000000474974513,0.0,1
1778785798.79996896,139984817,0,6,414616800,2418,10,1.21,-35.3632619,149.165238,599.08,0.010000000707805157,274.2691955566406,-0.0010000000474974513,0.0,1
1778785798.99988890,140184737,0,6,414617000,2418,10,1.21,-35.3632619,149.1652379,599.09,0.00800000037997961,275.39874267578125,-0.0010000000474974513,0.0,1
1778785799.19980884,140384657,0,6,414617200,2418,10,1.21,-35.3632619,149.1652379,599.09,0.006000000052154064,279.39739990234375,-0.0010000000474974513,0.0,1
1778785799.39972901,140584577,0,6,414617400,2418,10,1.21,-35.3632619,149.1652379,599.09,0.004000000189989805,289.06463623046875,-0.0010000000474974513,0.0,1
1778785799.59964895,140784497,0,6,414617600,2418,10,1.21,-35.3632619,149.1652379,599.09,0.0020000000949949026,317.5129699707031,0.0,0.0,1
1778785799.79956889,140984417,0,6,414617800,2418,10,1.21,-35.3632619,149.1652379,599.09,0.0020000000949949026,23.010419845581055,0.0,0.0,1
1778785799.99948883,141184337,0,6,414618000,2418,10,1.21,-35.3632619,149.1652379,599.09,0.003000000026077032,54.381446838378906,0.0,0.0,1
1778785800.19940901,141384257,0,6,414618200,2418,10,1.21,-35.3632619,149.1652379,599.09,0.004000000189989805,65.65715026855469,0.0,0.0,1
1778785800.39932895,141584177,0,6,414618400,2418,10,1.21,-35.3632619,149.1652379,599.09,0.004000000189989805,71.91217041015625,0.0,0.0,1
1778785800.59924889,141784097,0,6,414618600,2418,10,1.21,-35.3632619,149.1652379,599.09,0.005000000353902578,74.63179779052734,0.0010000000474974513,0.0,1
1778785800.80000186,141984850,0,6,414618800,2418,10,1.21,-35.3632619,149.1652379,599.09,0.005000000353902578,74.0499496459961,0.0010000000474974513,0.0,1
1778785800.99992204,142184770,0,6,414619000,2418,10,1.21,-35.3632619,149.1652379,599.09,0.005000000353902578,71.40798950195312,0.0010000000474974513,0.0,1
1778785801.19984198,142384690,0,6,414619200,2418,10,1.21,-35.3632619,149.1652379,599.09,0.004000000189989805,69.3244400024414,0.0010000000474974513,0.0,1
1778785801.39976192,142584610,0,6,414619400,2418,10,1.21,-35.3632619,149.1652379,599.08,0.004000000189989805,70.7208480834961,0.0010000000474974513,0.0,1
1778785801.59968185,142784530,0,6,414619600,2418,10,1.21,-35.3632619,149.1652379,599.08,0.004000000189989805,77.46002960205078,0.0010000000474974513,0.0,1
1778785801.79960203,142984450,0,6,414619800,2418,10,1.21,-35.3632619,149.1652379,599.08,0.004000000189989805,85.12002563476562,0.0010000000474974513,0.0,1
1778785801.99952197,143184370,0,6,414620000,2418,10,1.21,-35.3632619,149.1652379,599.08,0.004000000189989805,89.75328826904297,0.0,0.0,1
1778785802.19944191,143384290,0,6,414620200,2418,10,1.21,-35.3632619,149.1652379,599.08,0.004000000189989805,93.03556823730469,0.0,0.0,1
1778785802.39936185,143584210,0,6,414620400,2418,10,1.21,-35.3632619,149.1652379,599.08,0.004000000189989805,93.94107055664062,0.0,0.0,1
1778785802.59928203,143784130,0,6,414620600,2418,10,1.21,-35.3632619,149.1652379,599.08,0.003000000026077032,92.39311981201172,0.0,0.0,1
1778785802.79920197,143984050,0,6,414620800,2418,10,1.21,-35.3632619,149.1652379,599.08,0.003000000026077032,89.865234375,0.0,0.0,1
1778785802.99995494,144184803,0,6,414621000,2418,10,1.21,-35.3632619,149.1652379,599.08,0.003000000026077032,91.06306457519531,0.0,0.0,1
1778785803.19987488,144384723,0,6,414621200,2418,10,1.21,-35.3632619,149.165238,599.08,0.004000000189989805,93.08355712890625,-0.0010000000474974513,0.0,1
1778785803.39979482,144584643,0,6,414621400,2418,10,1.21,-35.3632619,149.165238,599.08,0.004000000189989805,91.28738403320312,-0.0010000000474974513,0.0,1
1778785803.59971499,144784563,0,6,414621600,2418,10,1.21,-35.3632619,149.165238,599.08,0.005000000353902578,87.68251037597656,-0.0010000000474974513,0.0,1
1778785803.79963493,144984483,0,6,414621800,2418,10,1.21,-35.3632619,149.165238,599.09,0.005000000353902578,84.9211196899414,-0.0010000000474974513,0.0,1
1778785803.99955487,145184403,0,6,414622000,2418,10,1.21,-35.3632619,149.165238,599.09,0.004000000189989805,85.82615661621094,-0.0010000000474974513,0.0,1
1778785804.19947481,145384323,0,6,414622200,2418,10,1.21,-35.3632619,149.165238,599.09,0.003000000026077032,92.7674789428711,0.0,0.0,1
1778785804.39939499,145584243,0,6,414622400,2418,10,1.21,-35.3632619,149.165238,599.09,0.0020000000949949026,106.72767639160156,0.0,0.0,1
1778785804.59931493,145784163,0,6,414622600,2418,10,1.21,-35.3632619,149.165238,599.09,0.0010000000474974513,126.55138397216797,0.0,0.0,1
1778785804.79923487,145984083,0,6,414622800,2418,10,1.21,-35.3632619,149.165238,599.09,0.0010000000474974513,154.3270721435547,0.0,0.0,1
1778785804.99998784,146184836,0,6,414623000,2418,10,1.21,-35.3632619,149.165238,599.09,0.0010000000474974513,187.59719848632812,0.0,0.0,1
1778785805.19990802,146384756,0,6,414623200,2418,10,1.21,-35.3632619,149.165238,599.09,0.0010000000474974513,210.95887756347656,0.0010000000474974513,0.0,1
1778785805.39982796,146584676,0,6,414623400,2418,10,1.21,-35.3632619,149.165238,599.09,0.0020000000949949026,219.97869873046875,0.0010000000474974513,0.0,1
1778785805.59974790,146784596,0,6,414623600,2418,10,1.21,-35.3632619,149.165238,599.09,0.0010000000474974513,217.97055053710938,0.0010000000474974513,0.0,1
1778785805.79966784,146984516,0,6,414623800,2418,10,1.21,-35.3632619,149.165238,599.09,0.0010000000474974513,205.39109802246094,0.0010000000474974513,0.0,1
1778785805.99958801,147184436,0,6,414624000,2418,10,1.21,-35.3632619,149.165238,599.08,0.0010000000474974513,186.77224731445312,0.0010000000474974513,0.0,1
1778785806.19950795,147384356,0,6,414624200,2418,10,1.21,-35.3632619,149.165238,599.08,0.0010000000474974513,175.4456787109375,0.0010000000474974513,0.0,1
1778785806.39942789,147584276,0,6,414624400,2418,10,1.21,-35.3632619,149.165238,599.08,0.0010000000474974513,174.3561553955078,0.0010000000474974513,0.0,1
1778785806.59934783,147784196,0,6,414624600,2418,10,1.21,-35.3632619,149.165238,599.08,0.0010000000474974513,183.37088012695312,0.0,0.0,1
1778785806.79926801,147984116,0,6,414624800,2418,10,1.21,-35.3632619,149.165238,599.08,0.0010000000474974513,192.58602905273438,0.0,0.0,1
1778785806.99918795,148184036,0,6,414625000,2418,10,1.21,-35.3632619,149.165238,599.08,0.0010000000474974513,195.73487854003906,0.0,0.0,1
1778785807.19994092,148384789,0,6,414625200,2418,10,1.21,-35.3632619,149.165238,599.08,0.0020000000949949026,192.52392578125,0.0,0.0,1
1778785807.39986086,148584709,0,6,414625400,2418,10,1.21,-35.3632619,149.165238,599.08,0.0020000000949949026,189.1990509033203,0.0,0.0,1
1778785807.59978104,148784629,0,6,414625600,2418,10,1.21,-35.3632619,149.165238,599.08,0.0020000000949949026,187.04164123535156,-0.0010000000474974513,0.0,1
1778785807.79970098,148984549,0,6,414625800,2418,10,1.21,-35.3632619,149.165238,599.08,0.0020000000949949026,183.52920532226562,-0.0010000000474974513,0.0,1
1778785807.99962091,149184469,0,6,414626000,2418,10,1.21,-35.3632619,149.165238,599.08,0.0020000000949949026,176.22683715820312,-0.0010000000474974513,0.0,1
1778785808.19954085,149384389,0,6,414626200,2418,10,1.21,-35.3632619,149.165238,599.09,0.0020000000949949026,171.77976989746094,-0.0010000000474974513,0.0,1
1778785808.39946103,149584309,0,6,414626400,2418,10,1.21,-35.3632619,149.165238,599.09,0.0020000000949949026,177.55783081054688,-0.0010000000474974513,0.0,1
1778785808.59938097,149784229,0,6,414626600,2418,10,1.21,-35.3632619,149.165238,599.09,0.0020000000949949026,188.53646850585938,-0.0010000000474974513,0.0,1
1778785808.79930091,149984149,0,6,414626800,2418,10,1.21,-35.3632619,149.165238,599.09,0.0020000000949949026,200.7330780029297,0.0,0.0,1
1778785808.99922085,150184069,0,6,414627000,2418,10,1.21,-35.3632619,149.165238,599.09,0.0020000000949949026,212.11180114746094,0.0,0.0,1
1778785809.19997382,150384822,0,6,414627200,2418,10,1.21,-35.3632619,149.165238,599.09,0.003000000026077032,221.52691650390625,0.0,0.0,1
1778785809.39989400,150584742,0,6,414627400,2418,10,1.21,-35.3632619,149.165238,599.09,0.003000000026077032,226.43641662597656,0.0,0.0,1
1778785809.59981394,150784662,0,6,414627600,2418,10,1.21,-35.363262,149.165238,599.09,0.003000000026077032,227.7029571533203,0.0,0.0,1
1778785809.79973388,150984582,0,6,414627800,2418,10,1.21,-35.363262,149.165238,599.09,0.0020000000949949026,225.5478057861328,0.0010000000474974513,0.0,1
1778785809.99965382,151184502,0,6,414628000,2418,10,1.21,-35.363262,149.165238,599.09,0.0020000000949949026,218.18490600585938,0.0010000000474974513,0.0,1
1778785810.19957399,151384422,0,6,414628200,2418,10,1.21,-35.363262,149.165238,599.08,0.0020000000949949026,216.77777099609375,0.0010000000474974513,0.0,1
1778785810.39949393,151584342,0,6,414628400,2418,10,1.21,-35.363262,149.165238,599.08,0.0010000000474974513,234.7725830078125,0.0010000000474974513,0.0,1
1778785810.59941387,151784262,0,6,414628600,2418,10,1.21,-35.363262,149.165238,599.08,0.0010000000474974513,269.6372985839844,0.0010000000474974513,0.0,1
1778785810.79933381,151984182,0,6,414628800,2418,10,1.21,-35.363262,149.165238,599.08,0.0010000000474974513,308.4236145019531,0.0010000000474974513,0.0,1
1778785810.99925399,152184102,0,6,414629000,2418,10,1.21,-35.363262,149.165238,599.08,0.0020000000949949026,333.67047119140625,0.0,0.0,1
1778785811.20000696,152384855,0,6,414629200,2418,10,1.21,-35.363262,149.165238,599.08,0.003000000026077032,337.5177917480469,0.0,0.0,1
1778785811.39992690,152584775,0,6,414629400,2418,10,1.21,-35.363262,149.165238,599.08,0.004000000189989805,333.8297119140625,0.0,0.0,1
1778785811.59984684,152784695,0,6,414629600,2418,10,1.21,-35.363262,149.165238,599.08,0.004000000189989805,332.20361328125,0.0,0.0,1
1778785811.79976702,152984615,0,6,414629800,2418,10,1.21,-35.363262,149.165238,599.08,0.004000000189989805,334.45947265625,-0.0010000000474974513,0.0,1
1778785811.99968696,153184535,0,6,414630000,2418,10,1.21,-35.363262,149.165238,599.08,0.004000000189989805,338.3509216308594,-0.0010000000474974513,0.0,1
1778785812.19960690,153384455,0,6,414630200,2418,10,1.21,-35.363262,149.165238,599.08,0.004000000189989805,342.31121826171875,-0.0010000000474974513,0.0,1
1778785812.39952683,153584375,0,6,414630400,2418,10,1.21,-35.363262,149.165238,599.08,0.004000000189989805,345.3973388671875,-0.0010000000474974513,0.0,1
