timestamp,TimeUS,I,GyrX,GyrY,GyrZ,AccX,AccY,AccZ,EG,EA,T,GH,AH,GHz,AHz
1778788392.69920707,65884469,0,0.0009140516049228609,0.0009033981477841735,0.0009237399790436029,4.852438723901287e-05,-0.0024303742684423923,-9.817787170410156,0,0,28.840648651123047,1,1,1000,1000
1778788392.69920707,65884469,1,0.0008154634851962328,0.0009601981728337705,0.0007753984536975622,-0.0009366731392219663,0.0009079400333575904,-9.818324089050293,0,0,28.840648651123047,1,1,760,800
1778788392.74002409,65925286,0,0.0009212211589328945,0.0008525763405486941,0.0009686308912932873,-0.0017397566698491573,-0.0010481998324394226,-9.817962646484375,0,0,28.842857360839844,1,1,1000,1000
1778788392.74002409,65925286,1,0.0009044568287208676,0.0010468622203916311,0.0010587552096694708,-0.0028701031114906073,-0.0019179234514012933,-9.818723678588867,0,0,28.842803955078125,1,1,760,800
1778788392.78000808,65965270,0,0.0008693089475855231,0.0009351693443022668,0.0008689555106684566,-0.0009350695181638002,-0.001159926876425743,-9.817306518554688,0,0,28.84501075744629,1,1,1000,1000
1778788392.78000808,65965270,1,0.0010624532587826252,0.0008150734938681126,0.0009217590559273958,-0.0008501830161549151,-0.0005121081485413015,-9.815150260925293,0,0,28.84495735168457,1,1,760,800
1778788392.81999207,66005254,0,0.0009324351558461785,0.0009828455513343215,0.0009180665947496891,-0.0016596168279647827,-0.0011505000293254852,-9.818524360656738,0,0,28.847164154052734,1,1,1000,1000
1778788392.81999207,66005254,1,0.0008291936246678233,0.0010278145782649517,0.0009060758166015148,-0.0029311494436115026,-8.078003156697378e-05,-9.818509101867676,0,0,28.847110748291016,1,1,760,800
1778788392.85997605,66045238,0,0.0009131389087997377,0.0009303718688897789,0.0009882593294605613,-0.00042515050154179335,-0.000623055559117347,-9.817291259765625,0,0,28.84931755065918,1,1,1000,1000
1778788392.85997605,66045238,1,0.000932991795707494,0.0009932147804647684,0.0010368665680289268,-0.002757804002612829,-0.0022788974456489086,-9.818527221679688,0,0,28.84926414489746,1,1,760,800
1778788392.89996004,66085222,0,0.0009506189380772412,0.0009200842468999326,0.00094500562408939,-0.001306055928580463,-0.0013589905574917793,-9.817142486572266,0,0,28.851417541503906,1,1,1000,1000
1778788392.89996004,66085222,1,0.0008138224948197603,0.0007899565971456468,0.0011414034524932504,-0.001614984474144876,0.0013261607382446527,-9.817687034606934,0,0,28.851417541503906,1,1,760,800
1778788392.93994403,66125206,0,0.0009534268756397069,0.0008711374830454588,0.000996020040474832,-0.0012131413677707314,-0.0005248147645033896,-9.815933227539062,0,0,28.85357093811035,1,1,1000,1000
1778788392.93994403,66125206,1,0.0009881923906505108,0.000897220044862479,0.0009129361133091152,-0.0015896012773737311,-0.0015985947102308273,-9.816545486450195,0,0,28.85357093811035,1,1,760,800
1778788392.97992802,66165190,0,0.0009639316704124212,0.0009267668356187642,0.0009012593072839081,-0.0011784309754148126,-0.0006320611573755741,-9.818537712097168,0,0,28.855722427368164,1,1,1000,1000
1778788392.97992802,66165190,1,0.0009535555727779865,0.0010175076313316822,0.0008520944975316525,-0.0024505110923200846,0.00011681774776661769,-9.818769454956055,0,0,28.855722427368164,1,1,760,800
1778788393.01991200,66205174,0,0.0009478107676841319,0.0009139704634435475,0.0009750751778483391,-0.001305868267081678,-0.0008680603932589293,-9.817156791687012,0,0,28.85787582397461,1,1,1000,1000
1778788393.01991200,66205174,1,0.0009507060749456286,0.0009018906857818365,0.0010126791894435883,-0.0033680140040814877,-0.0011812985176220536,-9.818305969238281,0,0,28.85787582397461,1,1,760,800
1778788393.05989599,66245158,0,0.0009787618182599545,0.0009303325787186623,0.0010519882198423147,-0.0004167663282714784,-0.001667719567194581,-9.817419052124023,0,0,28.860027313232422,1,1,1000,1000
1778788393.05989599,66245158,1,0.0008023427799344063,0.0009332209010608494,0.0009403708390891552,-0.0015935651026666164,0.000565262627787888,-9.816902160644531,0,0,28.860027313232422,1,1,760,800
1778788393.09987998,66285142,0,0.0008847194840200245,0.0009634256130084395,0.0009408122859895229,-0.001438592211343348,-0.00010621346882544458,-9.816558837890625,0,0,28.862178802490234,1,1,1000,1000
1778788393.09987998,66285142,1,0.0010914475424215198,0.0009933369001373649,0.0010809572413563728,-0.003097863867878914,-0.0005848276196047664,-9.81755256652832,0,0,28.862178802490234,1,1,760,800
1778788393.13986397,66325126,0,0.0009056281996890903,0.0009000000427477062,0.000812860147561878,-0.001401183195412159,-0.0015229681739583611,-9.817601203918457,0,0,28.864330291748047,1,1,1000,1000
1778788393.13986397,66325126,1,0.0010906171519309282,0.0008101051207631826,0.0008106839377433062,0.0016591346357017756,-0.0017775299493223429,-9.816271781921387,0,0,28.864330291748047,1,1,760,800
1778788393.17984796,66365110,0,0.0008835355401970446,0.0008872554753907025,0.0009099476155824959,-0.0005513392388820648,-0.00026176616665907204,-9.816549301147461,0,0,28.866483688354492,1,1,1000,1000
1778788393.17984796,66365110,1,0.0009534019627608359,0.0009749071905389428,0.0008467442239634693,-0.0006350363837555051,-0.0008226592908613384,-9.817354202270508,0,0,28.866483688354492,1,1,760,800
1778788393.21983194,66405094,0,0.0009491480304859579,0.0010065134847536683,0.0009356657974421978,-0.000617527577560395,-0.0008061905391514301,-9.817715644836426,0,0,28.868633270263672,1,1,1000,1000
1778788393.21983194,66405094,1,0.0008142571896314621,0.0007636658847332001,0.001009112223982811,-0.0015991239342838526,0.0006851347861811519,-9.814387321472168,0,0,28.868633270263672,1,1,760,800
1778788393.25981593,66445078,0,0.0009508485090918839,0.0008827225537970662,0.0009436403634026647,-3.12807533191517e-05,-0.001051270985044539,-9.818345069885254,0,0,28.870784759521484,1,1,1000,1000
1778788393.25981593,66445078,1,0.0008183298632502556,0.0008231917163357139,0.0009193237056024373,-0.0005747891846112907,-0.0008459629025310278,-9.815350532531738,0,0,28.870784759521484,1,1,760,800
1778788393.29979992,66485062,0,0.0009125291253440082,0.0009056649287231266,0.0009492113022133708,-0.0009770215256139636,-0.0006531288963742554,-9.81699275970459,0,0,28.872987747192383,1,1,1000,1000
1778788393.29979992,66485062,1,0.0006661154329776764,0.0009688562131486833,0.0008972476935014129,3.4913438867079094e-05,-0.0004479036433622241,-9.818365097045898,0,0,28.872987747192383,1,1,760,800
1778788393.33978415,66525046,0,0.0009785547154024243,0.000909887719899416,0.0008960721315816045,-0.0005659472080878913,-0.0015733189648017287,-9.817121505737305,0,0,28.875139236450195,1,1,1000,1000
1778788393.33978415,66525046,1,0.0009916748385876417,0.0008580637513659894,0.0010687247850000858,6.441034201998264e-05,-0.0012881818693131208,-9.818275451660156,0,0,28.875139236450195,1,1,760,800
1778788393.37976813,66565030,0,0.0009319140808656812,0.0009405807359144092,0.0009151807171292603,0.00019640861137304455,-0.001165613066405058,-9.817218780517578,0,0,28.877288818359375,1,1,1000,1000
1778788393.37976813,66565030,1,0.0008884265553206205,0.0010168923763558269,0.0011680799070745707,-0.0016083114314824343,0.0009706100099720061,-9.818058013916016,0,0,28.877288818359375,1,1,760,800
1778788393.41975212,66605014,0,0.0009501859312877059,0.000924432766623795,0.0008819184731692076,-0.0002589685609564185,-0.0010759542929008603,-9.818424224853516,0,0,28.879436492919922,1,1,1000,1000
1778788393.41975212,66605014,1,0.000761601550038904,0.0009361011907458305,0.000956393254455179,-0.0003856547409668565,-0.0014127603499218822,-9.817416191101074,0,0,28.879436492919922,1,1,760,800
1778788393.45973611,66644998,0,0.000946518499404192,0.0009965633507817984,0.0008924081921577454,-0.0011425246484577656,-0.0015360105317085981,-9.817577362060547,0,0,28.881532669067383,1,1,1000,1000
1778788393.45973611,66644998,1,0.0012559134047478437,0.0007190404576249421,0.0007173593621701002,-0.0012371523771435022,-0.0014183514285832644,-9.817126274108887,0,0,28.881532669067383,1,1,760,800
1778788393.49972010,66684982,0,0.001002180390059948,0.0009646328981034458,0.0009462160523980856,-0.0015286525012925267,-0.0009650478605180979,-9.817876815795898,0,0,28.883682250976562,1,1,1000,1000
1778788393.49972010,66684982,1,0.0008705832296982408,0.000928012712392956,0.000901946215890348,0.0012357549276202917,-0.001021925127133727,-9.815160751342773,0,0,28.883682250976562,1,1,760,800
1778788393.53970408,66724966,0,0.0009176700259558856,0.0009695190819911659,0.0010210340842604637,-0.0007830667309463024,-0.0004596315848175436,-9.818058967590332,0,0,28.885831832885742,1,1,1000,1000
1778788393.53970408,66724966,1,0.0007803358021192253,0.0010218089446425438,0.0010367173235863447,-0.0007700191927142441,-0.0018237081822007895,-9.817182540893555,0,0,28.885831832885742,1,1,760,800
1778788393.57968807,66764950,0,0.0009399751434102654,0.0009353413479402661,0.0008956937817856669,-0.001417901716195047,-0.0007240554550662637,-9.816023826599121,0,0,28.88797950744629,1,1,1000,1000
1778788393.57968807,66764950,1,0.000996577786281705,0.0011287180241197348,0.001046295277774334,-0.0028758090920746326,0.0003561910707503557,-9.817098617553711,0,0,28.88797950744629,1,1,760,800
1778788393.61967206,66804934,0,0.0009140638867393136,0.0009386080782860518,0.0009296868811361492,-0.00047821979387663305,-0.0018272246234118938,-9.817831993103027,0,0,28.89012908935547,1,1,1000,1000
1778788393.61967206,66804934,1,0.0006454755202867091,0.0009836400859057903,0.0007417576853185892,-0.003336424706503749,0.0010261631105095148,-9.817713737487793,0,0,28.89012908935547,1,1,760,800
1778788393.65965605,66844918,0,0.0009095837594941258,0.0009106122888624668,0.0009376744274049997,-0.002475445158779621,0.0006565756630152464,-9.817955017089844,0,0,28.892274856567383,1,1,1000,1000
1778788393.65965605,66844918,1,0.0008235006825998425,0.0009719745721668005,0.0010342311579734087,4.0272745536640286e-05,-0.0015962501056492329,-9.818073272705078,0,0,28.892274856567383,1,1,760,800
1778788393.69964004,66884902,0,0.0009651705040596426,0.0009518906008452177,0.0009635955793783069,-4.450291089597158e-05,-0.0006729648448526859,-9.817899703979492,0,0,28.89442253112793,1,1,1000,1000
1778788393.69964004,66884902,1,0.0009989789687097073,0.0009000410209409893,0.0008909096941351891,-0.0019492597784847021,0.0016652591293677688,-9.81690788269043,0,0,28.89442253112793,1,1,760,800
1778788393.73962402,66924886,0,0.0009629229898564517,0.0009420206188224256,0.0009376381640322506,-0.0005058254464529455,-0.0006996119045652449,-9.81833267211914,0,0,28.896570205688477,1,1,1000,1000
1778788393.73962402,66924886,1,0.0008806020487099886,0.0009200665517710149,0.0012715234188362956,-0.00022603399702347815,-0.0015790265752002597,-9.817026138305664,0,0,28.896570205688477,1,1,760,800
1778788393.77960801,66964870,0,0.0009154593572020531,0.0010373889235779643,0.001009578350931406,-0.001358658540993929,-0.0005635344423353672,-9.817697525024414,0,0,28.898717880249023,1,1,1000,1000
1778788393.77960801,66964870,1,0.0010178786469623446,0.0011258545564487576,0.0009810645133256912,-0.002192727057263255,-0.0028084763325750828,-9.818357467651367,0,0,28.898717880249023,1,1,760,800
1778788393.81959200,67004854,0,0.0009466471383348107,0.0009321258403360844,0.0009265856351703405,-0.0006558537133969367,-0.0015791638288646936,-9.817688941955566,0,0,28.900863647460938,1,1,1000,1000
1778788393.81959200,67004854,1,0.0009817089885473251,0.0009470585500821471,0.0010763166937977076,-0.0021636714227497578,8.102868014248088e-05,-9.820436477661133,0,0,28.900863647460938,1,1,760,800
1778788393.85957599,67044838,0,0.0009288624278269708,0.0008865309646353126,0.0008892764453776181,-0.0012793946079909801,-0.000631050206720829,-9.817508697509766,0,0,28.903011322021484,1,1,1000,1000
1778788393.85957599,67044838,1,0.000982636003755033,0.0008993277442641556,0.0007880374323576689,-0.0006689806468784809,0.00033074821112677455,-9.817819595336914,0,0,28.903011322021484,1,1,760,800
1778788393.89955997,67084822,0,0.0010032295249402523,0.000957741285674274,0.0009527302463538945,-0.0008378927013836801,-0.0004230246413499117,-9.816598892211914,0,0,28.9051570892334,1,1,1000,1000
1778788393.89955997,67084822,1,0.0010209473548457026,0.0009850905044004321,0.0009404266602359712,-0.0018850117921829224,0.0020075386855751276,-9.820854187011719,0,0,28.9051570892334,1,1,760,800
1778788393.93954396,67124806,0,0.00089347327593714,0.0009055108530446887,0.000985418213531375,-0.000996435061097145,-0.0018674619495868683,-9.817224502563477,0,0,28.907302856445312,1,1,1000,1000
1778788393.93954396,67124806,1,0.00088999088620767,0.0009418818517588079,0.000976052600890398,-0.001191700343042612,-0.0022069283295422792,-9.818206787109375,0,0,28.907302856445312,1,1,760,800
1778788393.97952795,67164790,0,0.0009952877881005406,0.0008775033056735992,0.0009421503054909408,-0.0011617811396718025,-0.0016743299784138799,-9.817777633666992,0,0,28.909448623657227,1,1,1000,1000
1778788393.97952795,67164790,1,0.000993151101283729,0.0007482950459234416,0.0008453152840957046,-0.001511351321823895,-0.0008362667285837233,-9.817069053649902,0,0,28.909448623657227,1,1,760,800
1778788394.01951194,67204774,0,0.0009216120815835893,0.0009751913603395224,0.0008992388029582798,-0.0009979857131838799,-0.0011461593676358461,-9.81743049621582,0,0,28.911592483520508,1,1,1000,1000
1778788394.01951194,67204774,1,0.0009002939914353192,0.0008412750321440399,0.000924175139516592,9.164262155536562e-05,-2.626444438647013e-05,-9.817496299743652,0,0,28.911592483520508,1,1,760,800
1778788394.05949593,67244758,0,0.000987462466582656,0.0010009853867813945,0.0009537970181554556,-0.001642927760258317,-0.000912791583687067,-9.817361831665039,0,0,28.913738250732422,1,1,1000,1000
1778788394.05949593,67244758,1,0.0009922333993017673,0.0008868582081049681,0.0011077738599851727,0.0007828420493751764,-0.0013576264027506113,-9.819534301757812,0,0,28.913738250732422,1,1,760,800
1778788394.09948015,67284742,0,0.0008944390574470162,0.0008930424810387194,0.0009526497451588511,-0.0012351090554147959,-0.0009128575911745429,-9.817937850952148,0,0,28.915884017944336,1,1,1000,1000
1778788394.09948015,67284742,1,0.000807371863629669,0.0009038580465130508,0.0010814971756190062,0.000144657475175336,-0.0017434454057365656,-9.816645622253418,0,0,28.915884017944336,1,1,760,800
1778788394.13946414,67324726,0,0.0010198093950748444,0.0009673918248154223,0.0010071780998259783,-0.0027189513202756643,-0.0009926605271175504,-9.817249298095703,0,0,28.918027877807617,1,1,1000,1000
1778788394.13946414,67324726,1,0.0009416079265065491,0.0008534101070836186,0.0008327388786710799,-0.0016755061224102974,-0.00037924732896499336,-9.819204330444336,0,0,28.918027877807617,1,1,760,800
1778788394.17944813,67364710,0,0.0008856125641614199,0.0009360113763250411,0.0009419280104339123,-0.0011608072090893984,-0.00081320118624717,-9.817703247070312,0,0,28.9201717376709,1,1,1000,1000
1778788394.17944813,67364710,1,0.0007967214332893491,0.0009611407294869423,0.0005754663143306971,-0.001771922572515905,-0.0006328790914267302,-9.817445755004883,0,0,28.9201717376709,1,1,760,800
1778788394.21943212,67404694,0,0.0008975701057352126,0.001019880874082446,0.0009215821046382189,-0.002346649067476392,-0.00048659296589903533,-9.817612648010254,0,0,28.92231559753418,1,1,1000,1000
1778788394.21943212,67404694,1,0.0012398104881867766,0.0010239498224109411,0.0008241612231358886,0.000278381077805534,-7.391804683720693e-05,-9.817718505859375,0,0,28.92231559753418,1,1,760,800
1778788394.25941610,67444678,0,0.0009050165535882115,0.0009181685745716095,0.0009083253098651767,-0.0006237734341993928,-0.0012717514764517546,-9.816765785217285,0,0,28.92445945739746,1,1,1000,1000
1778788394.25941610,67444678,1,0.0010839842725545168,0.0009723324328660965,0.0008615349652245641,-0.000978572410531342,0.00036190630635246634,-9.81776237487793,0,0,28.92445945739746,1,1,760,800
1778788394.29940009,67484662,0,0.0009014050010591745,0.0009801629930734634,0.001001033466309309,-0.0018577170558273792,-0.0018003284931182861,-9.81712532043457,0,0,28.926603317260742,1,1,1000,1000
1778788394.29940009,67484662,1,0.0007806584471836686,0.0009041191660799086,0.0008792737498879433,-0.0016646762378513813,-0.0007756106788292527,-9.816913604736328,0,0,28.926603317260742,1,1,760,800
1778788394.33938408,67524646,0,0.0009824966546148062,0.0008865321287885308,0.0009953054832294583,-0.0009269305737689137,-0.0016760877333581448,-9.818437576293945,0,0,28.92874526977539,1,1,1000,1000
1778788394.33938408,67524646,1,0.0010076877661049366,0.0008798227645456791,0.0008581163128837943,-0.001101175555959344,-0.0014580845599994063,-9.816446304321289,0,0,28.92874526977539,1,1,760,800
1778788394.37936807,67564630,0,0.0009357693488709629,0.000991396140307188,0.0009835097007453442,-0.0011219900334253907,-0.0018108789809048176,-9.818115234375,0,0,28.930889129638672,1,1,1000,1000
1778788394.37936807,67564630,1,0.0009025934268720448,0.0007596928626298904,0.0009208731935359538,0.0007794214761815965,-0.0021130077075213194,-9.818466186523438,0,0,28.930889129638672,1,1,760,800
1778788394.41935205,67604614,0,0.0009166483068838716,0.0009485977352596819,0.0009021442383527756,-0.0008276987937279046,-0.0006107742665335536,-9.817627906799316,0,0,28.93303108215332,1,1,1000,1000
1778788394.41935205,67604614,1,0.0010377687867730856,0.0010088784620165825,0.0008246373035944998,-0.0006912911194376647,0.000342071580234915,-9.816523551940918,0,0,28.93303108215332,1,1,760,800
1778788394.45933604,67644598,0,0.0009027713676914573,0.00095471361419186,0.0010305726900696754,-0.0006893551908433437,-0.0003297764924354851,-9.817585945129395,0,0,28.93517303466797,1,1,1000,1000
1778788394.45933604,67644598,1,0.0009392880601808429,0.0009698658832348883,0.000804005772806704,-0.001076257904060185,-0.0031541064381599426,-9.817667961120605,0,0,28.93517303466797,1,1,760,800
1778788394.49932003,67684582,0,0.0009115921566262841,0.0009648511186242104,0.0009913659887388349,-0.0011939678806811571,-0.0004981684614904225,-9.816596984863281,0,0,28.937314987182617,1,1,1000,1000
1778788394.49932003,67684582,1,0.001019370392896235,0.0011041427496820688,0.0007981302333064377,-0.0007552207680419087,-0.0008310021366924047,-9.818886756896973,0,0,28.937314987182617,1,1,760,800
1778788394.53930402,67724566,0,0.0009227341506630182,0.0009820153936743736,0.0008515822701156139,-3.470766023383476e-05,-0.0009805681183934212,-9.817748069763184,0,0,28.939455032348633,1,1,1000,1000
1778788394.53930402,67724566,1,0.0009063277393579483,0.001002598786726594,0.0011959215626120567,-0.0019106609979644418,-0.0003161475178785622,-9.819722175598145,0,0,28.939455032348633,1,1,760,800
1778788394.57928801,67764550,0,0.0010046474635601044,0.0009037836571224034,0.0009262035018764436,-0.0005991818616166711,-0.0021394125651568174,-9.81761646270752,0,0,28.94159698486328,1,1,1000,1000
1778788394.57928801,67764550,1,0.0011509511386975646,0.0009768286254256964,0.0008555398671887815,-0.002362474100664258,-0.0019039430189877748,-9.815343856811523,0,0,28.94159698486328,1,1,760,800
1778788394.61927199,67804534,0,0.0009473656537011266,0.0009348219609819353,0.000933865609113127,-0.0009542775806039572,-0.00017290945106651634,-9.81767463684082,0,0,28.943737030029297,1,1,1000,1000
1778788394.61927199,67804534,1,0.0012046642368659377,0.0008574522798880935,0.000990687869489193,-0.0009709587320685387,0.0001792683469830081,-9.820109367370605,0,0,28.943737030029297,1,1,760,800
1778788394.65925598,67844518,0,0.0009592319838702679,0.0009522230830043554,0.001018214039504528,-0.0006902500172145665,-0.0016061931382864714,-9.817742347717285,0,0,28.945878982543945,1,1,1000,1000
1778788394.65925598,67844518,1,0.001023715129122138,0.0010422349441796541,0.0010020134504884481,-0.0021040625870227814,-0.0029073795303702354,-9.816306114196777,0,0,28.945878982543945,1,1,760,800
1778788394.69923997,67884502,0,0.0009234260069206357,0.0009733196930028498,0.0009308453882113099,-0.000540121691301465,-0.0006051306845620275,-9.817185401916504,0,0,28.94801902770996,1,1,1000,1000
1778788394.69923997,67884502,1,0.0009345611906610429,0.00097364914836362,0.0008885878487490118,-0.0013181453105062246,-0.0020240508019924164,-9.815282821655273,0,0,28.94801902770996,1,1,760,800
1778788394.73922396,67924486,0,0.000988287036307156,0.0009600030025467277,0.0009483049507252872,-0.0010190722532570362,-0.0016084357630461454,-9.816383361816406,0,0,28.950159072875977,1,1,1000,1000
1778788394.73922396,67924486,1,0.0010957956546917558,0.0010396051220595837,0.001206638989970088,-0.0033120447769761086,0.001099148765206337,-9.818302154541016,0,0,28.950159072875977,1,1,760,800
1778788394.77920794,67964470,0,0.0009483940666541457,0.0008974568918347359,0.0009283902472816408,-0.00019215932115912437,-0.0005688828532584012,-9.818248748779297,0,0,28.952299118041992,1,1,1000,1000
1778788394.77920794,67964470,1,0.001195652293972671,0.0008672543917782605,0.0009393537184223533,0.000963549711741507,0.0013369908556342125,-9.817110061645508,0,0,28.952299118041992,1,1,760,800
1778788394.82002497,68005287,0,0.0009715293417684734,0.0009296322241425514,0.0009784456342458725,-0.0011655406560748816,-0.0005457959487102926,-9.817564964294434,0,0,28.954490661621094,1,1,1000,1000
1778788394.82002497,68005287,1,0.0008238839218392968,0.0009006777545437217,0.0008767810650169849,-0.003564543556421995,-0.0023956415243446827,-9.818473815917969,0,0,28.954439163208008,1,1,760,800
1778788394.86000896,68045271,0,0.0009610098786652088,0.0009418274275958538,0.0009505270863883197,-0.0007023471989668906,-0.0011163917370140553,-9.817209243774414,0,0,28.95663070678711,1,1,1000,1000
1778788394.86000896,68045271,1,0.0008789738640189171,0.0010388026712462306,0.0009110703831538558,0.0001424972142558545,-0.000762824434787035,-9.815670013427734,0,0,28.95657730102539,1,1,760,800
1778788394.89999294,68085255,0,0.0009556295699439943,0.0008438543882220984,0.0009711541933938861,-0.0012794759823009372,-0.0016802665777504444,-9.818389892578125,0,0,28.958770751953125,1,1,1000,1000
1778788394.89999294,68085255,1,0.000915306678507477,0.0010018670000135899,0.000730051368009299,-0.002681455574929714,-0.0004271975194569677,-9.819998741149902,0,0,28.958717346191406,1,1,760,800
1778788394.93997693,68125239,0,0.0010510084684938192,0.0009634508169256151,0.000975729082711041,-0.0010605104034766555,0.00031086342642083764,-9.8172025680542,0,0,28.960908889770508,1,1,1000,1000
1778788394.93997693,68125239,1,0.0011108246399089694,0.000792837527114898,0.0009505937341600657,0.0020312252454459667,0.00017878074140753597,-9.816957473754883,0,0,28.96085548400879,1,1,760,800
1778788394.97996092,68165223,0,0.0010065584210678935,0.0009807131718844175,0.0009540608734823763,-0.0017173690721392632,-0.0008136335527524352,-9.816817283630371,0,0,28.962993621826172,1,1,1000,1000
1778788394.97996092,68165223,1,0.0008913691272027791,0.0008231341489590704,0.0012800073018297553,-0.0024346306454390287,-0.0018633239669725299,-9.815881729125977,0,0,28.962993621826172,1,1,760,800
1778788395.01994514,68205207,0,0.0009648608393035829,0.0008970886701717973,0.0009566923836246133,-0.0004203514545224607,-0.0012191690038889647,-9.818320274353027,0,0,28.965131759643555,1,1,1000,1000
1778788395.01994514,68205207,1,0.0008049934986047447,0.0008832388557493687,0.0012699683429673314,-0.005320825148373842,-0.0027646776288747787,-9.81991195678711,0,0,28.965131759643555,1,1,760,800
1778788395.05992913,68245191,0,0.0010167440632358193,0.0009288904839195311,0.0009430883219465613,-0.0005566106410697103,-0.0017835107864812016,-9.81635856628418,0,0,28.967269897460938,1,1,1000,1000
1778788395.05992913,68245191,1,0.0010713479714468122,0.0009125382057391107,0.0009646255057305098,-0.0006270866142585874,-0.0009066059719771147,-9.816941261291504,0,0,28.967269897460938,1,1,760,800
1778788395.09991312,68285175,0,0.0009269526926800609,0.0010278507834300399,0.0009967188816517591,0.00014047724835108966,-0.001075947773642838,-9.817687034606934,0,0,28.969406127929688,1,1,1000,1000
1778788395.09991312,68285175,1,0.0008026814321056008,0.0008571604266762733,0.0009747815784066916,-0.003368407255038619,-0.002093292074277997,-9.815813064575195,0,0,28.969406127929688,1,1,760,800
1778788395.13989711,68325159,0,0.0009292520699091256,0.0009313445189036429,0.0010488132247701287,-0.0007470836280845106,-0.0008420448866672814,-9.817700386047363,0,0,28.97154426574707,1,1,1000,1000
1778788395.13989711,68325159,1,0.0009966825600713491,0.0010021745692938566,0.000929417903535068,0.0023398036137223244,-0.000648438697680831,-9.817811012268066,0,0,28.97154426574707,1,1,760,800
1778788395.17988110,68365143,0,0.0009796759113669395,0.0009631673456169665,0.0009061958407983184,-0.0013975795591250062,-0.00013076062896288931,-9.81652545928955,0,0,28.973682403564453,1,1,1000,1000
1778788395.17988110,68365143,1,0.0007794360863044858,0.000907413603272289,0.0010663364082574844,-0.0005431720637716353,-0.0006474463152699172,-9.815536499023438,0,0,28.973682403564453,1,1,760,800
1778788395.21986508,68405127,0,0.0009919030126184225,0.0009314038325101137,0.0009932953398674726,-0.00023331298143602908,-0.0005399534711614251,-9.817441940307617,0,0,28.975818634033203,1,1,1000,1000
1778788395.21986508,68405127,1,0.000929716567043215,0.0009519566665403545,0.0014637907734140754,-0.002718981122598052,-0.0018506936030462384,-9.817462921142578,0,0,28.975818634033203,1,1,760,800
1778788395.25984907,68445111,0,0.0009382917196489871,0.0009764829301275313,0.0009323991253040731,-0.0007896761526353657,-0.0020165788009762764,-9.81672477722168,0,0,28.977954864501953,1,1,1000,1000
1778788395.25984907,68445111,1,0.0012025635223835707,0.0008314242586493492,0.0006661394727416337,0.0005855793133378029,-0.0010608459124341607,-9.81966781616211,0,0,28.977954864501953,1,1,760,800
1778788395.29983306,68485095,0,0.0009305819403380156,0.0010174931958317757,0.0010384890483692288,-0.00017319789913017303,-0.00018818789976648986,-9.816143989562988,0,0,28.980091094970703,1,1,1000,1000
1778788395.29983306,68485095,1,0.0009064607438631356,0.0011632335372269154,0.000901182065717876,-0.0022340668365359306,-0.0003524239582475275,-9.816535949707031,0,0,28.980091094970703,1,1,760,800
1778788395.33981705,68525079,0,0.0009194340091198683,0.0009522274485789239,0.0009437653352506459,-0.0016205727588385344,-0.0017704839119687676,-9.817145347595215,0,0,28.982227325439453,1,1,1000,1000
1778788395.33981705,68525079,1,0.0009367497987113893,0.0008334041340276599,0.0006718640797771513,-0.0006455967668443918,-0.0003532338887453079,-9.816749572753906,0,0,28.982227325439453,1,1,760,800
1778788395.37980103,68565063,0,0.0009470269433222711,0.0009749979944899678,0.0009961473988369107,-0.0004573655314743519,-0.0009392548818141222,-9.816435813903809,0,0,28.98441505432129,1,1,1000,1000
1778788395.37980103,68565063,1,0.000819446868263185,0.0010734960669651628,0.000957254902459681,-9.919505100697279e-05,-0.0017255623824894428,-9.81566047668457,0,0,28.98441505432129,1,1,760,800
1778788395.41978502,68605047,0,0.000993030029349029,0.0009868761990219355,0.0010131988674402237,-0.0009371495107188821,-0.00018580393225420266,-9.818270683288574,0,0,28.98655128479004,1,1,1000,1000
1778788395.41978502,68605047,1,0.0010062652872875333,0.0009530907846055925,0.0008642655448056757,0.0004794232954736799,-0.0038584652356803417,-9.816730499267578,0,0,28.98655128479004,1,1,760,800
1778788395.45976901,68645031,0,0.0009596855961717665,0.0009659465285949409,0.0010031127603724599,-0.0012722352985292673,-0.001261651748791337,-9.817062377929688,0,0,28.988685607910156,1,1,1000,1000
1778788395.45976901,68645031,1,0.0009536055731587112,0.00098033482208848,0.0009569068788550794,-0.002591652562841773,-0.0016436040168628097,-9.814229965209961,0,0,28.988685607910156,1,1,760,800
1778788395.49975300,68685015,0,0.0010097997728735209,0.0010691010393202305,0.0009662546217441559,-0.0012857711408287287,-0.0006662564119324088,-9.817819595336914,0,0,28.990819931030273,1,1,1000,1000
1778788395.49975300,68685015,1,0.001072758692316711,0.0007584640989080071,0.0009496592683717608,-0.00234278105199337,-0.002878667786717415,-9.819697380065918,0,0,28.990819931030273,1,1,760,800
1778788395.53973699,68724999,0,0.0009577472810633481,0.0009494349360466003,0.0009531796677038074,-0.0005033835768699646,0.00024369615130126476,-9.817218780517578,0,0,28.992902755737305,1,1,1000,1000
1778788395.53973699,68724999,1,0.0010743647580966353,0.0008772140135988593,0.0010284828022122383,-0.0005110030760988593,-0.0024948283098638058,-9.817758560180664,0,0,28.992902755737305,1,1,760,800
1778788395.57972097,68764983,0,0.0009569289395585656,0.0009953496046364307,0.000944192404858768,-0.001257717376574874,-0.0018117001745849848,-9.817431449890137,0,0,28.99503517150879,1,1,1000,1000
1778788395.57972097,68764983,1,0.0011365601094439626,0.0010216591181233525,0.0011780626373365521,-0.0023969002068042755,0.0003037875285372138,-9.818315505981445,0,0,28.99503517150879,1,1,760,800
1778788395.61970496,68804967,0,0.0009473313111811876,0.0010108489077538252,0.0010650221956893802,-0.001411154866218567,-0.0013068423140794039,-9.818746566772461,0,0,28.997169494628906,1,1,1000,1000
1778788395.61970496,68804967,1,0.0008941743290051818,0.0007010925328359008,0.000899115577340126,-0.0012863584561273456,-0.00024145303177647293,-9.818619728088379,0,0,28.997169494628906,1,1,760,800
1778788395.65968895,68844951,0,0.0009047393104992807,0.0008997407276183367,0.0010169936576858163,-0.0013805112103000283,-2.530822530388832e-05,-9.817536354064941,0,0,28.999303817749023,1,1,1000,1000
1778788395.65968895,68844951,1,0.001160401152446866,0.001196577912196517,0.0008588517084717751,-0.0003452954115346074,0.002456468064337969,-9.819339752197266,0,0,28.999303817749023,1,1,760,800
1778788395.69967294,68884935,0,0.0010401175823062658,0.0009409550111740828,0.0010582620743662119,-0.00024966985802166164,-0.0006507121142931283,-9.819687843322754,0,0,29.001436233520508,1,1,1000,1000
1778788395.69967294,68884935,1,0.0010535833425819874,0.0009750569006428123,0.0010548471473157406,0.00017906188440974802,-0.002134129870682955,-9.817906379699707,0,0,29.001436233520508,1,1,760,800
1778788395.73965693,68924919,0,0.0009427173645235598,0.0009353901259601116,0.0009438558481633663,-0.0014905063435435295,-0.0021138216834515333,-9.818645477294922,0,0,29.003570556640625,1,1,1000,1000
1778788395.73965693,68924919,1,0.0009672775049693882,0.001103825168684125,0.0012659084750339389,-0.0005097466055303812,-0.0011251000687479973,-9.817235946655273,0,0,29.003570556640625,1,1,760,800
1778788395.77964115,68964903,0,0.0009207827388308942,0.0009934717090800405,0.0009558337042108178,-0.0011359468335285783,-0.0009328768937848508,-9.817816734313965,0,0,29.00570297241211,1,1,1000,1000
1778788395.77964115,68964903,1,0.0009190638083964586,0.0009334057685919106,0.0009571093833073974,0.002802085131406784,-0.001552759320475161,-9.818029403686523,0,0,29.00570297241211,1,1,760,800
1778788395.81962514,69004887,0,0.0009587837848812342,0.0008918792009353638,0.0009305589483119547,-0.0012747414875775576,-0.001516391639597714,-9.817944526672363,0,0,29.007835388183594,1,1,1000,1000
1778788395.81962514,69004887,1,0.000845036469399929,0.0008864981937222183,0.0008886178256943822,-0.0031484002247452736,-0.0023118031676858664,-9.816265106201172,0,0,29.007835388183594,1,1,760,800
1778788395.85960913,69044871,0,0.0010197458323091269,0.0009905716869980097,0.0010292138904333115,-0.0020110681653022766,-0.0011921327095478773,-9.817174911499023,0,0,29.009967803955078,1,1,1000,1000
1778788395.85960913,69044871,1,0.0010686228051781654,0.0009230384603142738,0.0009201338980346918,-0.0016350243240594864,0.0010113132884725928,-9.815571784973145,0,0,29.009967803955078,1,1,760,800
1778788395.89959311,69084855,0,0.0009672842570580542,0.000913547002710402,0.0009780758991837502,-0.0007225553854368627,-0.0009518585866317153,-9.816997528076172,0,0,29.012100219726562,1,1,1000,1000
1778788395.89959311,69084855,1,0.001116544590331614,0.0009457903215661645,0.0009833177318796515,-0.0017289654351770878,-0.0003865935141220689,-9.818964004516602,0,0,29.012100219726562,1,1,760,800
1778788395.93957710,69124839,0,0.0009636262548156083,0.0010233009234070778,0.0009369570179842412,-0.001689522061496973,-0.001035394030623138,-9.817608833312988,0,0,29.014230728149414,1,1,1000,1000
1778788395.93957710,69124839,1,0.000968659995123744,0.0008036926155909896,0.0009160907356999815,0.00022680783877149224,-2.1440275304485112e-05,-9.815686225891113,0,0,29.014230728149414,1,1,760,800
1778788395.97956109,69164823,0,0.0010197337251156569,0.0009312198380939662,0.0010142686078324914,-0.0014530159533023834,-0.0017950042383745313,-9.817153930664062,0,0,29.016361236572266,1,1,1000,1000
1778788395.97956109,69164823,1,0.0007718629203736782,0.000942167651373893,0.0009497212013229728,-0.0011426546843722463,-0.0015680514043197036,-9.818090438842773,0,0,29.016361236572266,1,1,760,800
1778788396.01954508,69204807,0,0.0009337732335552573,0.0010334855178371072,0.0009473214740864933,-0.0010305632604286075,-0.0017918606754392385,-9.817591667175293,0,0,29.01849365234375,1,1,1000,1000
1778788396.01954508,69204807,1,0.0010000243782997131,0.0010073285084217787,0.0009097661240957677,-0.00176241563167423,-0.0002619775477796793,-9.819931030273438,0,0,29.01849365234375,1,1,760,800
1778788396.05952907,69244791,0,0.0009711067541502416,0.0009678846108727157,0.0010294661624357104,-0.0012257599737495184,-0.0007497326005250216,-9.818412780761719,0,0,29.02062225341797,1,1,1000,1000
1778788396.05952907,69244791,1,0.000950804736930877,0.0009072974207811058,0.0007021973142400384,-0.002988473977893591,-0.00017998817202169448,-9.816689491271973,0,0,29.02062225341797,1,1,760,800
1778788396.09951305,69284775,0,0.0009735104395076632,0.0010274251690134406,0.0009539345046505332,-0.0006639911443926394,-0.001138853607699275,-9.8180570602417,0,0,29.022754669189453,1,1,1000,1000
1778788396.09951305,69284775,1,0.0010332257952541113,0.000859311141539365,0.0010379672748968005,0.0006029476644471288,-0.0004941052757203579,-9.817559242248535,0,0,29.022754669189453,1,1,760,800
1778788396.13949704,69324759,0,0.0009779806714504957,0.0009798251558095217,0.0010763261234387755,-0.0014603737508878112,-0.0011304913787171245,-9.816576957702637,0,0,29.024885177612305,1,1,1000,1000
1778788396.13949704,69324759,1,0.0009757953812368214,0.0010318370768800378,0.001185510540381074,-0.002488940255716443,-0.0003854020033031702,-9.815902709960938,0,0,29.024885177612305,1,1,760,800
1778788396.17948103,69364743,0,0.0009259932558052242,0.0009127767407335341,0.0009995006257668138,-0.0005884417332708836,-0.0014642809983342886,-9.817058563232422,0,0,29.027013778686523,1,1,1000,1000
1778788396.17948103,69364743,1,0.0008338416228070855,0.0009213827433995903,0.0008594493847340345,-0.0019313010852783918,-0.0010613023769110441,-9.81549072265625,0,0,29.027013778686523,1,1,760,800
1778788396.21946502,69404727,0,0.001006843987852335,0.00097616296261549,0.0009429032797925174,-0.0015583733329549432,-0.0003650040307547897,-9.81637191772461,0,0,29.029144287109375,1,1,1000,1000
1778788396.21946502,69404727,1,0.0010429976973682642,0.0009386009769514203,0.000941603328101337,-0.0028387263882905245,-0.0007741039735265076,-9.8201265335083,0,0,29.029144287109375,1,1,760,800
1778788396.25944901,69444711,0,0.0009947875514626503,0.0009492791723459959,0.000990268774330616,-0.001580187352374196,-0.0013572530588135123,-9.817253112792969,0,0,29.031272888183594,1,1,1000,1000
1778788396.25944901,69444711,1,0.0009971184190362692,0.0009278549114242196,0.000891100789885968,-0.0003366176679264754,-0.0009025469189509749,-9.816654205322266,0,0,29.031272888183594,1,1,760,800
1778788396.29943299,69484695,0,0.0010076833423227072,0.0009455708786845207,0.000956666306592524,-0.001138016115874052,-0.0009621686185710132,-9.817425727844238,0,0,29.033401489257812,1,1,1000,1000
1778788396.29943299,69484695,1,0.0009579031611792743,0.0009593189461156726,0.0011917318915948272,-0.0018276483751833439,-0.005735061597079039,-9.815752029418945,0,0,29.033401489257812,1,1,760,800
1778788396.33941698,69524679,0,0.0010113440221175551,0.000979502685368061,0.0009856963297352195,-0.0011984771117568016,-0.0010602421825751662,-9.81684684753418,0,0,29.03553009033203,1,1,1000,1000
1778788396.33941698,69524679,1,0.0008975841337814927,0.0009974807035177946,0.0011483273701742291,0.0008950313786044717,-0.0009278593934141099,-9.818052291870117,0,0,29.03553009033203,1,1,760,800
1778788396.37940097,69564663,0,0.001010268577374518,0.0009907992789521813,0.0009243977256119251,-0.00014472212933469564,-0.0019520263886079192,-9.817512512207031,0,0,29.03765869140625,1,1,1000,1000
1778788396.37940097,69564663,1,0.0009727478609420359,0.0010633545462042093,0.0009971244726330042,0.0004699317505583167,-0.0009988534729927778,-9.816959381103516,0,0,29.03765869140625,1,1,760,800
1778788396.41938496,69604647,0,0.0009812021162360907,0.0009746231371536851,0.0010343611938878894,-0.0007482973160222173,-0.0008735093288123608,-9.818294525146484,0,0,29.03978729248047,1,1,1000,1000
1778788396.41938496,69604647,1,0.0011201633606106043,0.0008707247325219214,0.0008600980509072542,-0.0011296611046418548,0.001034311717376113,-9.81778621673584,0,0,29.03978729248047,1,1,760,800
1778788396.45936894,69644631,0,0.00103915692307055,0.000977603835053742,0.0010015075094997883,-0.0009195230668410659,-0.0012604801449924707,-9.817028999328613,0,0,29.041915893554688,1,1,1000,1000
1778788396.45936894,69644631,1,0.0008711447007954121,0.001137993298470974,0.0010768463835120201,-0.002104168524965644,-0.0009843087755143642,-9.816585540771484,0,0,29.041915893554688,1,1,760,800
1778788396.49935293,69684615,0,0.0009670168510638177,0.0009800082771107554,0.0009296465432271361,-0.0008267431985586882,-0.000985402031801641,-9.817087173461914,0,0,29.044042587280273,1,1,1000,1000
1778788396.49935293,69684615,1,0.0010694143129512668,0.0009910771623253822,0.0010685146553441882,-0.0016175503842532635,-0.0006126549560576677,-9.817587852478027,0,0,29.044042587280273,1,1,760,800
1778788396.53933692,69724599,0,0.0009835002711042762,0.0009750537574291229,0.0010004087816923857,-0.0006511211977340281,-0.0004530599690042436,-9.817325592041016,0,0,29.04616928100586,1,1,1000,1000
1778788396.53933692,69724599,1,0.0007154117920435965,0.0009475306142121553,0.0010590008459985256,-0.00047326323692686856,3.103489871136844e-05,-9.816842079162598,0,0,29.04616928100586,1,1,760,800
1778788396.57932115,69764583,0,0.0009701302042230964,0.001029352773912251,0.0010493258014321327,-0.0014295217115432024,-0.0011453013867139816,-9.818320274353027,0,0,29.048297882080078,1,1,1000,1000
1778788396.57932115,69764583,1,0.0008740698685869575,0.0010369663359597325,0.0009370867628604174,-0.0008232694817706943,0.0002987957850564271,-9.817121505737305,0,0,29.048297882080078,1,1,760,800
1778788396.61930513,69804567,0,0.001007608138024807,0.0009946555364876986,0.0010129227302968502,-0.0006513671251013875,-0.0012858681147918105,-9.816723823547363,0,0,29.050424575805664,1,1,1000,1000
1778788396.61930513,69804567,1,0.0010030075209215283,0.0008094673976302147,0.0010340508306398988,-0.0003400163841433823,-0.0013770617078989744,-9.816486358642578,0,0,29.050424575805664,1,1,760,800
1778788396.65928912,69844551,0,0.0009779194369912148,0.0009987454395741224,0.00099375715944916,-0.0006078724982216954,-0.001222970662638545,-9.818031311035156,0,0,29.052549362182617,1,1,1000,1000
1778788396.65928912,69844551,1,0.001012706896290183,0.0010095799807459116,0.0009468143689446151,0.0004850820987485349,0.000691718072630465,-9.819272994995117,0,0,29.052549362182617,1,1,760,800
1778788396.69927311,69884535,0,0.0009882820304483175,0.0009709142614156008,0.0010401798645034432,-0.001515232608653605,-0.0011359602212905884,-9.816645622253418,0,0,29.054676055908203,1,1,1000,1000
1778788396.69927311,69884535,1,0.0010421945480629802,0.0008577760308980942,0.0009578748140484095,-0.0003781510458793491,-0.0011992384679615498,-9.816617965698242,0,0,29.054676055908203,1,1,760,800
1778788396.73925710,69924519,0,0.0010224184952676296,0.000992575311101973,0.0009126468212343752,-0.0013764820760115981,-0.0008236574940383434,-9.81672477722168,0,0,29.056800842285156,1,1,1000,1000
1778788396.73925710,69924519,1,0.0008672956610098481,0.0010588809382170439,0.0009100073948502541,0.001173454220406711,-0.0011531420750543475,-9.816306114196777,0,0,29.056800842285156,1,1,760,800
1778788396.77924109,69964503,0,0.000992301618680358,0.0009767560986801982,0.0009593102149665356,-0.001921395305544138,-0.0003266145649831742,-9.817708969116211,0,0,29.058927536010742,1,1,1000,1000
1778788396.77924109,69964503,1,0.0009858228731900454,0.0009034721879288554,0.0009215534664690495,-0.0033545310143381357,-8.288647222798318e-05,-9.818102836608887,0,0,29.058927536010742,1,1,760,800
1778788396.81922507,70004487,0,0.0009644880192354321,0.0010200651595368981,0.0009973538108170033,0.0003715943021234125,-0.0016007318627089262,-9.817456245422363,0,0,29.061052322387695,1,1,1000,1000
1778788396.81922507,70004487,1,0.0008625441114418209,0.0008362066582776606,0.0010497855255380273,0.00035113177727907896,0.0011569440830498934,-9.818477630615234,0,0,29.061052322387695,1,1,760,800
1778788396.85920906,70044471,0,0.000942076207138598,0.000962963153142482,0.0009698011563159525,-0.001157185179181397,-0.001904423232190311,-9.816539764404297,0,0,29.06317901611328,1,1,1000,1000
1778788396.85920906,70044471,1,0.0009201972279697657,0.0007583670085296035,0.0007543468382209539,-0.001757713151164353,-0.003420153632760048,-9.818282127380371,0,0,29.06317901611328,1,1,760,800
1778788396.90002608,70085288,0,0.001011897111311555,0.0010196797084063292,0.0009942699689418077,-0.0007778687868267298,-0.0011170539073646069,-9.817697525024414,0,0,29.065357208251953,1,1,1000,1000
1778788396.90002608,70085288,1,0.0008777700131759048,0.000979273347184062,0.0009848183253780007,-0.0010647374438121915,0.0006996362935751677,-9.817028045654297,0,0,29.065303802490234,1,1,760,800
1778788396.94001007,70125272,0,0.001010426552966237,0.0009623212390579283,0.0009620528435334563,-0.00034813201637007296,-0.000408177322242409,-9.817407608032227,0,0,29.067480087280273,1,1,1000,1000
1778788396.94001007,70125272,1,0.0010497244074940681,0.000954735791310668,0.0009521624306216836,-0.0005040516844019294,-0.0017834105528891087,-9.819171905517578,0,0,29.067428588867188,1,1,760,800
1778788396.97999406,70165256,0,0.0009944727644324303,0.0009588263346813619,0.0009723503026179969,-0.00011073691712226719,-0.00035357006709091365,-9.818429946899414,0,0,29.069604873657227,1,1,1000,1000
1778788396.97999406,70165256,1,0.0009994753636419773,0.0011065676808357239,0.0008549141348339617,-0.0038415819872170687,-0.0016932976432144642,-9.817327499389648,0,0,29.069551467895508,1,1,760,800
1778788397.01997805,70205240,0,0.0009872252121567726,0.000976660754531622,0.0010161615209653974,-0.0003893575049005449,-0.0011986179742962122,-9.817572593688965,0,0,29.071727752685547,1,1,1000,1000
1778788397.01997805,70205240,1,0.001029094448313117,0.001067100907675922,0.0011143237352371216,-0.00200732983648777,-0.001485333894379437,-9.817943572998047,0,0,29.071674346923828,1,1,760,800
1778788397.05996203,70245224,0,0.0010015241568908095,0.0009913211688399315,0.0010264276061207056,-0.0010104670654982328,-0.0017308734823018312,-9.818033218383789,0,0,29.07379913330078,1,1,1000,1000
1778788397.05996203,70245224,1,0.0011068008607253432,0.0009735592757351696,0.0009874739916995168,-0.0025247232988476753,-0.001008031191304326,-9.816515922546387,0,0,29.07379913330078,1,1,760,800
1778788397.09994602,70285208,0,0.0009926063939929008,0.0010067680850625038,0.0009971087565645576,-0.0014574989909306169,-0.0014832585584372282,-10.003396034240723,0,0,29.075923919677734,1,1,1000,1000
1778788397.09994602,70285208,1,0.0009775847429409623,0.0009730781894177198,0.0012066493509337306,-0.00010152039612876251,6.554399442393333e-05,-10.005574226379395,0,0,29.075923919677734,1,1,760,800
1778788397.13993001,70325192,0,0.0010043317452073097,0.0009889876237139106,0.0010274825617671013,-0.0009296637726947665,-0.0010136353084817529,-10.502392768859863,0,0,29.078044891357422,1,1,1000,1000
1778788397.13993001,70325192,1,0.0010089629795402288,0.0009135769796557724,0.0011413635220378637,-0.0005950387567281723,-0.0011283954372629523,-10.501659393310547,0,0,29.078044891357422,1,1,760,800
1778788397.17991400,70365176,0,0.0009626141982153058,0.0009936043061316013,0.0010103464592248201,-0.0013327320339158177,-0.0010603959672152996,-10.395122528076172,0,0,29.080169677734375,1,1,1000,1000
1778788397.17991400,70365176,1,0.0010776338167488575,0.0010121484519913793,0.0009403741569258273,-0.002123957732692361,-0.0007121004164218903,-10.394464492797852,0,0,29.080169677734375,1,1,760,800
1778788397.21989799,70405160,0,0.001013061497360468,0.0010228753089904785,0.0010453755967319012,-0.001437728526070714,-0.001918438239954412,-10.363421440124512,0,0,29.082290649414062,1,1,1000,1000
1778788397.21989799,70405160,1,0.000884388922713697,0.000741541211027652,0.001007342361845076,-9.691843297332525e-05,-0.0009916891576722264,-10.363616943359375,0,0,29.082290649414062,1,1,760,800
1778788397.25988197,70445144,0,0.0010202236007899046,0.0009559229947626591,0.000983675243332982,-0.0012382295681163669,-0.0014557014219462872,-10.400712966918945,0,0,29.084413528442383,1,1,1000,1000
1778788397.25988197,70445144,1,0.0011365131940692663,0.0009146863012574613,0.0010501367505639791,-0.0013702900614589453,-0.00184880499728024,-10.400989532470703,0,0,29.084413528442383,1,1,760,800
1778788397.29986596,70485128,0,0.0009456148836761713,0.001026918413117528,0.0010516226757317781,-0.001722607295960188,-0.0008290936821140349,-10.390869140625,0,0,29.08653450012207,1,1,1000,1000
1778788397.29986596,70485128,1,0.001004609395749867,0.0009816153906285763,0.0011098908726125956,-0.002719331067055464,-0.001168795395642519,-10.390789031982422,0,0,29.08653450012207,1,1,760,800
1778788397.33984995,70525112,0,0.001039218856021762,0.0009827283211052418,0.0009742291877046227,-0.00027221901109442115,-0.001365286880172789,-10.360889434814453,0,0,29.08865737915039,1,1,1000,1000
1778788397.33984995,70525112,1,0.000988150597549975,0.0011005558772012591,0.0010291642975062132,0.000978170894086361,-0.0009743485134094954,-10.361909866333008,0,0,29.08865737915039,1,1,760,800
1778788397.37983394,70565096,0,0.0010122419334948063,0.0010578776709735394,0.0009923696052283049,-0.0010131638264283538,-0.00024257235054392368,-10.341657638549805,0,0,29.090778350830078,1,1,1000,1000
1778788397.37983394,70565096,1,0.001157283317297697,0.001040349598042667,0.0009275562479160726,-0.001545915030874312,0.0008881074609234929,-10.344233512878418,0,0,29.090778350830078,1,1,760,800
1778788397.41981792,70605080,0,0.001016553957015276,0.0009922379394993186,0.0010209844913333654,-0.0015157341258600354,-0.0027251108549535275,-10.336435317993164,0,0,29.092899322509766,1,1,1000,1000
1778788397.41981792,70605080,1,0.0009235265315510333,0.0010257663670927286,0.0009803298162296414,0.0026663902681320906,0.0012585223885253072,-10.335208892822266,0,0,29.092899322509766,1,1,760,800
1778788397.45980215,70645064,0,0.0009898991556838155,0.0009829270420596004,0.0009736423380672932,-0.0007755543338134885,-0.0009360844269394875,-10.340020179748535,0,0,29.095073699951172,1,1,1000,1000
1778788397.45980215,70645064,1,0.0011480492539703846,0.0008768044644966722,0.0010426775552332401,-0.001929023303091526,0.0003326323931105435,-10.340876579284668,0,0,29.095073699951172,1,1,760,800
1778788397.49978614,70685048,0,0.000987929292023182,0.0010034649167209864,0.0010600604582577944,-0.00035262980964034796,-0.0014572814106941223,-10.351202011108398,0,0,29.09719467163086,1,1,1000,1000
1778788397.49978614,70685048,1,0.0008409737492911518,0.0009890052024275064,0.000993045512586832,0.0004608004237525165,0.0002668165252543986,-10.35240364074707,0,0,29.09719467163086,1,1,760,800
1778788397.53977013,70725032,0,0.0009932960383594036,0.0009840254206210375,0.0010488819098100066,-0.0010957859922200441,-0.0006314035272225738,-10.366983413696289,0,0,29.099313735961914,1,1,1000,1000
1778788397.53977013,70725032,1,0.0009618130279704928,0.0011130860075354576,0.0009396568639203906,-0.000966416671872139,-0.0001762135943863541,-10.367371559143066,0,0,29.099313735961914,1,1,760,800
1778788397.57975411,70765016,0,0.0009631269495002925,0.00101150618866086,0.000990441651083529,-0.0014134987723082304,-0.0008817611960694194,-10.382652282714844,0,0,29.10143280029297,1,1,1000,1000
1778788397.57975411,70765016,1,0.0009759333916008472,0.0009723405819386244,0.001129413372837007,-0.0006303599802777171,-0.0022603219840675592,-10.377836227416992,0,0,29.10143280029297,1,1,760,800
1778788397.61973810,70805000,0,0.0009631901048123837,0.000990676344372332,0.0010399330640211701,-0.0008745135273784399,-0.0016925676027312875,-10.39805793762207,0,0,29.103553771972656,1,1,1000,1000
1778788397.61973810,70805000,1,0.00100907392334193,0.0011247105430811644,0.0009469618089497089,-0.003008254338055849,-0.0005084184231236577,-10.396459579467773,0,0,29.103553771972656,1,1,760,800
1778788397.65972209,70844984,0,0.0010446474188938737,0.0010056131286546588,0.000958041287958622,-0.00042884357389993966,-0.002119652461260557,-10.41465950012207,0,0,29.105619430541992,1,1,1000,1000
1778788397.65972209,70844984,1,0.000859936757478863,0.0009222424123436213,0.001009266939945519,-0.002418627729639411,-0.002573230303823948,-10.413738250732422,0,0,29.105619430541992,1,1,760,800
1778788397.69970608,70884968,0,0.0009332436602562666,0.0010128321591764688,0.0010289507918059826,-0.0007305524777621031,-0.001718682935461402,-10.427777290344238,0,0,29.107738494873047,1,1,1000,1000
1778788397.69970608,70884968,1,0.0011671311222016811,0.000977015821263194,0.0008936211233958602,-0.0017694401321932673,-0.0009958134032785892,-10.427787780761719,0,0,29.107738494873047,1,1,760,800
1778788397.73969007,70924952,0,0.001030940213240683,0.001003266661427915,0.0009935263078659773,-0.001505699590779841,-0.0004453174478840083,-10.448966979980469,0,0,29.109859466552734,1,1,1000,1000
1778788397.73969007,70924952,1,0.0009408282348886132,0.0009847485926002264,0.0008968639886006713,0.0008584735332988203,-0.0009035676484927535,-10.450891494750977,0,0,29.109859466552734,1,1,760,800
1778788397.77967405,70964936,0,-0.015692632645368576,-0.015436947345733643,0.0010973539901897311,-0.00023165906895883381,-0.0011440340895205736,-13.600114822387695,0,0,29.111976623535156,1,1,1000,1000
1778788397.77967405,70964936,1,-0.015915080904960632,-0.015367529354989529,0.0012587085366249084,-0.002830738900229335,-0.0016877952730283141,-13.61231517791748,0,0,29.111976623535156,1,1,760,800
1778788397.81965804,71004920,0,-0.01976698637008667,-0.01872454211115837,0.0012411110801622272,-0.0032043294049799442,0.0010487181134521961,-15.151910781860352,0,0,29.114093780517578,1,1,1000,1000
1778788397.81965804,71004920,1,-0.019698049873113632,-0.018729016184806824,0.0011525243753567338,-0.0029817409813404083,0.0009586162632331252,-15.153495788574219,0,0,29.114093780517578,1,1,760,800
1778788397.85964203,71044904,0,-0.01784529723227024,-0.017853498458862305,0.001467870781198144,-0.008168913424015045,0.007153346203267574,-14.639036178588867,0,0,29.1162109375,1,1,1000,1000
1778788397.85964203,71044904,1,-0.017841622233390808,-0.017682388424873352,0.0016026418888941407,-0.007018662989139557,0.005889997351914644,-14.634614944458008,0,0,29.1162109375,1,1,760,800
1778788397.89962602,71084888,0,-0.015568815171718597,-0.015820685774087906,0.001600191812030971,-0.012968531809747219,0.01088692806661129,-13.532173156738281,0,0,29.118330001831055,1,1,1000,1000
1778788397.89962602,71084888,1,-0.01571909710764885,-0.015826478600502014,0.0017522138077765703,-0.012513736262917519,0.010769736021757126,-13.527594566345215,0,0,29.118330001831055,1,1,760,800
1778788397.93961000,71124872,0,-0.013960233889520168,-0.01259991992264986,0.0016839834861457348,-0.015162374824285507,0.0142905805259943,-12.29330062866211,0,0,29.120447158813477,1,1,1000,1000
1778788397.93961000,71124872,1,-0.01395041961222887,-0.012513874098658562,0.0017790567362681031,-0.014212672598659992,0.012218108400702477,-12.289278984069824,0,0,29.120447158813477,1,1,760,800
1778788397.97959399,71164856,0,-0.011279473081231117,-0.00959794968366623,0.001660608104430139,-0.014960994012653828,0.012878254055976868,-11.160771369934082,0,0,29.1225643157959,1,1,1000,1000
1778788397.97959399,71164856,1,-0.011106426827609539,-0.009535250253975391,0.0017733130371198058,-0.015965895727276802,0.014508619904518127,-11.16057300567627,0,0,29.1225643157959,1,1,760,800
1778788398.01957798,71204840,0,-0.006705029401928186,-0.006436405703425407,0.0017183374147862196,-0.011818300001323223,0.01097652968019247,-10.24938678741455,0,0,29.12468147277832,1,1,1000,1000
1778788398.01957798,71204840,1,-0.006842592731118202,-0.006417218130081892,0.001764044165611267,-0.008260669186711311,0.0106305330991745,-10.24980354309082,0,0,29.12468147277832,1,1,760,800
1778788398.05956197,71244824,0,-0.0038068273570388556,-0.0033117751590907574,0.00165469478815794,-0.009514918550848961,0.007172581274062395,-9.610183715820312,0,0,29.12679672241211,1,1,1000,1000
1778788398.05956197,71244824,1,-0.003880416741594672,-0.0034141619689762592,0.0016779600409790874,-0.00967065803706646,0.005691135302186012,-9.611787796020508,0,0,29.12679672241211,1,1,760,800
1778788398.09954596,71284808,0,-0.0008443334372714162,-0.00046126110828481615,0.0017207445343956351,-0.006130107678472996,0.0019419175805523992,-9.278079986572266,0,0,29.12891387939453,1,1,1000,1000
1778788398.09954596,71284808,1,-0.0008691269904375076,-0.0003764767316170037,0.0016910489648580551,-0.004724089987576008,0.004276046063750982,-9.27916145324707,0,0,29.12891387939453,1,1,760,800
1778788398.13952994,71324792,0,0.0016165683045983315,0.002047467976808548,0.0017111871857196093,-0.002143367426469922,0.001006328733637929,-9.177408218383789,0,0,29.131031036376953,1,1,1000,1000
1778788398.13952994,71324792,1,0.00169157306663692,0.002117732772603631,0.0017313077114522457,-0.0037293469067662954,-0.0004032733559142798,-9.179844856262207,0,0,29.131031036376953,1,1,760,800
1778788398.17951393,71364776,0,0.0044754971750080585,0.00392908975481987,0.0016718313563615084,-0.0008159340941347182,-0.0011428025318309665,-9.263212203979492,0,0,29.133146286010742,1,1,1000,1000
1778788398.17951393,71364776,1,0.004416370764374733,0.003752858843654394,0.0016510506393387914,-0.002260178793221712,-0.0011515694204717875,-9.263619422912598,0,0,29.133146286010742,1,1,760,800
1778788398.21949792,71404760,0,0.00570289883762598,0.006303390488028526,0.0017447104910388589,-0.0003470051451586187,-0.001228999113664031,-9.46231460571289,0,0,29.13526153564453,1,1,1000,1000
1778788398.21949792,71404760,1,0.005431900266557932,0.006088698748499155,0.0017138811526820064,0.0008159255376085639,-0.0023568393662571907,-9.465998649597168,0,0,29.13526153564453,1,1,760,800
1778788398.25948215,71444744,0,0.007316523231565952,0.007552572526037693,0.0016638648230582476,-0.0011116679525002837,-0.0010910936398431659,-9.726895332336426,0,0,29.13737678527832,1,1,1000,1000
1778788398.25948215,71444744,1,0.007163419388234615,0.0074708666652441025,0.0017486417200416327,-0.0016387898940593004,0.00036887609167024493,-9.729907035827637,0,0,29.13737678527832,1,1,760,800
1778788398.29946613,71484728,0,0.008266218937933445,0.00787431001663208,0.0016210731118917465,-0.0012132329866290092,-0.00014316443412099034,-10.003192901611328,0,0,29.13949203491211,1,1,1000,1000
1778788398.29946613,71484728,1,0.008236775174736977,0.007960155606269836,0.0015486443880945444,-0.0002661497564986348,-0.00023601435532327741,-10.002190589904785,0,0,29.13949203491211,1,1,760,800
1778788398.33945012,71524712,0,0.010162771679461002,0.00919368490576744,0.001625876291655004,-0.0023674690164625645,0.0009977458976209164,-10.259150505065918,0,0,29.141605377197266,1,1,1000,1000
1778788398.33945012,71524712,1,0.009991662576794624,0.009140494279563427,0.001590062165632844,-0.003238630946725607,0.0002143731981050223,-10.261515617370605,0,0,29.141605377197266,1,1,760,800
1778788398.37943411,71564696,0,0.011142434552311897,0.010891874320805073,0.001630975166335702,-0.0032179870177060366,0.002295966260135174,-10.470193862915039,0,0,29.143720626831055,1,1,1000,1000
1778788398.37943411,71564696,1,0.011031460016965866,0.010786402970552444,0.0015353603521361947,-0.0034628689754754305,-0.0012174334842711687,-10.469706535339355,0,0,29.143720626831055,1,1,760,800
1778788398.41941810,71604680,0,0.010643416084349155,0.01074310950934887,0.0015362841077148914,-0.004895223770290613,0.002909609582275152,-10.638961791992188,0,0,29.14583396911621,1,1,1000,1000
1778788398.41941810,71604680,1,0.0104645611718297,0.010716518387198448,0.0015903915045782924,-0.006161549128592014,0.002583371941000223,-10.637901306152344,0,0,29.14583396911621,1,1,760,800
1778788398.45940208,71644664,0,0.01226465031504631,0.01097314152866602,0.0014967157039791346,-0.004823246970772743,0.003234634641557932,-10.752931594848633,0,0,29.14794921875,1,1,1000,1000
1778788398.45940208,71644664,1,0.012285841628909111,0.010918162763118744,0.0015032461378723383,-0.004510986618697643,0.00118185393512249,-10.755301475524902,0,0,29.14794921875,1,1,760,800
1778788398.49938607,71684648,0,0.009059075266122818,0.007007370702922344,0.0014980609994381666,-0.005403162911534309,0.0033586344216018915,-10.817626953125,0,0,29.150062561035156,1,1,1000,1000
1778788398.49938607,71684648,1,0.009057402610778809,0.007084439974278212,0.001338763628154993,-0.00852130725979805,0.005757872015237808,-10.815449714660645,0,0,29.150062561035156,1,1,760,800
1778788398.53937006,71724632,0,0.011349544860422611,0.010108084417879581,0.001504932763054967,-0.005002375692129135,0.0044735996052622795,-10.84604263305664,0,0,29.152175903320312,1,1,1000,1000
1778788398.53937006,71724632,1,0.011053667403757572,0.009968256577849388,0.0015470287762582302,-0.00667606433853507,0.004314618185162544,-10.847372055053711,0,0,29.152175903320312,1,1,760,800
1778788398.57935405,71764616,0,0.010097766295075417,0.008672598749399185,0.001425046008080244,-0.007515501230955124,0.004710218403488398,-10.872855186462402,0,0,29.154287338256836,1,1,1000,1000
1778788398.57935405,71764616,1,0.010109489783644676,0.008798785507678986,0.0014662763569504023,-0.00765157351270318,0.004252560902386904,-10.874107360839844,0,0,29.154287338256836,1,1,760,800
1778788398.61933804,71804600,0,0.009109479375183582,0.008821085095405579,0.0015440769493579865,-0.0076362378895282745,0.005594151094555855,-10.84228229522705,0,0,29.156400680541992,1,1,1000,1000
1778788398.61933804,71804600,1,0.008940869942307472,0.008875755593180656,0.0015454089734703302,-0.0067721884697675705,0.00508417934179306,-10.841875076293945,0,0,29.156400680541992,1,1,760,800
1778788398.65932202,71844584,0,0.009645526297390461,0.007261136546730995,0.0016427910886704922,-0.006452267058193684,0.0062608555890619755,-10.851972579956055,0,0,29.158512115478516,1,1,1000,1000
1778788398.65932202,71844584,1,0.009304234758019447,0.007281515747308731,0.0016160027589648962,-0.007876941934227943,0.004214178305119276,-10.850992202758789,0,0,29.158512115478516,1,1,760,800
1778788398.69930601,71884568,0,0.008984016254544258,0.0074494690634310246,0.0015436193207278848,-0.007977575995028019,0.00423917081207037,-10.819243431091309,0,0,29.160625457763672,1,1,1000,1000
1778788398.69930601,71884568,1,0.008875720202922821,0.0076770721934735775,0.0015974553534761071,-0.005806600209325552,0.0037332065403461456,-10.819829940795898,0,0,29.160625457763672,1,1,760,800
1778788398.73929000,71924552,0,0.004288678057491779,0.004882112145423889,0.0015029484638944268,-0.006184329744428396,0.004312232136726379,-10.814884185791016,0,0,29.162736892700195,1,1,1000,1000
1778788398.73929000,71924552,1,0.0041756173595786095,0.004947691224515438,0.0013983080862089992,-0.006991645786911249,0.00604243902489543,-10.815133094787598,0,0,29.162736892700195,1,1,760,800
1778788398.77927399,71964536,0,0.007730209268629551,0.0065818848088383675,0.0015712168533354998,-0.005574729293584824,0.005431721918284893,-10.810970306396484,0,0,29.16484832763672,1,1,1000,1000
