timestamp,TimeUS,I,GyrX,GyrY,GyrZ,AccX,AccY,AccZ,EG,EA,T,GH,AH,GHz,AHz
1778782185.06005621,68245191,0,0.0010167440632358193,0.0009288904839195311,0.0009430883219465613,-0.0005566106410697103,-0.0017835107864812016,-9.81635856628418,0,0,28.967269897460938,1,1,1000,1000
1778782185.06005621,68245191,1,0.0010713479714468122,0.0009125382057391107,0.0009646255057305098,-0.0006270866142585874,-0.0009066059719771147,-9.816941261291504,0,0,28.967269897460938,1,1,760,800
1778782185.10004020,68285175,0,0.0009269526926800609,0.0010278507834300399,0.0009967188816517591,0.00014047724835108966,-0.001075947773642838,-9.817687034606934,0,0,28.969406127929688,1,1,1000,1000
1778782185.10004020,68285175,1,0.0008026814321056008,0.0008571604266762733,0.0009747815784066916,-0.003368407255038619,-0.002093292074277997,-9.815813064575195,0,0,28.969406127929688,1,1,760,800
1778782185.14002419,68325159,0,0.0009292520699091256,0.0009313445189036429,0.0010488132247701287,-0.0007470836280845106,-0.0008420448866672814,-9.817700386047363,0,0,28.97154426574707,1,1,1000,1000
1778782185.14002419,68325159,1,0.0009966825600713491,0.0010021745692938566,0.000929417903535068,0.0023398036137223244,-0.000648438697680831,-9.817811012268066,0,0,28.97154426574707,1,1,760,800
1778782185.18000817,68365143,0,0.0009796759113669395,0.0009631673456169665,0.0009061958407983184,-0.0013975795591250062,-0.00013076062896288931,-9.81652545928955,0,0,28.973682403564453,1,1,1000,1000
1778782185.18000817,68365143,1,0.0007794360863044858,0.000907413603272289,0.0010663364082574844,-0.0005431720637716353,-0.0006474463152699172,-9.815536499023438,0,0,28.973682403564453,1,1,760,800
1778782185.21999216,68405127,0,0.0009919030126184225,0.0009314038325101137,0.0009932953398674726,-0.00023331298143602908,-0.0005399534711614251,-9.817441940307617,0,0,28.975818634033203,1,1,1000,1000
1778782185.21999216,68405127,1,0.000929716567043215,0.0009519566665403545,0.0014637907734140754,-0.002718981122598052,-0.0018506936030462384,-9.817462921142578,0,0,28.975818634033203,1,1,760,800
1778782185.25997615,68445111,0,0.0009382917196489871,0.0009764829301275313,0.0009323991253040731,-0.0007896761526353657,-0.0020165788009762764,-9.81672477722168,0,0,28.977954864501953,1,1,1000,1000
1778782185.25997615,68445111,1,0.0012025635223835707,0.0008314242586493492,0.0006661394727416337,0.0005855793133378029,-0.0010608459124341607,-9.81966781616211,0,0,28.977954864501953,1,1,760,800
1778782185.29996014,68485095,0,0.0009305819403380156,0.0010174931958317757,0.0010384890483692288,-0.00017319789913017303,-0.00018818789976648986,-9.816143989562988,0,0,28.980091094970703,1,1,1000,1000
1778782185.29996014,68485095,1,0.0009064607438631356,0.0011632335372269154,0.000901182065717876,-0.0022340668365359306,-0.0003524239582475275,-9.816535949707031,0,0,28.980091094970703,1,1,760,800
1778782185.33994412,68525079,0,0.0009194340091198683,0.0009522274485789239,0.0009437653352506459,-0.0016205727588385344,-0.0017704839119687676,-9.817145347595215,0,0,28.982227325439453,1,1,1000,1000
1778782185.33994412,68525079,1,0.0009367497987113893,0.0008334041340276599,0.0006718640797771513,-0.0006455967668443918,-0.0003532338887453079,-9.816749572753906,0,0,28.982227325439453,1,1,760,800
1778782185.37992811,68565063,0,0.0009470269433222711,0.0009749979944899678,0.0009961473988369107,-0.0004573655314743519,-0.0009392548818141222,-9.816435813903809,0,0,28.98441505432129,1,1,1000,1000
1778782185.37992811,68565063,1,0.000819446868263185,0.0010734960669651628,0.000957254902459681,-9.919505100697279e-05,-0.0017255623824894428,-9.81566047668457,0,0,28.98441505432129,1,1,760,800
1778782185.41991210,68605047,0,0.000993030029349029,0.0009868761990219355,0.0010131988674402237,-0.0009371495107188821,-0.00018580393225420266,-9.818270683288574,0,0,28.98655128479004,1,1,1000,1000
1778782185.41991210,68605047,1,0.0010062652872875333,0.0009530907846055925,0.0008642655448056757,0.0004794232954736799,-0.0038584652356803417,-9.816730499267578,0,0,28.98655128479004,1,1,760,800
1778782185.45989609,68645031,0,0.0009596855961717665,0.0009659465285949409,0.0010031127603724599,-0.0012722352985292673,-0.001261651748791337,-9.817062377929688,0,0,28.988685607910156,1,1,1000,1000
1778782185.45989609,68645031,1,0.0009536055731587112,0.00098033482208848,0.0009569068788550794,-0.002591652562841773,-0.0016436040168628097,-9.814229965209961,0,0,28.988685607910156,1,1,760,800
1778782185.49988008,68685015,0,0.0010097997728735209,0.0010691010393202305,0.0009662546217441559,-0.0012857711408287287,-0.0006662564119324088,-9.817819595336914,0,0,28.990819931030273,1,1,1000,1000
1778782185.49988008,68685015,1,0.001072758692316711,0.0007584640989080071,0.0009496592683717608,-0.00234278105199337,-0.002878667786717415,-9.819697380065918,0,0,28.990819931030273,1,1,760,800
1778782185.53986406,68724999,0,0.0009577472810633481,0.0009494349360466003,0.0009531796677038074,-0.0005033835768699646,0.00024369615130126476,-9.817218780517578,0,0,28.992902755737305,1,1,1000,1000
1778782185.53986406,68724999,1,0.0010743647580966353,0.0008772140135988593,0.0010284828022122383,-0.0005110030760988593,-0.0024948283098638058,-9.817758560180664,0,0,28.992902755737305,1,1,760,800
1778782185.57984805,68764983,0,0.0009569289395585656,0.0009953496046364307,0.000944192404858768,-0.001257717376574874,-0.0018117001745849848,-9.817431449890137,0,0,28.99503517150879,1,1,1000,1000
1778782185.57984805,68764983,1,0.0011365601094439626,0.0010216591181233525,0.0011780626373365521,-0.0023969002068042755,0.0003037875285372138,-9.818315505981445,0,0,28.99503517150879,1,1,760,800
1778782185.61983204,68804967,0,0.0009473313111811876,0.0010108489077538252,0.0010650221956893802,-0.001411154866218567,-0.0013068423140794039,-9.818746566772461,0,0,28.997169494628906,1,1,1000,1000
1778782185.61983204,68804967,1,0.0008941743290051818,0.0007010925328359008,0.000899115577340126,-0.0012863584561273456,-0.00024145303177647293,-9.818619728088379,0,0,28.997169494628906,1,1,760,800
1778782185.65981603,68844951,0,0.0009047393104992807,0.0008997407276183367,0.0010169936576858163,-0.0013805112103000283,-2.530822530388832e-05,-9.817536354064941,0,0,28.999303817749023,1,1,1000,1000
1778782185.65981603,68844951,1,0.001160401152446866,0.001196577912196517,0.0008588517084717751,-0.0003452954115346074,0.002456468064337969,-9.819339752197266,0,0,28.999303817749023,1,1,760,800
1778782185.69980001,68884935,0,0.0010401175823062658,0.0009409550111740828,0.0010582620743662119,-0.00024966985802166164,-0.0006507121142931283,-9.819687843322754,0,0,29.001436233520508,1,1,1000,1000
1778782185.69980001,68884935,1,0.0010535833425819874,0.0009750569006428123,0.0010548471473157406,0.00017906188440974802,-0.002134129870682955,-9.817906379699707,0,0,29.001436233520508,1,1,760,800
1778782185.73978400,68924919,0,0.0009427173645235598,0.0009353901259601116,0.0009438558481633663,-0.0014905063435435295,-0.0021138216834515333,-9.818645477294922,0,0,29.003570556640625,1,1,1000,1000
1778782185.73978400,68924919,1,0.0009672775049693882,0.001103825168684125,0.0012659084750339389,-0.0005097466055303812,-0.0011251000687479973,-9.817235946655273,0,0,29.003570556640625,1,1,760,800
1778782185.77976823,68964903,0,0.0009207827388308942,0.0009934717090800405,0.0009558337042108178,-0.0011359468335285783,-0.0009328768937848508,-9.817816734313965,0,0,29.00570297241211,1,1,1000,1000
1778782185.77976823,68964903,1,0.0009190638083964586,0.0009334057685919106,0.0009571093833073974,0.002802085131406784,-0.001552759320475161,-9.818029403686523,0,0,29.00570297241211,1,1,760,800
1778782185.81975222,69004887,0,0.0009587837848812342,0.0008918792009353638,0.0009305589483119547,-0.0012747414875775576,-0.001516391639597714,-9.817944526672363,0,0,29.007835388183594,1,1,1000,1000
1778782185.81975222,69004887,1,0.000845036469399929,0.0008864981937222183,0.0008886178256943822,-0.0031484002247452736,-0.0023118031676858664,-9.816265106201172,0,0,29.007835388183594,1,1,760,800
1778782185.85973620,69044871,0,0.0010197458323091269,0.0009905716869980097,0.0010292138904333115,-0.0020110681653022766,-0.0011921327095478773,-9.817174911499023,0,0,29.009967803955078,1,1,1000,1000
1778782185.85973620,69044871,1,0.0010686228051781654,0.0009230384603142738,0.0009201338980346918,-0.0016350243240594864,0.0010113132884725928,-9.815571784973145,0,0,29.009967803955078,1,1,760,800
1778782185.89972019,69084855,0,0.0009672842570580542,0.000913547002710402,0.0009780758991837502,-0.0007225553854368627,-0.0009518585866317153,-9.816997528076172,0,0,29.012100219726562,1,1,1000,1000
1778782185.89972019,69084855,1,0.001116544590331614,0.0009457903215661645,0.0009833177318796515,-0.0017289654351770878,-0.0003865935141220689,-9.818964004516602,0,0,29.012100219726562,1,1,760,800
1778782185.93970418,69124839,0,0.0009636262548156083,0.0010233009234070778,0.0009369570179842412,-0.001689522061496973,-0.001035394030623138,-9.817608833312988,0,0,29.014230728149414,1,1,1000,1000
1778782185.93970418,69124839,1,0.000968659995123744,0.0008036926155909896,0.0009160907356999815,0.00022680783877149224,-2.1440275304485112e-05,-9.815686225891113,0,0,29.014230728149414,1,1,760,800
1778782185.97968817,69164823,0,0.0010197337251156569,0.0009312198380939662,0.0010142686078324914,-0.0014530159533023834,-0.0017950042383745313,-9.817153930664062,0,0,29.016361236572266,1,1,1000,1000
1778782185.97968817,69164823,1,0.0007718629203736782,0.000942167651373893,0.0009497212013229728,-0.0011426546843722463,-0.0015680514043197036,-9.818090438842773,0,0,29.016361236572266,1,1,760,800
1778782186.01967216,69204807,0,0.0009337732335552573,0.0010334855178371072,0.0009473214740864933,-0.0010305632604286075,-0.0017918606754392385,-9.817591667175293,0,0,29.01849365234375,1,1,1000,1000
1778782186.01967216,69204807,1,0.0010000243782997131,0.0010073285084217787,0.0009097661240957677,-0.00176241563167423,-0.0002619775477796793,-9.819931030273438,0,0,29.01849365234375,1,1,760,800
1778782186.05965614,69244791,0,0.0009711067541502416,0.0009678846108727157,0.0010294661624357104,-0.0012257599737495184,-0.0007497326005250216,-9.818412780761719,0,0,29.02062225341797,1,1,1000,1000
1778782186.05965614,69244791,1,0.000950804736930877,0.0009072974207811058,0.0007021973142400384,-0.002988473977893591,-0.00017998817202169448,-9.816689491271973,0,0,29.02062225341797,1,1,760,800
1778782186.09964013,69284775,0,0.0009735104395076632,0.0010274251690134406,0.0009539345046505332,-0.0006639911443926394,-0.001138853607699275,-9.8180570602417,0,0,29.022754669189453,1,1,1000,1000
1778782186.09964013,69284775,1,0.0010332257952541113,0.000859311141539365,0.0010379672748968005,0.0006029476644471288,-0.0004941052757203579,-9.817559242248535,0,0,29.022754669189453,1,1,760,800
1778782186.13962412,69324759,0,0.0009779806714504957,0.0009798251558095217,0.0010763261234387755,-0.0014603737508878112,-0.0011304913787171245,-9.816576957702637,0,0,29.024885177612305,1,1,1000,1000
1778782186.13962412,69324759,1,0.0009757953812368214,0.0010318370768800378,0.001185510540381074,-0.002488940255716443,-0.0003854020033031702,-9.815902709960938,0,0,29.024885177612305,1,1,760,800
1778782186.17960811,69364743,0,0.0009259932558052242,0.0009127767407335341,0.0009995006257668138,-0.0005884417332708836,-0.0014642809983342886,-9.817058563232422,0,0,29.027013778686523,1,1,1000,1000
1778782186.17960811,69364743,1,0.0008338416228070855,0.0009213827433995903,0.0008594493847340345,-0.0019313010852783918,-0.0010613023769110441,-9.81549072265625,0,0,29.027013778686523,1,1,760,800
1778782186.21959209,69404727,0,0.000964024686254561,0.0009651181753724813,0.0009401473798789084,-0.0015583733329549432,-0.0003650040307547897,-9.81637191772461,0,0,29.029144287109375,1,1,1000,1000
1778782186.21959209,69404727,1,0.0009795904625207186,0.001074960920959711,0.0008853693725541234,-0.0028387263882905245,-0.0007741039735265076,-9.8201265335083,0,0,29.029144287109375,1,1,760,800
1778782186.25957608,69444711,0,0.0010148199507966638,0.0009515249403193593,0.0010594656923785806,-0.001580187352374196,-0.0013572530588135123,-9.817253112792969,0,0,29.031272888183594,1,1,1000,1000
1778782186.25957608,69444711,1,0.001000362797640264,0.0010817651636898518,0.0007665245793759823,-0.0003366176679264754,-0.0009025469189509749,-9.816654205322266,0,0,29.031272888183594,1,1,760,800
1778782186.29956007,69484695,0,0.0010171713074669242,0.0009952313266694546,0.0009591958951205015,-0.001138016115874052,-0.0009621686185710132,-9.817425727844238,0,0,29.033401489257812,1,1,1000,1000
1778782186.29956007,69484695,1,0.0009839030681177974,0.0009702467359602451,0.0013673005159944296,-0.0018276483751833439,-0.005735061597079039,-9.815752029418945,0,0,29.033401489257812,1,1,760,800
1778782186.33954406,69524679,0,0.0010045028757303953,0.0009327800944447517,0.0009720590896904469,-0.0011984771117568016,-0.0010602421825751662,-9.81684684753418,0,0,29.03553009033203,1,1,1000,1000
1778782186.33954406,69524679,1,0.0009601535275578499,0.0010096286423504353,0.0010768519714474678,0.0008950313786044717,-0.0009278593934141099,-9.818052291870117,0,0,29.03553009033203,1,1,760,800
1778782186.37952805,69564663,0,0.0010198411764577031,0.0010069385170936584,0.0009242857340723276,-0.00014288707461673766,-0.0019542963709682226,-9.817512512207031,0,0,29.03765869140625,1,1,1000,1000
1778782186.37952805,69564663,1,0.0009380172705277801,0.0009796821977943182,0.0011245760833844543,0.0004717628180515021,-0.0010010983096435666,-9.816959381103516,0,0,29.03765869140625,1,1,760,800
1778782186.41951203,69604647,0,0.0009475692640990019,0.000936598633415997,0.0011047759326174855,-0.0007472469005733728,-0.0008746411767788231,-9.818294525146484,0,0,29.03978729248047,1,1,1000,1000
1778782186.41951203,69604647,1,0.0011969098122790456,0.000987921841442585,0.0008009156445041299,-0.0011286406079307199,0.0010332314996048808,-9.81778621673584,0,0,29.03978729248047,1,1,760,800
1778782186.45949602,69644631,0,0.0010351322125643492,0.0010007410310208797,0.0010433101560920477,-0.0009192056604661047,-0.0012606724631041288,-9.817028999328613,0,0,29.041915893554688,1,1,1000,1000
1778782186.45949602,69644631,1,0.0009151157573796809,0.0009757218649610877,0.0010396032594144344,-0.002103856299072504,-0.0009844859596341848,-9.816585540771484,0,0,29.041915893554688,1,1,760,800
1778782186.49948001,69684615,0,0.0009584454819560051,0.0009409650228917599,0.00088172109099105,-0.0008268571691587567,-0.0009850587230175734,-9.817087173461914,0,0,29.044042587280273,1,1,1000,1000
1778782186.49948001,69684615,1,0.000977513031102717,0.0011416010092943907,0.0011346419341862202,-0.0016176679637283087,-0.0006123092607595026,-9.817587852478027,0,0,29.044042587280273,1,1,760,800
1778782186.53946400,69724599,0,0.0009880047291517258,0.0009664521785452962,0.0009933947585523129,-0.0006519042071886361,-0.00045225105714052916,-9.817325592041016,0,0,29.04616928100586,1,1,1000,1000
1778782186.53946400,69724599,1,0.0007376240100711584,0.0009568610694259405,0.00092634855536744,-0.0004740632139146328,3.18354504997842e-05,-9.816842079162598,0,0,29.04616928100586,1,1,760,800
1778782186.57944822,69764583,0,0.0009642175282351673,0.0010694180382415652,0.0010413244599476457,-0.0014302260242402554,-0.0011444174451753497,-9.818320274353027,0,0,29.048297882080078,1,1,1000,1000
1778782186.57944822,69764583,1,0.0008791256695985794,0.0010243692668154836,0.0008575458195991814,-0.0008239664020948112,0.0002996864204760641,-9.817121505737305,0,0,29.048297882080078,1,1,760,800
1778782186.61943221,69804567,0,0.0009946388890966773,0.0009800397092476487,0.0010182610712945461,-0.000652170623652637,-0.0012848596088588238,-9.816723823547363,0,0,29.050424575805664,1,1,1000,1000
1778782186.61943221,69804567,1,0.0011458754306659102,0.0008233917178586125,0.0011629892978817225,-0.00034088047686964273,-0.0013761159498244524,-9.816486358642578,0,0,29.050424575805664,1,1,760,800
1778782186.65941620,69844551,0,0.0010111574083566666,0.0010041542118415236,0.0010161339305341244,-0.0006087011424824595,-0.0012223045341670513,-9.818031311035156,0,0,29.052549362182617,1,1,1000,1000
1778782186.65941620,69844551,1,0.0008770546410232782,0.0009046902414411306,0.000897269113920629,0.00048431017785333097,0.0006924703484401107,-9.819272994995117,0,0,29.052549362182617,1,1,760,800
1778782186.69940019,69884535,0,0.0009974061977118254,0.0009629706619307399,0.001035872963257134,-0.0015156834851950407,-0.0011353099253028631,-9.816645622253418,0,0,29.054676055908203,1,1,1000,1000
1778782186.69940019,69884535,1,0.001033303327858448,0.0008693003910593688,0.0011456332867965102,-0.00037860541488043964,-0.0011985785095021129,-9.816617965698242,0,0,29.054676055908203,1,1,760,800
1778782186.73938417,69924519,0,0.00102730724029243,0.0010226673912256956,0.0009362707496620715,-0.0013768099015578628,-0.0008232526015490294,-9.81672477722168,0,0,29.056800842285156,1,1,1000,1000
1778782186.73938417,69924519,1,0.0007404627976939082,0.0010264243464916945,0.0008223355398513377,0.0011731245322152972,-0.001152746845036745,-9.816306114196777,0,0,29.056800842285156,1,1,760,800
1778782186.77936816,69964503,0,0.0010405227076262236,0.0009497181163169444,0.0009206961840391159,-0.0019215813372284174,-0.00032644590828567743,-9.817708969116211,0,0,29.058927536010742,1,1,1000,1000
1778782186.77936816,69964503,1,0.0009382373536936939,0.0008404829422943294,0.0006962075713090599,-0.0033547047059983015,-8.272226114058867e-05,-9.818102836608887,0,0,29.058927536010742,1,1,760,800
1778782186.81935215,70004487,0,0.0009539523744024336,0.0009931210661306977,0.0009719001827761531,0.00037139878259040415,-0.001600705785676837,-9.817456245422363,0,0,29.061052322387695,1,1,1000,1000
1778782186.81935215,70004487,1,0.0010364098707213998,0.0008134797681123018,0.0010003307834267616,0.0003509524976834655,0.0011569414054974914,-9.818477630615234,0,0,29.061052322387695,1,1,760,800
1778782186.85933614,70044471,0,0.0009332648478448391,0.0009194479207508266,0.0009595120791345835,-0.0011571530485525727,-0.0019045282388105989,-9.816539764404297,0,0,29.06317901611328,1,1,1000,1000
1778782186.85933614,70044471,1,0.0007858158787712455,0.0007445134688168764,0.0008388042915612459,-0.0017576728714630008,-0.0034202602691948414,-9.818282127380371,0,0,29.06317901611328,1,1,760,800
1778782186.89932013,70084455,0,0.0010812843684107065,0.0009897587588056922,0.0009294068440794945,-0.0008044526330195367,-0.001158657018095255,-9.817659378051758,0,0,29.065303802490234,1,1,1000,1000
1778782186.89932013,70084455,1,0.0008854276384226978,0.0009128414676524699,0.0008367960108444095,-0.0010646403534337878,0.0006994756404310465,-9.817028045654297,0,0,29.065303802490234,1,1,760,800
1778782186.93930411,70124439,0,0.0010053047444671392,0.0009884678293019533,0.0009704441181384027,-0.0003711783210746944,-0.00044237205293029547,-9.8174467086792,0,0,29.067428588867188,1,1,1000,1000
1778782186.93930411,70124439,1,0.0009714014595374465,0.0009304284467361867,0.0010683679720386863,-0.0005039499374106526,-0.0017835419857874513,-9.819171905517578,0,0,29.067428588867188,1,1,760,800
1778782186.97928810,70164423,0,0.0009453748352825642,0.0009420182323083282,0.0009399250848218799,-0.0001643631112528965,-0.00040141111821867526,-9.818330764770508,0,0,29.069551467895508,1,1,1000,1000
1778782186.97928810,70164423,1,0.0009911700617522001,0.001179949496872723,0.0009511179523542523,-0.003841455327346921,-0.001693429658189416,-9.817327499389648,0,0,29.069551467895508,1,1,760,800
1778782187.01927209,70204407,0,0.001026968122459948,0.0009375912486575544,0.0010613863123580813,-0.0003429515054449439,-0.00135971256531775,-9.817520141601562,0,0,29.071674346923828,1,1,1000,1000
1778782187.01927209,70204407,1,0.00103902374394238,0.0011685171630233526,0.001081641181372106,-0.0020072341430932283,-0.001485483138822019,-9.817943572998047,0,0,29.071674346923828,1,1,760,800
1778782187.05925608,70244391,0,0.0009982467163354158,0.0010029898257926106,0.0009901958983391523,-0.0010103887179866433,-0.0017309455433860421,-9.818033218383789,0,0,29.07379913330078,1,1,1000,1000
1778782187.05925608,70244391,1,0.001324532786384225,0.0009433353552594781,0.0010762884048745036,-0.002524647396057844,-0.0010080995270982385,-9.816515922546387,0,0,29.07379913330078,1,1,760,800
1778782187.09924006,70284375,0,0.0009768870659172535,0.0009657312766648829,0.0009651760919950902,-0.0014574120286852121,-0.0014833471504971385,-9.817671775817871,0,0,29.075923919677734,1,1,1000,1000
1778782187.09924006,70284375,1,0.0010034525766968727,0.0010117964120581746,0.0011865149717777967,-0.00010143445979338139,6.545381620526314e-05,-9.81806755065918,0,0,29.075923919677734,1,1,760,800
1778782187.13922405,70324359,0,0.001049237558618188,0.0009713630424812436,0.0010441243648529053,-0.000929497298784554,-0.0010138145880773664,-9.817633628845215,0,0,29.078044891357422,1,1,1000,1000
1778782187.13922405,70324359,1,0.0009950228268280625,0.000879691622685641,0.001078158849850297,-0.0005948726320639253,-0.0011285750661045313,-9.815343856811523,0,0,29.078044891357422,1,1,760,800
1778782187.18004107,70365176,0,0.0009552733972668648,0.0009527133661322296,0.001032244530506432,-0.0013325370382517576,-0.0010606077266857028,-9.817166328430176,0,0,29.080169677734375,1,1,1000,1000
1778782187.18004107,70365176,1,0.0010874122381210327,0.0009496900602243841,0.0008169925422407687,-0.0021237630862742662,-0.0007123118848539889,-9.816253662109375,0,0,29.080169677734375,1,1,760,800
1778782187.22002506,70405160,0,0.0009953225962817669,0.0010377204744145274,0.0010822601616382599,-0.0014375391183421016,-0.0019186411518603563,-9.817994117736816,0,0,29.082290649414062,1,1,1000,1000
1778782187.22002506,70405160,1,0.0006700903759337962,0.0007389414822682738,0.0009227924747392535,-9.673286695033312e-05,-0.0009918909054249525,-9.816969871520996,0,0,29.082290649414062,1,1,760,800
1778782187.26000905,70445144,0,0.0010107188718393445,0.0008830249425955117,0.001030416926369071,-0.0012380725238472223,-0.0014558713883161545,-9.817073822021484,0,0,29.084413528442383,1,1,1000,1000
1778782187.26000905,70445144,1,0.0012843499425798655,0.0010059052146971226,0.0010252571664750576,-0.0013701358111575246,-0.0018489717040210962,-9.816377639770508,0,0,29.084413528442383,1,1,760,800
1778782187.29999304,70485128,0,0.0009447635384276509,0.0010182949481531978,0.0010588717414066195,-0.0017224936746060848,-0.0008292183629237115,-9.817070007324219,0,0,29.08653450012207,1,1,1000,1000
1778782187.29999304,70485128,1,0.0010659672552719712,0.0009717222419567406,0.0009785247966647148,-0.0027192160487174988,-0.0011689169332385063,-9.815905570983887,0,0,29.08653450012207,1,1,760,800
1778782187.33997703,70525112,0,0.001024743658490479,0.0010194627102464437,0.0009386866586282849,-0.0002721510245464742,-0.0013653587084263563,-9.817214965820312,0,0,29.08865737915039,1,1,1000,1000
1778782187.33997703,70525112,1,0.00097564299358055,0.00103359657805413,0.001147631905041635,0.0009782395791262388,-0.0009744237759150565,-9.816730499267578,0,0,29.08865737915039,1,1,760,800
1778782187.37996101,70565096,0,0.0009841964347288013,0.0010461971396580338,0.0009727218421176076,-0.0010131356539204717,-0.00024260487407445908,-9.817144393920898,0,0,29.090778350830078,1,1,1000,1000
1778782187.37996101,70565096,1,0.0012301537208259106,0.0011938844108954072,0.000977631425485015,-0.0015458851121366024,0.0008880749810487032,-9.817797660827637,0,0,29.090778350830078,1,1,760,800
1778782187.41994500,70605080,0,0.0010228999890387058,0.0009773045312613249,0.001000432064756751,-0.001515735755674541,-0.002725101774558425,-9.817961692810059,0,0,29.092899322509766,1,1,1000,1000
1778782187.41994500,70605080,1,0.0009543593041598797,0.0009395168162882328,0.0009439195273444057,0.0026663895696401596,0.0012585223885253072,-9.81503677368164,0,0,29.092899322509766,1,1,760,800
1778782187.45992923,70645064,0,0.0010589060839265585,0.0009720058878883719,0.000950050656683743,-0.0007755806436762214,-0.0009360606200061738,-9.817564010620117,0,0,29.095073699951172,1,1,1000,1000
1778782187.45992923,70645064,1,0.0010749613866209984,0.0009114062413573265,0.001006921986117959,-0.0019290444906800985,0.000332655938109383,-9.81747817993164,0,0,29.095073699951172,1,1,760,800
1778782187.49991322,70685048,0,0.0010019156616181135,0.0010208517778664827,0.0010531842708587646,-0.00035266688792034984,-0.0014572421787306666,-9.817349433898926,0,0,29.09719467163086,1,1,1000,1000
1778782187.49991322,70685048,1,0.0007677610265091062,0.001038761343806982,0.0009762888075783849,0.00046076488797552884,0.00026685642660595477,-9.819464683532715,0,0,29.09719467163086,1,1,760,800
1778782187.53989720,70725032,0,0.000999760115519166,0.0009530025999993086,0.0010636845836415887,-0.0010958272032439709,-0.0006313595222309232,-9.818527221679688,0,0,29.099313735961914,1,1,1000,1000
1778782187.53989720,70725032,1,0.0009131603292189538,0.0011194192338734865,0.0009856288088485599,-0.0009664579993113875,-0.00017617073899600655,-9.819598197937012,0,0,29.099313735961914,1,1,760,800
1778782187.57988119,70765016,0,0.0009524913621135056,0.0009762437548488379,0.0009608211694285274,-0.001413540681824088,-0.0008817196357995272,-9.819005012512207,0,0,29.10143280029297,1,1,1000,1000
1778782187.57988119,70765016,1,0.0010131803574040532,0.0009310193709097803,0.0010886277304962277,-0.000630400434602052,-0.0022602765820920467,-9.814898490905762,0,0,29.10143280029297,1,1,760,800
1778782187.61986518,70805000,0,0.0009331637993454933,0.0009667776757851243,0.001044820062816143,-0.0008745491504669189,-0.0016925269737839699,-9.817687034606934,0,0,29.103553771972656,1,1,1000,1000
1778782187.61986518,70805000,1,0.0009383111028000712,0.001142681809142232,0.0010437523014843464,-0.003008286701515317,-0.0005083802388980985,-9.816495895385742,0,0,29.103553771972656,1,1,760,800
1778782187.65984917,70844984,0,0.0010384742636233568,0.0009938270086422563,0.0009435628307983279,-0.00042887352174147964,-0.0021196184679865837,-9.817767143249512,0,0,29.105619430541992,1,1,1000,1000
1778782187.65984917,70844984,1,0.0009374353685416281,0.0010880823247134686,0.0010566350538283587,-0.002418659860268235,-0.0025731991045176983,-9.816146850585938,0,0,29.105619430541992,1,1,760,800
1778782187.69983315,70884968,0,0.0009487724746577442,0.00099180918186903,0.0010645759757608175,-0.0007305777398869395,-0.0017186565091833472,-9.816535949707031,0,0,29.107738494873047,1,1,1000,1000
1778782187.69983315,70884968,1,0.0012474569957703352,0.00081155716907233,0.000960712437517941,-0.0017694622511044145,-0.0009957903530448675,-9.81650161743164,0,0,29.107738494873047,1,1,760,800
1778782187.73981714,70924952,0,0.001046092831529677,0.0009549796814098954,0.000957586569711566,-0.0015058164717629552,-0.0004451966960914433,-9.816559791564941,0,0,29.109859466552734,1,1,1000,1000
1778782187.73981714,70924952,1,0.0011143336305394769,0.0010768722277134657,0.0008749627158977091,0.0008583003655076027,-0.000903393782209605,-9.818035125732422,0,0,29.109859466552734,1,1,760,800
1778782187.77980113,70964936,0,0.0010511321015655994,0.0010519050993025303,0.0009792956989258528,-0.0004879203042946756,-0.0008813400054350495,-9.81710147857666,0,0,29.111976623535156,1,1,1000,1000
1778782187.77980113,70964936,1,0.0008669384988024831,0.0012384603032842278,0.0011100803967565298,-0.0030836667865514755,-0.0014284758362919092,-9.817679405212402,0,0,29.111976623535156,1,1,760,800
1778782187.81978512,71004920,0,0.000978945754468441,0.0009962208569049835,0.000985970487818122,-0.0006850338540971279,-0.0015841899439692497,-9.816766738891602,0,0,29.114093780517578,1,1,1000,1000
1778782187.81978512,71004920,1,0.0010663336142897606,0.0009849779307842255,0.0007024160586297512,-0.0004477943293750286,-0.0016897657187655568,-9.81800365447998,0,0,29.114093780517578,1,1,760,800
1778782187.85976911,71044904,0,0.000987741630524397,0.000945546489674598,0.0010301064467057586,-0.0007589029264636338,-0.0005999560235068202,-9.81745433807373,0,0,29.1162109375,1,1,1000,1000
1778782187.85976911,71044904,1,0.001076022512279451,0.0012390438932925463,0.0009923061588779092,0.000408356252592057,-0.0018805169966071844,-9.81689453125,0,0,29.1162109375,1,1,760,800
1778782187.89975309,71084888,0,0.0010031951824203134,0.000951482739765197,0.001032401924021542,-0.001132439007051289,-0.0014151196228340268,-9.818842887878418,0,0,29.118330001831055,1,1,1000,1000
1778782187.89975309,71084888,1,0.0008108492475003004,0.0008778673363849521,0.0010913413716480136,-0.0006806874298490584,-0.0015293075703084469,-9.818780899047852,0,0,29.118330001831055,1,1,760,800
1778782187.93973708,71124872,0,0.0010427222587168217,0.0009807944297790527,0.0009920268785208464,-0.0013310991926118731,-0.00025830999948084354,-9.817981719970703,0,0,29.120447158813477,1,1,1000,1000
1778782187.93973708,71124872,1,0.0012745297281071544,0.0010745726758614182,0.0011561547871679068,-0.00038184510776773095,-0.0023301797918975353,-9.81576156616211,0,0,29.120447158813477,1,1,760,800
1778782187.97972107,71164856,0,0.0010583547409623861,0.0010087382979691029,0.0009788015158846974,-0.0016917861066758633,-0.0011685078497976065,-9.818304061889648,0,0,29.1225643157959,1,1,1000,1000
1778782187.97972107,71164856,1,0.0011925770668312907,0.0011237405706197023,0.0012555173598229885,-0.0026953513734042645,0.0004606576985679567,-9.817708969116211,0,0,29.1225643157959,1,1,760,800
1778782188.01970506,71204840,0,0.0010453348513692617,0.000995494658127427,0.0010196188231930137,-0.001115932478569448,-0.00030700070783495903,-9.816993713378906,0,0,29.12468147277832,1,1,1000,1000
1778782188.01970506,71204840,1,0.0007887027459219098,0.0008882888359948993,0.0011911893961951137,0.002444181125611067,-0.000655599869787693,-9.816713333129883,0,0,29.12468147277832,1,1,760,800
1778782188.05968904,71244824,0,0.0010513811139389873,0.0010844056960195303,0.0009857125114649534,-0.0022637287620455027,-0.0004593065823428333,-9.816749572753906,0,0,29.12679672241211,1,1,1000,1000
1778782188.05968904,71244824,1,0.0009741971152834594,0.0010941168293356895,0.0009154576109722257,-0.002416596282273531,-0.0019437584560364485,-9.816041946411133,0,0,29.12679672241211,1,1,760,800
1778782188.09967303,71284808,0,0.0009896688861772418,0.0009502468165010214,0.0010239639086648822,-0.0022692398633807898,-0.0021139131858944893,-9.818608283996582,0,0,29.12891387939453,1,1,1000,1000
1778782188.09967303,71284808,1,0.0010639645624905825,0.0010350898373872042,0.0010123817482963204,-0.0008606815827079117,0.00021756987553089857,-9.81680965423584,0,0,29.12891387939453,1,1,760,800
1778782188.13965702,71324792,0,0.0009874097304418683,0.001008888822980225,0.000993262161500752,-0.0009257699130102992,-0.00026456094929017127,-9.816102981567383,0,0,29.131031036376953,1,1,1000,1000
1778782188.13965702,71324792,1,0.0010217365343123674,0.0009846973698586226,0.0010411444818601012,-0.0025098929181694984,-0.0016760777216404676,-9.816109657287598,0,0,29.131031036376953,1,1,760,800
1778782188.17964101,71364776,0,0.001005830941721797,0.0010431540431454778,0.0010039204498752952,-0.0011588000925257802,-0.0007655640365555882,-9.81706428527832,0,0,29.133146286010742,1,1,1000,1000
1778782188.17964101,71364776,1,0.0009248058777302504,0.0010235669324174523,0.0010049936827272177,-0.0026020121295005083,-0.0007754341932013631,-9.815725326538086,0,0,29.133146286010742,1,1,760,800
1778782188.21962500,71404760,0,0.0010668328031897545,0.0010426617227494717,0.0009773997589945793,-0.0012350397882983088,-0.0002564967726357281,-9.816308975219727,0,0,29.13526153564453,1,1,1000,1000
1778782188.21962500,71404760,1,0.0008805012330412865,0.0008975389646366239,0.0008825003169476986,-7.183891284512356e-05,-0.001384650357067585,-9.818187713623047,0,0,29.13526153564453,1,1,760,800
1778782188.25960922,71444744,0,0.0009971170220524073,0.0010079307248815894,0.0009948688093572855,-0.0016825690399855375,-0.00045239919563755393,-9.817102432250977,0,0,29.13737678527832,1,1,1000,1000
1778782188.25960922,71444744,1,0.0007535484619438648,0.0008849838050082326,0.0013671871274709702,-0.002210256177932024,0.0010081033688038588,-9.81946086883545,0,0,29.13737678527832,1,1,760,800
1778782188.29959321,71484728,0,0.0009484565234743059,0.0009517223807051778,0.0009641959914006293,-0.0009006334003061056,-0.0004361647297628224,-9.818422317504883,0,0,29.13949203491211,1,1,1000,1000
1778782188.29959321,71484728,1,0.0009563901112414896,0.0009896531701087952,0.0009405673481523991,4.278754204278812e-05,-0.0005251223919913173,-9.818140983581543,0,0,29.13949203491211,1,1,760,800
1778782188.33957720,71524712,0,0.0010416728910058737,0.0009987723315134645,0.0010444866493344307,-0.0009373505017720163,-0.0004918727790936828,-9.816542625427246,0,0,29.141605377197266,1,1,1000,1000
1778782188.33957720,71524712,1,0.0008211858803406358,0.0008781144279055297,0.0009457950945943594,-0.0018141911132261157,-0.001268997904844582,-9.82095718383789,0,0,29.141605377197266,1,1,760,800
1778782188.37956119,71564696,0,0.0009301770478487015,0.0010155488271266222,0.0011071464978158474,-0.0006532419356517494,-0.00039107707561925054,-9.817618370056152,0,0,29.143720626831055,1,1,1000,1000
1778782188.37956119,71564696,1,0.000979108503088355,0.0009173818398267031,0.0010070216376334429,-0.0009034790564328432,-0.00389881688170135,-9.818017959594727,0,0,29.143720626831055,1,1,760,800
1778782188.41954517,71604680,0,0.0010093817254528403,0.0009678039932623506,0.0009991666302084923,-0.0013529709540307522,-0.0008162150043062866,-9.817392349243164,0,0,29.14583396911621,1,1,1000,1000
1778782188.41954517,71604680,1,0.0008807111298665404,0.0008810863364487886,0.0011320402845740318,-0.002623226959258318,-0.0011382387019693851,-9.817253112792969,0,0,29.14583396911621,1,1,760,800
1778782188.45952916,71644664,0,0.001003323937766254,0.001049903454259038,0.0010729702189564705,-0.0005531618953682482,-0.0012967870570719242,-9.817606925964355,0,0,29.14794921875,1,1,1000,1000
1778782188.45952916,71644664,1,0.000998235889710486,0.0011206886265426874,0.000988104147836566,-0.00024416905944235623,-0.0033460999839007854,-9.820394515991211,0,0,29.14794921875,1,1,760,800
1778782188.49951315,71684648,0,0.001009008614346385,0.0009399205446243286,0.0009876283584162593,-0.0006561866612173617,-0.0017057966906577349,-9.818910598754883,0,0,29.150062561035156,1,1,1000,1000
1778782188.49951315,71684648,1,0.0009693230967968702,0.0010574404150247574,0.0008330940036103129,-0.0037757540121674538,0.0006949998787604272,-9.816906929016113,0,0,29.150062561035156,1,1,760,800
1778782188.53949714,71724632,0,0.0010611183242872357,0.0011057128431275487,0.0010122698731720448,0.00012739436351694167,-0.0009775222279131413,-9.816672325134277,0,0,29.152175903320312,1,1,1000,1000
1778782188.53949714,71724632,1,0.0008165681501850486,0.001026395708322525,0.001295916736125946,-0.001544687314890325,-0.0011383213568478823,-9.817630767822266,0,0,29.152175903320312,1,1,760,800
1778782188.57948112,71764616,0,0.0008866262505762279,0.0009594367584213614,0.001045841258019209,-0.002168915932998061,-0.0009721817914396524,-9.817861557006836,0,0,29.154287338256836,1,1,1000,1000
1778782188.57948112,71764616,1,0.0010960050858557224,0.0010739200515672565,0.0010160863166674972,-0.0023038641083985567,-0.0014306813245639205,-9.818792343139648,0,0,29.154287338256836,1,1,760,800
1778782188.61946511,71804600,0,0.0010104663670063019,0.0009891202207654715,0.0010039056651294231,-0.0021535158157348633,-0.00019908329704776406,-9.817282676696777,0,0,29.156400680541992,1,1,1000,1000
1778782188.61946511,71804600,1,0.0007885413942858577,0.0011131990468129516,0.0010673715732991695,-0.0012889985227957368,-0.0007095073233358562,-9.817169189453125,0,0,29.156400680541992,1,1,760,800
1778782188.65944910,71844584,0,0.001018294133245945,0.0010250979103147984,0.0010701577411964536,-0.0009023420279845595,0.0003853339876513928,-9.81796646118164,0,0,29.158512115478516,1,1,1000,1000
1778782188.65944910,71844584,1,0.0008713335264474154,0.0009682544623501599,0.0009833272779360414,-0.0023265182971954346,-0.001661735586822033,-9.817458152770996,0,0,29.158512115478516,1,1,760,800
1778782188.69943309,71884568,0,0.0010576267959550023,0.000977052259258926,0.000992501387372613,-0.0023724765051156282,-0.001690068980678916,-9.816301345825195,0,0,29.160625457763672,1,1,1000,1000
1778782188.69943309,71884568,1,0.0009456701809540391,0.001158249331638217,0.0011920466786250472,-0.0002013601188082248,-0.0021962039172649384,-9.817245483398438,0,0,29.160625457763672,1,1,760,800
1778782188.73941708,71924552,0,0.0010237933602184057,0.0010617051739245653,0.0010053213918581605,-0.0005750731215812266,-0.001589677995070815,-9.816997528076172,0,0,29.162736892700195,1,1,1000,1000
1778782188.73941708,71924552,1,0.0010371441021561623,0.0009223268134519458,0.0009261587983928621,-0.0013824435882270336,0.00014062225818634033,-9.81746768951416,0,0,29.162736892700195,1,1,760,800
1778782188.77940106,71964536,0,0.0010275165550410748,0.0010086323600262403,0.0009871067013591528,7.009296678006649e-05,-0.0005191924283280969,-9.818275451660156,0,0,29.16484832763672,1,1,1000,1000
1778782188.77940106,71964536,1,0.001162286614999175,0.0010624508140608668,0.0009919994045048952,-0.0004889711271971464,-0.00372128514572978,-9.81640338897705,0,0,29.16484832763672,1,1,760,800
1778782188.81938505,72004520,0,0.0010761646553874016,0.0010147554567083716,0.0010089094284921885,-0.00022234108473639935,-0.0004777158028446138,-9.816996574401855,0,0,29.166959762573242,1,1,1000,1000
1778782188.81938505,72004520,1,0.0009661127696745098,0.000959759287070483,0.0011503847781568766,-0.002040139166638255,-0.0008759789634495974,-9.81574821472168,0,0,29.166959762573242,1,1,760,800
1778782188.85936904,72044504,0,0.0010568407597020268,0.0010026306845247746,0.0009668667335063219,-0.0009067313512787223,-0.0003798810357693583,-9.818435668945312,0,0,29.169071197509766,1,1,1000,1000
1778782188.85936904,72044504,1,0.0010347553761675954,0.0009731731843203306,0.001136087579652667,-0.00138077512383461,-0.0028888152446597815,-9.815546035766602,0,0,29.169071197509766,1,1,760,800
1778782188.89935303,72084488,0,0.001038950402289629,0.0010063850786536932,0.0009805778972804546,-5.8180656196782365e-05,-0.0004124859697185457,-9.81833267211914,0,0,29.171180725097656,1,1,1000,1000
1778782188.89935303,72084488,1,0.0008711822447367013,0.0010283663868904114,0.0012337147491052747,-0.0005410516750998795,-0.00131955835968256,-9.818567276000977,0,0,29.171180725097656,1,1,760,800
1778782188.93933702,72124472,0,0.000996345654129982,0.0009932182729244232,0.0010277178371325135,-0.0009127446683123708,-0.0010512153385207057,-9.818178176879883,0,0,29.17329216003418,1,1,1000,1000
1778782188.93933702,72124472,1,0.0012480339501053095,0.0009131660917773843,0.0011851206654682755,-0.0003544241772033274,-0.0008110353373922408,-9.817779541015625,0,0,29.17329216003418,1,1,760,800
1778782188.97932100,72164456,0,0.0010565733537077904,0.0010517181362956762,0.0010128567228093743,-0.0018420343985781074,-0.00016749955830164254,-9.818565368652344,0,0,29.17540168762207,1,1,1000,1000
1778782188.97932100,72164456,1,0.0011189458891749382,0.0010148793226107955,0.0009999184403568506,-0.0010280376300215721,-0.0032335533760488033,-9.81492805480957,0,0,29.17540168762207,1,1,760,800
1778782189.01930523,72204440,0,0.001045533106662333,0.0010236361995339394,0.0010845789220184088,-0.0011259402381256223,-0.0018607790116220713,-9.816255569458008,0,0,29.17751121520996,1,1,1000,1000
1778782189.01930523,72204440,1,0.0007159874076023698,0.0009368857135996222,0.0010741270380094647,-0.00013297444093041122,-0.002937580458819866,-9.818205833435059,0,0,29.17751121520996,1,1,760,800
1778782189.05928922,72244424,0,0.0010807779617607594,0.0010019526816904545,0.0009131322149187326,-0.0003155797894578427,-0.001770723843947053,-9.816570281982422,0,0,29.17962074279785,1,1,1000,1000
1778782189.05928922,72244424,1,0.0011642880272120237,0.0010140070226043463,0.0006532726110890508,-0.0008784743258729577,-0.0009140088804997504,-9.816737174987793,0,0,29.17962074279785,1,1,760,800
1778782189.09927320,72284408,0,0.0010254803346469998,0.0011196811683475971,0.0010133974719792604,-0.0008376673795282841,-0.00044776577851735055,-9.818099021911621,0,0,29.18172836303711,1,1,1000,1000
1778782189.09927320,72284408,1,0.0010496017057448626,0.0011556835379451513,0.001194408512674272,-0.0012395191006362438,-0.0015237771440297365,-9.818058013916016,0,0,29.18172836303711,1,1,760,800
1778782189.13925719,72324392,0,0.0010729011846706271,0.0010432039853185415,0.0010827368823811412,-0.00265313358977437,-0.0006900517037138343,-9.817501068115234,0,0,29.183839797973633,1,1,1000,1000
1778782189.13925719,72324392,1,0.0010912803700193763,0.0010903497459366918,0.0010168589651584625,0.0016368483193218708,0.0007729436620138586,-9.819509506225586,0,0,29.183839797973633,1,1,760,800
1778782189.17924118,72364376,0,0.0009915137197822332,0.001042112591676414,0.0009737773216329515,-0.0016495094168931246,-0.0018621517810970545,-9.817293167114258,0,0,29.18594741821289,1,1,1000,1000
1778782189.17924118,72364376,1,0.001322953961789608,0.0011444403789937496,0.000830155098810792,-0.0016419549938291311,0.00011191132216481492,-9.818704605102539,0,0,29.18594741821289,1,1,760,800
1778782189.21922517,72404360,0,0.0009273147443309426,0.0010916870087385178,0.0010581410024315119,-0.001197868143208325,-0.00023012432211544365,-9.81747817993164,0,0,29.18805694580078,1,1,1000,1000
1778782189.21922517,72404360,1,0.001092727528885007,0.001106377225369215,0.001005289377644658,-0.0011183505412191153,-0.0006868915515951812,-9.817425727844238,0,0,29.18805694580078,1,1,760,800
1778782189.26004219,72445177,0,0.0010296870023012161,0.0010417974554002285,0.001052433392032981,-0.000988595886155963,-0.001829908462241292,-9.817736625671387,0,0,29.19016456604004,1,1,1000,1000
1778782189.26004219,72445177,1,0.001131952740252018,0.0011331660207360983,0.001009355764836073,-3.326204023323953e-06,-0.001897146925330162,-9.818758964538574,0,0,29.19016456604004,1,1,760,800
1778782189.30002618,72485161,0,0.0010124334366992116,0.0010604634881019592,0.0010059381602331996,-0.0010998707730323076,-0.001149868592619896,-9.818473815917969,0,0,29.192272186279297,1,1,1000,1000
1778782189.30002618,72485161,1,0.0010100387735292315,0.0008902526460587978,0.001005483907647431,-0.0038689072243869305,-0.001975663471966982,-9.815507888793945,0,0,29.192272186279297,1,1,760,800
1778782189.34001017,72525145,0,0.0009670810541138053,0.0009944658959284425,0.0010108522837981582,0.0002840595261659473,-0.0007923410157673061,-9.816481590270996,0,0,29.194379806518555,1,1,1000,1000
1778782189.34001017,72525145,1,0.0010193424532189965,0.0010067950934171677,0.001141740707680583,3.8280453736661e-05,0.0004988596774637699,-9.818472862243652,0,0,29.194379806518555,1,1,760,800
1778782189.37999415,72565129,0,0.0010058028856292367,0.000966944673564285,0.0010574625339359045,-0.0012153818970546126,-0.0007903894293121994,-9.818330764770508,0,0,29.196487426757812,1,1,1000,1000
1778782189.37999415,72565129,1,0.0009016235126182437,0.0009184021037071943,0.0008975451346486807,0.0019446088699623942,-4.104485924472101e-06,-9.818137168884277,0,0,29.196487426757812,1,1,760,800
1778782189.41997814,72605113,0,0.0009423966403119266,0.001128469011746347,0.0010858576279133558,-0.0006165640079416335,-0.0010635324288159609,-9.817774772644043,0,0,29.198593139648438,1,1,1000,1000
1778782189.41997814,72605113,1,0.0008219080045819283,0.0008736738236621022,0.0011248691007494926,-0.0012389400508254766,-0.0014853801112622023,-9.817930221557617,0,0,29.198593139648438,1,1,760,800
1778782189.45996213,72645097,0,0.0010669762268662453,0.0010544219985604286,0.0009870624635368586,-0.00034864721237681806,-0.000314067438011989,-9.817864418029785,0,0,29.200700759887695,1,1,1000,1000
1778782189.45996213,72645097,1,0.0011368755949661136,0.0010277749970555305,0.0010451702401041985,-0.0024775273632258177,-0.003041364485397935,-9.817602157592773,0,0,29.200700759887695,1,1,760,800
1778782189.49994612,72685081,0,0.0010166768915951252,0.001033475622534752,0.0011499912943691015,-0.0008694324060343206,-0.001370286918245256,-9.817131996154785,0,0,29.20280647277832,1,1,1000,1000
1778782189.49994612,72685081,1,0.0012072360841557384,0.0009987236699089408,0.0008094455115497112,-0.0028867973014712334,0.0002855049096979201,-9.819931983947754,0,0,29.20280647277832,1,1,760,800
1778782189.53993011,72725065,0,0.0010711085051298141,0.0010152491740882397,0.0009895177790895104,-0.0012973850825801492,-0.0004260693967808038,-9.818044662475586,0,0,29.204965591430664,1,1,1000,1000
1778782189.53993011,72725065,1,0.001057730638422072,0.0009322900441475213,0.0010064691305160522,-0.0024979310110211372,-0.002972969552502036,-9.820658683776855,0,0,29.204965591430664,1,1,760,800
1778782189.57991409,72765049,0,0.0010888485703617334,0.0010239827679470181,0.0010402456391602755,-0.0006046692724339664,-0.0012349545722827315,-9.816360473632812,0,0,29.207073211669922,1,1,1000,1000
1778782189.57991409,72765049,1,0.0008029649034142494,0.0010283326264470816,0.0008702845079824328,0.0020777753088623285,0.0003136036393698305,-9.817789077758789,0,0,29.207073211669922,1,1,760,800
1778782189.61989808,72805033,0,0.0010617292718961835,0.0010833065025508404,0.001027995371259749,-0.001988808624446392,-0.0009619705379009247,-9.816753387451172,0,0,29.209177017211914,1,1,1000,1000
1778782189.61989808,72805033,1,0.0010978899663314223,0.0010303920134902,0.00109101552516222,-0.0014844667166471481,0.00035243286401964724,-9.816146850585938,0,0,29.209177017211914,1,1,760,800
1778782189.65988207,72845017,0,0.001008197315968573,0.0009669357677921653,0.001039491849951446,0.00010795166599564254,-0.0012150714173913002,-9.817248344421387,0,0,29.21128273010254,1,1,1000,1000
1778782189.65988207,72845017,1,0.0008708937093615532,0.0009932703105732799,0.0009705083211883903,-7.179146632552147e-05,-0.00155406235717237,-9.818264961242676,0,0,29.21128273010254,1,1,760,800
1778782189.69986606,72885001,0,0.0009724328410811722,0.001010130625218153,0.0010266252793371677,-0.0019008992239832878,-0.001300595235079527,-9.816877365112305,0,0,29.213388442993164,1,1,1000,1000
1778782189.69986606,72885001,1,0.0009143410134129226,0.001141988905146718,0.0009901499142870307,-0.0034370869398117065,-0.0018174819415435195,-9.819799423217773,0,0,29.213388442993164,1,1,760,800
1778782189.73985004,72924985,0,0.0011374001624062657,0.0010792382527142763,0.001071021193638444,-0.0008936361409723759,-0.001460981904529035,-9.81718635559082,0,0,29.215438842773438,1,1,1000,1000
1778782189.73985004,72924985,1,0.0012943488545715809,0.0010351049713790417,0.0010409352835267782,-1.4389192983799148e-05,-0.0021819076500833035,-9.816703796386719,0,0,29.215438842773438,1,1,760,800
1778782189.77983403,72964969,0,0.0010654901852831244,0.0011086307931691408,0.001011883607134223,-0.0004998853546567261,-0.001024593599140644,-9.817798614501953,0,0,29.217544555664062,1,1,1000,1000
1778782189.77983403,72964969,1,0.0011282101040706038,0.0008586514741182327,0.001300425617955625,-0.004007607698440552,-0.0008092468488030136,-9.818275451660156,0,0,29.217544555664062,1,1,760,800
1778782189.81981802,73004953,0,0.00099330791272223,0.0010970962466672063,0.0010223594726994634,-0.000410991080570966,-9.570238762535155e-05,-9.816412925720215,0,0,29.219648361206055,1,1,1000,1000
1778782189.81981802,73004953,1,0.0011239208979532123,0.0009149719262495637,0.001141032436862588,0.00037932308623567224,-0.0008685678476467729,-9.818065643310547,0,0,29.219648361206055,1,1,760,800
1778782189.85980201,73044937,0,0.0010035950690507889,0.001018570619635284,0.0010287847835570574,-0.000736676505766809,-0.001694921520538628,-9.818197250366211,0,0,29.221752166748047,1,1,1000,1000
1778782189.85980201,73044937,1,0.001065241638571024,0.0011417291825637221,0.000857429695315659,-0.00364255765452981,0.00017498014494776726,-9.818548202514648,0,0,29.221752166748047,1,1,760,800
1778782189.89978600,73084921,0,0.0010469395201653242,0.0010388679802417755,0.0010270472848787904,-0.0004295688995625824,-2.818578650476411e-06,-9.817227363586426,0,0,29.22385597229004,1,1,1000,1000
1778782189.89978600,73084921,1,0.0009296141797676682,0.0009167205425910652,0.0008442451362498105,-0.0021572569385170937,0.00018292717868462205,-9.815815925598145,0,0,29.22385597229004,1,1,760,800
1778782189.93977022,73124905,0,0.0010939834173768759,0.00102103385142982,0.0010700304992496967,-0.0007306101033464074,-4.853758218814619e-05,-9.816551208496094,0,0,29.22595977783203,1,1,1000,1000
1778782189.93977022,73124905,1,0.001118574058637023,0.00103833619505167,0.0009625605307519436,-0.0023134511429816484,-0.0016353726387023926,-9.818721771240234,0,0,29.22595977783203,1,1,760,800
1778782189.97975421,73164889,0,0.001003738259896636,0.0011135380482301116,0.0010486887767910957,-0.0008870080346241593,-0.0004552080645225942,-9.817458152770996,0,0,29.22806167602539,1,1,1000,1000
1778782189.97975421,73164889,1,0.0010559415677562356,0.0008943018037825823,0.0009227883419953287,-0.0010522899683564901,-0.0028949794359505177,-9.81865406036377,0,0,29.22806167602539,1,1,760,800
1778782190.01973820,73204873,0,0.0010932923760265112,0.0010650201002135873,0.0010295480024069548,-0.0014128097100183368,-0.0009724971605464816,-9.818256378173828,0,0,29.230165481567383,1,1,1000,1000
1778782190.01973820,73204873,1,0.0011754244333133101,0.0009713314939290285,0.0010534070897847414,-0.0014140565181151032,-0.0022157011553645134,-9.818121910095215,0,0,29.230165481567383,1,1,760,800
1778782190.05972219,73244857,0,0.0010462829377502203,0.0010391913820058107,0.001092748250812292,-0.0016776794800534844,-0.0007804970955476165,-9.817828178405762,0,0,29.232267379760742,1,1,1000,1000
1778782190.05972219,73244857,1,0.0007231290801428258,0.0012760864337906241,0.0012465004110708833,-0.0026425328105688095,0.00030005729058757424,-9.817098617553711,0,0,29.232267379760742,1,1,760,800
1778782190.09970617,73284841,0,0.0010119456565007567,0.0009818506659939885,0.0009753603953868151,-1.498800702393055e-05,-0.0014134219381958246,-9.817731857299805,0,0,29.234371185302734,1,1,1000,1000
1778782190.09970617,73284841,1,0.0010839705355465412,0.0009190740529447794,0.0011925119906663895,-0.002679449040442705,-0.0008865989511832595,-9.818262100219727,0,0,29.234371185302734,1,1,760,800
1778782190.13969016,73324825,0,0.0010877805761992931,0.0010318149579688907,0.0010475439485162497,-0.0011923409765586257,-0.0005872977199032903,-9.81888484954834,0,0,29.23647117614746,1,1,1000,1000
1778782190.13969016,73324825,1,0.0008667596848681569,0.0009828340262174606,0.001232760027050972,-0.0024626636877655983,-0.0009996893350034952,-9.817716598510742,0,0,29.23647117614746,1,1,760,800
1778782190.17967415,73364809,0,0.000959016673732549,0.0010068027768284082,0.0009783589048311114,-0.001001891796477139,-0.0002747022081166506,-9.818509101867676,0,0,29.23857307434082,1,1,1000,1000
1778782190.17967415,73364809,1,0.000910413742531091,0.0009956598514690995,0.0011773062869906425,0.0012189361732453108,8.824032556731254e-05,-9.81808853149414,0,0,29.23857307434082,1,1,760,800
1778782190.21965814,73404793,0,0.000976538984104991,0.0010608471930027008,0.0010683310683816671,-0.0009376637171953917,-0.00076817482477054,-9.817230224609375,0,0,29.24067497253418,1,1,1000,1000
1778782190.21965814,73404793,1,0.0007938452181406319,0.0011735201114788651,0.001079946174286306,0.0022092838771641254,-0.0028654374182224274,-9.816583633422852,0,0,29.24067497253418,1,1,760,800
1778782190.25964212,73444777,0,0.0010179540840908885,0.0009936199057847261,0.0009948620572686195,-0.0022542139049619436,-0.000870509073138237,-9.818422317504883,0,0,29.24277687072754,1,1,1000,1000
1778782190.25964212,73444777,1,0.0007564108818769455,0.0008569668279960752,0.0011175302788615227,0.0003077019937336445,0.00143350416328758,-9.818297386169434,0,0,29.24277687072754,1,1,760,800
1778782190.29962611,73484761,0,0.001034570625051856,0.0010244481964036822,0.0010676943929865956,0.00024271273287013173,-0.0006828827317804098,-9.81756591796875,0,0,29.244876861572266,1,1,1000,1000
1778782190.29962611,73484761,1,0.0009243441745638847,0.0011379298521205783,0.0010548261925578117,-0.00019236045773141086,-0.00045738398330286145,-9.816593170166016,0,0,29.244876861572266,1,1,760,800
1778782190.33961010,73524745,0,0.0009905354818329215,0.0010122795356437564,0.0010113933822140098,-0.0006522390758618712,-0.0015069121727719903,-9.817034721374512,0,0,29.246978759765625,1,1,1000,1000
1778782190.33961010,73524745,1,0.001004271674901247,0.0010045815724879503,0.0009711213642731309,-0.004715436138212681,-0.00021879513224121183,-9.816049575805664,0,0,29.246978759765625,1,1,760,800
1778782190.37959409,73564729,0,0.001076181884855032,0.001024655532091856,0.0010518921772018075,0.0001159922030637972,-0.0015076659619808197,-9.816786766052246,0,0,29.24907684326172,1,1,1000,1000
1778782190.37959409,73564729,1,0.0008633002871647477,0.0010049407137557864,0.001060475129634142,-0.00041197644895873964,-0.002390356035903096,-9.815572738647461,0,0,29.24907684326172,1,1,760,800
1778782190.41957808,73604713,0,0.0010026356903836131,0.0010376296704635024,0.001082354923710227,-0.0020350078120827675,-0.0007987015414983034,-9.817282676696777,0,0,29.251176834106445,1,1,1000,1000
1778782190.41957808,73604713,1,0.001061780727468431,0.0010436056181788445,0.0010504423407837749,-0.002673004288226366,-0.0015113658737391233,-9.819361686706543,0,0,29.251176834106445,1,1,760,800
1778782190.45956206,73644697,0,0.0010466341627761722,0.0010484777158126235,0.0010229026665911078,-0.0016878622118383646,-0.0009805781301110983,-9.816886901855469,0,0,29.253276824951172,1,1,1000,1000
1778782190.45956206,73644697,1,0.0012087647337466478,0.001109452685341239,0.0010889500845223665,0.00019324387540109456,0.0007053462322801352,-9.820446014404297,0,0,29.253276824951172,1,1,760,800
1778782190.49954605,73684681,0,0.0010261476272717118,0.0010480444179847836,0.00098554533906281,-0.0004369038506411016,-0.00018043204909190536,-9.818185806274414,0,0,29.2553768157959,1,1,1000,1000
1778782190.49954605,73684681,1,0.0012050261721014977,0.00106348458211869,0.0009790188632905483,-0.0028297794051468372,0.0026684284675866365,-9.8208646774292,0,0,29.2553768157959,1,1,760,800
1778782190.53953004,73724665,0,0.0010253747459501028,0.0009934024419635534,0.001071097794920206,-0.001598300295881927,-1.8648226614459418e-05,-9.818017959594727,0,0,29.257476806640625,1,1,1000,1000
1778782190.53953004,73724665,1,0.0010612566256895661,0.0011349779088050127,0.0010347787756472826,-0.0014877517241984606,3.385645686648786e-05,-9.817445755004883,0,0,29.257476806640625,1,1,760,800
1778782190.57951403,73764649,0,0.0010742060840129852,0.0010469213593751192,0.0010474113514646888,-0.0004927411209791899,-0.0019760325085371733,-9.81820297241211,0,0,29.25957489013672,1,1,1000,1000
1778782190.57951403,73764649,1,0.0010289469501003623,0.0010212745983153582,0.0010809949599206448,-0.0029690945520997047,0.0013248773757368326,-9.81922721862793,0,0,29.25957489013672,1,1,760,800
1778782190.61949801,73804633,0,0.0010479653719812632,0.0010173781774938107,0.0010583149269223213,-0.0009069447405636311,-0.0009561724727973342,-9.817499160766602,0,0,29.261672973632812,1,1,1000,1000
1778782190.61949801,73804633,1,0.0007466752431355417,0.0010036553721874952,0.001073489780537784,-0.002420320175588131,-0.0014297605957835913,-9.81560230255127,0,0,29.261672973632812,1,1,760,800
1778782190.65948200,73844617,0,0.0010373833356425166,0.001075757434591651,0.0010458282195031643,-0.0004928550915792584,-0.0011222856119275093,-9.816731452941895,0,0,29.263771057128906,1,1,1000,1000
1778782190.65948200,73844617,1,0.001067392062395811,0.0009206855320371687,0.0010195946088060737,-0.001962778391316533,0.0003573403519112617,-9.818583488464355,0,0,29.263771057128906,1,1,760,800
1778782190.69946623,73884601,0,0.0010251121129840612,0.0010135036427527666,0.0010424288921058178,-0.001110839773900807,-0.0011126409517601132,-9.818685531616211,0,0,29.265869140625,1,1,1000,1000
1778782190.69946623,73884601,1,0.0010260705603286624,0.0012856443645432591,0.0012207184918224812,-0.0013886978849768639,6.856743129901588e-05,-9.817813873291016,0,0,29.265869140625,1,1,760,800
1778782190.73945022,73924585,0,0.0010685386369004846,0.0010143830440938473,0.0010572299361228943,-0.0015367490705102682,-0.0005935823428444564,-9.817363739013672,0,0,29.267967224121094,1,1,1000,1000
1778782190.73945022,73924585,1,0.0010880635818466544,0.0010117558995261788,0.0009174188016913831,0.0004907369147986174,-0.0009605484083294868,-9.817615509033203,0,0,29.267967224121094,1,1,760,800
1778782190.77943420,73964569,0,0.0010528031270951033,0.0011004938278347254,0.0010754880495369434,-0.0014734038850292563,-0.0006447220803238451,-9.818148612976074,0,0,29.270065307617188,1,1,1000,1000
1778782190.77943420,73964569,1,0.0009788620518520474,0.0010595285566523671,0.001053290325216949,-0.001833892660215497,0.0009146431111730635,-9.8157377243042,0,0,29.270065307617188,1,1,760,800
1778782190.81941819,74004553,0,0.001020039664581418,0.0010782165918499231,0.0010371026583015919,-0.001244202721863985,0.00016026399680413306,-9.818207740783691,0,0,29.27216148376465,1,1,1000,1000
1778782190.81941819,74004553,1,0.0010743894381448627,0.0011270794784650207,0.0010630381293594837,0.00044973258627578616,-0.0016971674049273133,-9.816694259643555,0,0,29.27216148376465,1,1,760,800
1778782190.85940218,74044537,0,0.0010234264191240072,0.0009990243706852198,0.0010368016082793474,-0.001203285064548254,-0.0009398063411936164,-9.816862106323242,0,0,29.27425765991211,1,1,1000,1000
1778782190.85940218,74044537,1,0.00102028320543468,0.0011703320778906345,0.0011790476273745298,-0.001958728302270174,-0.0025092903524637222,-9.81725025177002,0,0,29.27425765991211,1,1,760,800
1778782190.89938617,74084521,0,0.0010852572740986943,0.0010853188578039408,0.0010230650659650564,-0.0011790212010964751,-0.00014837815251667053,-9.817140579223633,0,0,29.276355743408203,1,1,1000,1000
1778782190.89938617,74084521,1,0.0010586717398837209,0.0008618923602625728,0.001122779562138021,-0.0010643686400726438,0.0020580722484737635,-9.818936347961426,0,0,29.276355743408203,1,1,760,800
1778782190.93937016,74124505,0,0.001008286140859127,0.0010215537622570992,0.0010883859358727932,-0.002015288919210434,-0.0006656856276094913,-9.817535400390625,0,0,29.278451919555664,1,1,1000,1000
1778782190.93937016,74124505,1,0.0009485818445682526,0.0010042216163128614,0.0011868532747030258,0.0011427175486460328,0.000482455943711102,-9.820655822753906,0,0,29.278451919555664,1,1,760,800
1778782190.97935414,74164489,0,0.0010702654253691435,0.0010264853481203318,0.0010396973229944706,-0.0006416231626644731,-0.0008677124278619885,-9.817513465881348,0,0,29.280548095703125,1,1,1000,1000
1778782190.97935414,74164489,1,0.0009751177276484668,0.0012273082975298166,0.0008318781619891524,-0.0007320185541175306,-0.0009929753141477704,-9.818476676940918,0,0,29.280548095703125,1,1,760,800
1778782191.01933813,74204473,0,0.001032152445986867,0.001047794008627534,0.0009907702915370464,-0.0006995523581281304,-0.0008865018608048558,-9.818374633789062,0,0,29.282644271850586,1,1,1000,1000
1778782191.01933813,74204473,1,0.0009749575983732939,0.001208529807627201,0.0010043064830824733,0.0005430879537016153,-0.0014605334727093577,-9.817281723022461,0,0,29.282644271850586,1,1,760,800
1778782191.05932212,74244457,0,0.0010265691671520472,0.0010309962090104818,0.0011015525087714195,-0.0003957505105063319,-0.001555998926050961,-10.249589920043945,0,0,29.284740447998047,1,1,1000,1000
1778782191.05932212,74244457,1,0.001025171484798193,0.0010854466818273067,0.0010114426258951426,-0.0015110753010958433,0.0023098017554730177,-10.243886947631836,0,0,29.284740447998047,1,1,760,800
1778782191.09930611,74284441,0,0.0010521644726395607,0.0010442860657349229,0.0009689846774563193,-0.0010404862696304917,-0.0008695028955116868,-10.491609573364258,0,0,29.286834716796875,1,1,1000,1000
1778782191.09930611,74284441,1,0.0010598513763397932,0.001026746816933155,0.0011778459884226322,-0.002228833269327879,0.00046155619202181697,-10.490762710571289,0,0,29.286834716796875,1,1,760,800
1778782191.13929009,74324425,0,0.001043301192112267,0.0010955133475363255,0.0010129145812243223,0.0001183919666800648,-0.001366248237900436,-10.358654975891113,0,0,29.288928985595703,1,1,1000,1000
