timestamp,TimeUS,I,GyrX,GyrY,GyrZ,AccX,AccY,AccZ,EG,EA,T,GH,AH,GHz,AHz
1778782973.10003996,52284078,0,0.0007465238450095057,0.0007412591949105263,0.0007434969884343445,-0.0004757160204462707,-0.0002645292552188039,-9.817083358764648,0,0,28.091176986694336,1,1,1000,1000
1778782973.10003996,52284078,1,0.0007235832163132727,0.0005674272542819381,0.0008347940747626126,-0.001966399373486638,-0.001327480305917561,-9.815445899963379,0,0,28.091176986694336,1,1,760,800
1778782973.14002419,52324062,0,0.0006963924970477819,0.0007593203336000443,0.0007636831142008305,-6.0803682572441176e-05,-0.0006978246383368969,-9.817998886108398,0,0,28.093486785888672,1,1,1000,1000
1778782973.14002419,52324062,1,0.0006729742744937539,0.0006782460841350257,0.0007450208067893982,0.0003427665214985609,-0.0008938979590311646,-9.815789222717285,0,0,28.09343147277832,1,1,760,800
1778782973.18000817,52364046,0,0.0006951491814106703,0.0006693127797916532,0.0007518978090956807,-0.0019835052080452442,-0.0008511206833645701,-9.81734848022461,0,0,28.095741271972656,1,1,1000,1000
1778782973.18000817,52364046,1,0.0006282155518420041,0.0006060446612536907,0.000763250864110887,-4.8985697503667325e-05,-0.0027864095754921436,-9.817038536071777,0,0,28.095685958862305,1,1,760,800
1778782973.21999216,52404030,0,0.0007388160447590053,0.0007528847199864686,0.0008112493669614196,-0.00017306467634625733,-0.000609319657087326,-9.81736946105957,0,0,28.097993850708008,1,1,1000,1000
1778782973.21999216,52404030,1,0.0006065889610908926,0.0006552988779731095,0.0005643059266731143,-0.0007032755529507995,-0.0018305890262126923,-9.81659984588623,0,0,28.097938537597656,1,1,760,800
1778782973.26080918,52444847,0,0.0007354685221798718,0.0007922094082459807,0.0006220255745574832,-0.0005183048779144883,-0.000720244541298598,-9.818108558654785,0,0,28.100248336791992,1,1,1000,1000
1778782973.26080918,52444847,1,0.0007041596109047532,0.0006599382613785565,0.000755503133405,-0.0017170975916087627,-0.0022612542379647493,-9.814448356628418,0,0,28.100248336791992,1,1,760,800
1778782973.30079317,52484831,0,0.0006747443694621325,0.0007462046341970563,0.0008033996564336121,-0.0005878584343008697,-0.0012123225023970008,-9.817170143127441,0,0,28.102500915527344,1,1,1000,1000
1778782973.30079317,52484831,1,0.0006735608330927789,0.0005242623738013208,0.0008959576953202486,-0.0022118466440588236,-0.0013930684654042125,-9.81795597076416,0,0,28.102500915527344,1,1,760,800
1778782973.34077716,52524815,0,0.0007750287186354399,0.0007080374052748084,0.0007411651313304901,-0.001024720724672079,-0.0003005180915351957,-9.818476676940918,0,0,28.104753494262695,1,1,1000,1000
1778782973.34077716,52524815,1,0.001089128665626049,0.0005214473931118846,0.000720512995030731,-0.0018433518707752228,-0.003961862064898014,-9.81652545928955,0,0,28.104753494262695,1,1,760,800
1778782973.38076115,52564799,0,0.000696518924087286,0.0006978996680118144,0.00073479168349877,0.00020529246830847114,-0.0006676716147921979,-9.81851863861084,0,0,28.107006072998047,1,1,1000,1000
1778782973.38076115,52564799,1,0.0005106352036818862,0.000718721654266119,0.0009520965395495296,0.00048118698759935796,-0.001141717890277505,-9.815584182739258,0,0,28.107006072998047,1,1,760,800
1778782973.42074513,52604783,0,0.0007667054887861013,0.0007557753124274313,0.000810116995126009,-0.0005182045279070735,-0.0010218344395980239,-9.816067695617676,0,0,28.10926055908203,1,1,1000,1000
1778782973.42074513,52604783,1,0.0006251197773963213,0.0009214971214532852,0.0005866338615305722,-0.0015002160798758268,-0.0029401688370853662,-9.816922187805176,0,0,28.10926055908203,1,1,760,800
1778782973.46072912,52644767,0,0.0007445719675160944,0.0006692082388326526,0.0007255672826431692,-0.0012510111555457115,-0.0014020742382854223,-9.817830085754395,0,0,28.11151123046875,1,1,1000,1000
1778782973.46072912,52644767,1,0.0009131667320616543,0.000645386753603816,0.001084016403183341,-0.001895702676847577,-0.00022487454407382756,-9.815414428710938,0,0,28.11151123046875,1,1,760,800
1778782973.50071311,52684751,0,0.0007548381108790636,0.0008145965402945876,0.0007945000543259084,-0.0006697273347526789,-0.0011819161009043455,-9.817950248718262,0,0,28.1137638092041,1,1,1000,1000
1778782973.50071311,52684751,1,0.0008152302470989525,0.0005120090791024268,0.0008129237103275955,0.0004825844953302294,-0.0011439602822065353,-9.818155288696289,0,0,28.1137638092041,1,1,760,800
1778782973.54069710,52724735,0,0.000713587214704603,0.0007855999283492565,0.0006456365808844566,-0.0009698016801849008,-0.000800195848569274,-9.817928314208984,0,0,28.11601448059082,1,1,1000,1000
1778782973.54069710,52724735,1,0.0006383256986737251,0.0005506145535036922,0.0004355663259048015,-0.0002829702862072736,-0.0005754365702159703,-9.817679405212402,0,0,28.11601448059082,1,1,760,800
1778782973.58068109,52764719,0,0.0007011370616964996,0.0007563335238955915,0.0007851714035496116,-0.0006091430550441146,-0.0003626645775511861,-9.81878662109375,0,0,28.11826515197754,1,1,1000,1000
1778782973.58068109,52764719,1,0.0006338681560009718,0.0006826521130278707,0.0007860977202653885,-0.0008394685573875904,0.0007781541207805276,-9.817957878112793,0,0,28.11826515197754,1,1,760,800
1778782973.62066507,52804703,0,0.0007457840838469565,0.0007099686190485954,0.0008249541861005127,-0.001250112080015242,-0.0008960177656263113,-9.816513061523438,0,0,28.120515823364258,1,1,1000,1000
1778782973.62066507,52804703,1,0.000608153990469873,0.0008935360820032656,0.0008834641776047647,-0.004858559463173151,-0.004101294558495283,-9.818674087524414,0,0,28.120515823364258,1,1,760,800
1778782973.66064906,52844687,0,0.0007026743260212243,0.0007445980445481837,0.0007410897524096072,-0.00046601489884778857,-0.0005950636113993824,-9.817463874816895,0,0,28.122766494750977,1,1,1000,1000
1778782973.66064906,52844687,1,0.0008126805769279599,0.0005809087306261063,0.0006849060882814229,-0.002392952796071768,-0.0007273720111697912,-9.816217422485352,0,0,28.122766494750977,1,1,760,800
1778782973.70063305,52884671,0,0.0007599900709465146,0.0006592004210688174,0.0007698279805481434,-0.0008680149912834167,-0.00011474556959001347,-9.816381454467773,0,0,28.125017166137695,1,1,1000,1000
1778782973.70063305,52884671,1,0.0008748180698603392,0.0006537439185194671,0.0003770539187826216,-0.000864832429215312,-0.0017034336924552917,-9.816675186157227,0,0,28.125017166137695,1,1,760,800
1778782973.74061704,52924655,0,0.0007738266140222549,0.0006869906792417169,0.000767681747674942,-0.0013958616182208061,-0.0010073259472846985,-9.817355155944824,0,0,28.12726593017578,1,1,1000,1000
1778782973.74061704,52924655,1,0.0006693671457469463,0.0007348632789216936,0.0009440249996259809,-0.0017613254021853209,-0.0017507820157334208,-9.817033767700195,0,0,28.12726593017578,1,1,760,800
1778782973.78060102,52964639,0,0.0007291859947144985,0.0007670874474570155,0.0007852865383028984,-0.0011332904687151313,-0.000837997009512037,-9.81849193572998,0,0,28.1295166015625,1,1,1000,1000
1778782973.78060102,52964639,1,0.0008019297965802252,0.00043500852189026773,0.0006233570748008788,-0.0022028193343430758,-0.001003581564873457,-9.8175048828125,0,0,28.1295166015625,1,1,760,800
1778782973.82058501,53004623,0,0.0006833192892372608,0.0007496363250538707,0.0007706651231274009,-0.0018022488802671432,-0.0005696701700799167,-9.816550254821777,0,0,28.131765365600586,1,1,1000,1000
1778782973.82058501,53004623,1,0.000725232413969934,0.0008527984609827399,0.0007854985306039453,-0.0007135822670534253,0.0007414012216031551,-9.81663703918457,0,0,28.131765365600586,1,1,760,800
1778782973.86056900,53044607,0,0.0007825220236554742,0.0006759053794667125,0.0007563316612504423,-0.0023081302642822266,-0.0003917463473044336,-9.817139625549316,0,0,28.134014129638672,1,1,1000,1000
1778782973.86056900,53044607,1,0.0006483112229034305,0.0007311187218874693,0.000689044245518744,-0.0009143626084551215,-0.0007875493029132485,-9.817975997924805,0,0,28.134014129638672,1,1,760,800
1778782973.90055299,53084591,0,0.0007201689295470715,0.0007257364341057837,0.0007772126118652523,-0.001374045736156404,-0.0012220811331644654,-9.815970420837402,0,0,28.136262893676758,1,1,1000,1000
1778782973.90055299,53084591,1,0.0011057914234697819,0.0006184631492942572,0.0008579632267355919,0.0007845353684388101,-0.0010964875109493732,-9.819304466247559,0,0,28.136262893676758,1,1,760,800
1778782973.94053698,53124575,0,0.000728461192920804,0.000779294699896127,0.0007340191514231265,-0.002221124479547143,-0.0007003695936873555,-9.81744384765625,0,0,28.138511657714844,1,1,1000,1000
1778782973.94053698,53124575,1,0.0005195693811401725,0.0010566681157797575,0.0006922741886228323,-0.0014136823592707515,-0.0015529021620750427,-9.817401885986328,0,0,28.138511657714844,1,1,760,800
1778782973.98052096,53164559,0,0.0007546519045718014,0.000812783429864794,0.0007300094002857804,-0.0008347760885953903,-0.0013839458115398884,-9.817523956298828,0,0,28.140758514404297,1,1,1000,1000
1778782973.98052096,53164559,1,0.0006949104135856032,0.0008776950417086482,0.0008801651420071721,0.0013087517581880093,-0.002047239802777767,-9.816268920898438,0,0,28.140758514404297,1,1,760,800
1778782974.02050519,53204543,0,0.0007310535293072462,0.0007342809694819152,0.0007096697809174657,-0.0011572565417736769,-0.002402053214609623,-9.817159652709961,0,0,28.143007278442383,1,1,1000,1000
1778782974.02050519,53204543,1,0.0006920632440596819,0.0008198482682928443,0.0007188485469669104,-0.0012635138118639588,0.0006302014808170497,-9.815528869628906,0,0,28.143007278442383,1,1,760,800
1778782974.06048918,53244527,0,0.0007580468663945794,0.000746432866435498,0.0007346982602030039,-0.0007992454338818789,-0.0015799608081579208,-9.816733360290527,0,0,28.145254135131836,1,1,1000,1000
1778782974.06048918,53244527,1,0.0006806256715208292,0.0005906812730245292,0.000742506526876241,-0.0006113083218224347,-0.0030880237463861704,-9.818034172058105,0,0,28.145254135131836,1,1,760,800
1778782974.10047317,53284511,0,0.0007715761312283576,0.0006426817853935063,0.0007733566453680396,-0.0007084825774654746,-0.0012074942933395505,-9.817736625671387,0,0,28.147502899169922,1,1,1000,1000
1778782974.10047317,53284511,1,0.00083778181578964,0.0009850186761468649,0.000722045311704278,-0.003406633622944355,0.0003452930541243404,-9.816866874694824,0,0,28.147502899169922,1,1,760,800
1778782974.14045715,53324495,0,0.0007625016150996089,0.0007023849757388234,0.0007263325969688594,-0.0006297749932855368,-0.0013051633723080158,-9.817586898803711,0,0,28.149747848510742,1,1,1000,1000
1778782974.14045715,53324495,1,0.0007039785850793123,0.0009338022209703922,0.0007370507810264826,-0.002744570141658187,-0.0011599701829254627,-9.820484161376953,0,0,28.149747848510742,1,1,760,800
1778782974.18044114,53364479,0,0.0008259342284873128,0.0007658650283701718,0.0006667716661468148,0.00019755536050070077,-0.000933646282646805,-9.817177772521973,0,0,28.151994705200195,1,1,1000,1000
1778782974.18044114,53364479,1,0.0010029717814177275,0.0007138494402170181,0.0006753537454642355,-0.0027119324076920748,-0.0003876586852129549,-9.8190279006958,0,0,28.151994705200195,1,1,760,800
1778782974.22042513,53404463,0,0.0007286082836799324,0.0007146447896957397,0.0007128191646188498,-0.0003131621051579714,-0.0004928999114781618,-9.817394256591797,0,0,28.15424156188965,1,1,1000,1000
1778782974.22042513,53404463,1,0.0008342181681655347,0.0006369733600877225,0.0007153261103667319,-0.00021833741629961878,-0.00044348076335154474,-9.814775466918945,0,0,28.15424156188965,1,1,760,800
1778782974.26040912,53444447,0,0.0007478574989363551,0.0007680440321564674,0.0007055587484501302,-0.0017478354275226593,-0.000726599246263504,-9.818024635314941,0,0,28.15648651123047,1,1,1000,1000
1778782974.26040912,53444447,1,0.0008719945326447487,0.0006528526428155601,0.0005421790992841125,-0.0029787428211420774,-0.0028669005259871483,-9.816062927246094,0,0,28.15648651123047,1,1,760,800
1778782974.30039310,53484431,0,0.0008110016351565719,0.0007803033804520965,0.0007105325348675251,-0.0013640131801366806,-8.742372301639989e-05,-9.817647933959961,0,0,28.158733367919922,1,1,1000,1000
1778782974.30039310,53484431,1,0.0007542774546891451,0.0006073997355997562,0.0006282060639932752,-0.000494251842610538,-5.294840957503766e-05,-9.814739227294922,0,0,28.158733367919922,1,1,760,800
1778782974.34037709,53524415,0,0.0007291913498193026,0.0007399690221063793,0.0007556078489869833,-0.001614804146811366,-0.0006240044604055583,-9.817914009094238,0,0,28.16097640991211,1,1,1000,1000
1778782974.34037709,53524415,1,0.0007985024712979794,0.0009029927314259112,0.0007948743877932429,-0.0026207438204437494,0.0003034400288015604,-9.8172025680542,0,0,28.16097640991211,1,1,760,800
1778782974.38036108,53564399,0,0.0007313583046197891,0.0007382891490124166,0.0007662827265448868,-0.0006406079046428204,-0.0009319750242866576,-9.817164421081543,0,0,28.163223266601562,1,1,1000,1000
1778782974.38036108,53564399,1,0.0009481864399276674,0.0008233757107518613,0.0008327629184350371,-0.00022791483206674457,-0.0010976220946758986,-9.818553924560547,0,0,28.163223266601562,1,1,760,800
1778782974.42034507,53604383,0,0.0007950944709591568,0.0007397244917228818,0.0007772069657221437,-0.0010918161133304238,-0.0014018664369359612,-9.817241668701172,0,0,28.165468215942383,1,1,1000,1000
1778782974.42034507,53604383,1,0.0006959510501474142,0.0007550730369985104,0.0008999792626127601,-0.0023673109244555235,-0.0001347098732367158,-9.815601348876953,0,0,28.165468215942383,1,1,760,800
1778782974.46032906,53644367,0,0.0007309331558644772,0.0008046794682741165,0.0008110628696158528,-0.002144159749150276,-0.0016163805266842246,-9.816681861877441,0,0,28.167713165283203,1,1,1000,1000
1778782974.46032906,53644367,1,0.0006706962594762444,0.000970203778706491,0.0008073631906881928,0.00047295173862949014,-0.0009275504271499813,-9.81859016418457,0,0,28.167713165283203,1,1,760,800
1778782974.50031304,53684351,0,0.0006906555499881506,0.0007427876116707921,0.0008109366754069924,-0.00028307465254329145,-0.00146633165422827,-9.817510604858398,0,0,28.16995620727539,1,1,1000,1000
1778782974.50031304,53684351,1,0.0005172340897843242,0.0005729352706111968,0.0007799287559464574,-0.00030390825122594833,-1.7264756024815142e-05,-9.81736946105957,0,0,28.16995620727539,1,1,760,800
1778782974.54029703,53724335,0,0.0007589449523948133,0.0007606521248817444,0.0007324367761611938,-0.0013006218941882253,-0.0012768511660397053,-9.816977500915527,0,0,28.172199249267578,1,1,1000,1000
1778782974.54029703,53724335,1,0.0005564235616475344,0.0007454559672623873,0.0007627619779668748,-0.0018932929961010814,-0.0005049979663453996,-9.815479278564453,0,0,28.172199249267578,1,1,760,800
1778782974.58028102,53764319,0,0.000841719564050436,0.0007590973982587457,0.0007413047133013606,-0.0016248924657702446,-0.0011300303740426898,-9.816763877868652,0,0,28.174442291259766,1,1,1000,1000
1778782974.58028102,53764319,1,0.0007163650589063764,0.0009062821627594531,0.0008278574096038938,6.252034654607996e-05,-0.0010156037751585245,-9.816221237182617,0,0,28.174442291259766,1,1,760,800
1778782974.62026501,53804303,0,0.0007804989581927657,0.0006740030366927385,0.0006697915960103273,-0.001972821308299899,-0.001203390653245151,-9.81818675994873,0,0,28.176687240600586,1,1,1000,1000
1778782974.62026501,53804303,1,0.0009015133255161345,0.000664456223603338,0.0005556227406486869,-0.0012823883444070816,-0.00019914095173589885,-9.820545196533203,0,0,28.176687240600586,1,1,760,800
1778782974.66024899,53844287,0,0.0007099301437847316,0.0007325579645112157,0.0006428086198866367,-0.0003488771035335958,-0.000678298412822187,-9.817276954650879,0,0,28.178930282592773,1,1,1000,1000
1778782974.66024899,53844287,1,0.0006128383683972061,0.000780903035774827,0.0007722228765487671,-0.004155748523771763,-0.0002221188333351165,-9.817852020263672,0,0,28.178930282592773,1,1,760,800
1778782974.70023298,53884271,0,0.0008160695433616638,0.0007507532718591392,0.0007736743427813053,-0.0025880434550344944,-0.0005222831387072802,-9.817023277282715,0,0,28.18117332458496,1,1,1000,1000
1778782974.70023298,53884271,1,0.0008927109302021563,0.0007912087603472173,0.0006429622299037874,-0.0006047709612175822,0.0008707873057574034,-9.816768646240234,0,0,28.18117332458496,1,1,760,800
1778782974.74021697,53924255,0,0.0008212003158405423,0.0007855922449380159,0.0007712974329479039,-0.0005103152361698449,-0.0013188639422878623,-9.815871238708496,0,0,28.183414459228516,1,1,1000,1000
1778782974.74021697,53924255,1,0.0006920551531948149,0.0007479989435523748,0.0007830057293176651,-0.002817752305418253,-0.0011178761487826705,-9.818973541259766,0,0,28.183414459228516,1,1,760,800
1778782974.78020096,53964239,0,0.0008147762273438275,0.0007058999035507441,0.0007180783431977034,-0.002493605250492692,-0.0011042035184800625,-9.818558692932129,0,0,28.185657501220703,1,1,1000,1000
1778782974.78020096,53964239,1,0.0008037759107537568,0.0009187077521346509,0.0007881284691393375,-0.0010970969451591372,-0.0020989524200558662,-9.813881874084473,0,0,28.185657501220703,1,1,760,800
1778782974.82018518,54004223,0,0.0007707061595283449,0.0008748440304771066,0.0008180427830666304,-0.0005613945540972054,-0.0005899126990698278,-9.817009925842285,0,0,28.187843322753906,1,1,1000,1000
1778782974.82018518,54004223,1,0.0006077716825529933,0.001028487691655755,0.0006732563488185406,-0.0024490137584507465,0.0005530633497983217,-9.81737232208252,0,0,28.187843322753906,1,1,760,800
1778782974.86016917,54044207,0,0.0007998895598575473,0.0007801273604854941,0.0007975188200362027,-0.001008499413728714,-0.0009750759927555919,-9.817920684814453,0,0,28.19008445739746,1,1,1000,1000
1778782974.86016917,54044207,1,0.0007637431845068932,0.0008714675204828382,0.0009459347929805517,-0.001120775006711483,0.0009147750679403543,-9.81738567352295,0,0,28.19008445739746,1,1,760,800
1778782974.90015316,54084191,0,0.0008218907751142979,0.0008432319154962897,0.000802084687165916,-0.0006741922115907073,-0.0009346796432510018,-9.816974639892578,0,0,28.192325592041016,1,1,1000,1000
1778782974.90015316,54084191,1,0.0006561022019013762,0.0007566231652162969,0.0008066671434789896,-0.0005301100318320096,-0.00177307752892375,-9.817895889282227,0,0,28.192325592041016,1,1,760,800
1778782974.94013715,54124175,0,0.0007842205232009292,0.0007744274334982038,0.00078165577724576,-0.0009836088865995407,-0.0005157427513040602,-9.819421768188477,0,0,28.194564819335938,1,1,1000,1000
1778782974.94013715,54124175,1,0.0007273131050169468,0.0009002683218568563,0.000805479590781033,-0.00038530168239958584,0.0003814238589257002,-9.816123008728027,0,0,28.194564819335938,1,1,760,800
1778782974.98012114,54164159,0,0.0007694272790104151,0.000782239600084722,0.0007530387374572456,-0.0022114019375294447,-0.0003242019738536328,-9.816529273986816,0,0,28.196807861328125,1,1,1000,1000
1778782974.98012114,54164159,1,0.0007325377664528787,0.0007520689396187663,0.001043670461513102,-0.0013162217801436782,-0.0007661257404834032,-9.816793441772461,0,0,28.196807861328125,1,1,760,800
1778782975.02010512,54204143,0,0.0007422312628477812,0.0007845947984606028,0.0007518476340919733,-0.00025454230490140617,-0.0010260879062116146,-9.816851615905762,0,0,28.199047088623047,1,1,1000,1000
1778782975.02010512,54204143,1,0.0007143932743929327,0.0008784978417679667,0.0009120901813730597,-0.0006319780950434506,-0.0022828346118330956,-9.817941665649414,0,0,28.199047088623047,1,1,760,800
1778782975.06008911,54244127,0,0.0007899528718553483,0.0007592978654429317,0.0007542307721450925,-0.0015982635086402297,-0.0013500151690095663,-9.818096160888672,0,0,28.20128631591797,1,1,1000,1000
1778782975.06008911,54244127,1,0.0006573092541657388,0.0006062816828489304,0.000724943820387125,-0.001422186498530209,-0.0015736056957393885,-9.818367958068848,0,0,28.20128631591797,1,1,760,800
1778782975.10007310,54284111,0,0.000813049846328795,0.0007206921582110226,0.0007371040410362184,-0.0005918768001720309,-0.0016128194984048605,-9.816983222961426,0,0,28.203527450561523,1,1,1000,1000
1778782975.10007310,54284111,1,0.0009003439336083829,0.0007558864308521152,0.0006877949344925582,-0.0016014324501156807,-0.0028579619247466326,-9.81476879119873,0,0,28.203527450561523,1,1,760,800
1778782975.14005709,54324095,0,0.0007884862716309726,0.0008088943432085216,0.0007916082395240664,-0.001362154260277748,-0.0011732876300811768,-9.817581176757812,0,0,28.205766677856445,1,1,1000,1000
1778782975.14005709,54324095,1,0.0007824932690709829,0.0009150574915111065,0.0009304738487116992,-0.0023727365769445896,-0.0002606237248983234,-9.81692123413086,0,0,28.205766677856445,1,1,760,800
1778782975.18004107,54364079,0,0.000769729376770556,0.0007514117751270533,0.0007058119517751038,-0.0010116136400029063,-0.0007452779682353139,-9.817038536071777,0,0,28.208005905151367,1,1,1000,1000
1778782975.18004107,54364079,1,0.0008865525014698505,0.0008527897298336029,0.000773050298448652,-0.0009741242974996567,-0.0017200078582391143,-9.816608428955078,0,0,28.208005905151367,1,1,760,800
1778782975.22002506,54404063,0,0.0007187769515439868,0.000768578436691314,0.0008319949265569448,-0.000644945539534092,-0.0020602820441126823,-9.816017150878906,0,0,28.21030044555664,1,1,1000,1000
1778782975.22002506,54404063,1,0.00048002495896071196,0.0006755748763680458,0.0006060167797841132,-0.001201340463012457,-0.0021053501404821873,-9.81604290008545,0,0,28.210243225097656,1,1,760,800
1778782975.26000905,54444047,0,0.0007986617274582386,0.0007665689336135983,0.0007353173568844795,-0.0013806840870529413,-0.001775193028151989,-9.81789779663086,0,0,28.212539672851562,1,1,1000,1000
1778782975.26000905,54444047,1,0.0005295561859384179,0.0006795382359996438,0.0008642780594527721,5.2109608077444136e-05,-0.0008865013951435685,-9.819214820861816,0,0,28.212482452392578,1,1,760,800
1778782975.29999304,54484031,0,0.0007356034475378692,0.0007314318791031837,0.0008381597581319511,-0.0002700212353374809,-0.0006148950778879225,-9.816486358642578,0,0,28.21477699279785,1,1,1000,1000
1778782975.29999304,54484031,1,0.0010158901568502188,0.000676483556162566,0.0007215734804049134,0.0003553484857548028,-0.0010427330853417516,-9.818999290466309,0,0,28.214719772338867,1,1,760,800
1778782975.34081006,54524848,0,0.0007111359154805541,0.0007362868054769933,0.0006948679219931364,-0.0017249885713681579,-0.00024970408412627876,-9.817964553833008,0,0,28.21701431274414,1,1,1000,1000
1778782975.34081006,54524848,1,0.0006614318117499352,0.0008747781394049525,0.0007252469658851624,-0.0016720563871785998,-0.003310444299131632,-9.816890716552734,0,0,28.21701431274414,1,1,760,800
1778782975.38079405,54564832,0,0.0007798869046382606,0.0007038870244286954,0.0007189107127487659,-0.00237576337531209,-0.002941981889307499,-9.817480087280273,0,0,28.21925163269043,1,1,1000,1000
1778782975.38079405,54564832,1,0.0006729120505042374,0.0008731452981010079,0.0007132546743378043,-0.000642913393676281,-0.0005882116965949535,-9.815119743347168,0,0,28.21925163269043,1,1,760,800
1778782975.42077804,54604816,0,0.0007601986872032285,0.00074430659878999,0.0008099894039332867,-0.0015608376124873757,-0.0009703534888103604,-9.817300796508789,0,0,28.22148895263672,1,1,1000,1000
1778782975.42077804,54604816,1,0.0008826088160276413,0.0009822453139349818,0.000818732543848455,-0.0007306144689209759,-9.079003939405084e-05,-9.81895923614502,0,0,28.22148895263672,1,1,760,800
1778782975.46076202,54644800,0,0.0007632355554960668,0.0007332921959459782,0.0006968560628592968,-0.001079872832633555,-4.8650719691067934e-05,-9.81747817993164,0,0,28.223726272583008,1,1,1000,1000
1778782975.46076202,54644800,1,0.0008820737130008638,0.0006740745739080012,0.0008326278766617179,-0.003005216596648097,6.845885218353942e-05,-9.817636489868164,0,0,28.223726272583008,1,1,760,800
1778782975.50074601,54684784,0,0.0007632337510585785,0.0008201849414035678,0.0007203433779068291,-0.001374835497699678,-0.0011436319909989834,-9.8185453414917,0,0,28.225963592529297,1,1,1000,1000
1778782975.50074601,54684784,1,0.0008496498921886086,0.0009124203352257609,0.0008350861608050764,-0.00023988679458852857,-0.0008836010820232332,-9.81648063659668,0,0,28.225963592529297,1,1,760,800
1778782975.54073000,54724768,0,0.0007453829166479409,0.0007564591942355037,0.0006857920670881867,-0.00022028259991202503,-0.0012934040278196335,-9.81711483001709,0,0,28.228199005126953,1,1,1000,1000
1778782975.54073000,54724768,1,0.0007429469842463732,0.0008596171392127872,0.0007406161166727543,8.253066334873438e-05,-0.0004203924909234047,-9.81705093383789,0,0,28.228199005126953,1,1,760,800
1778782975.58071399,54764752,0,0.0007022147765383124,0.0008043778943829238,0.0007384816417470574,-0.00018154879217036068,-0.00012508020154200494,-9.815584182739258,0,0,28.230436325073242,1,1,1000,1000
1778782975.58071399,54764752,1,0.0007489656563848257,0.0006654324242845178,0.0008575411047786474,-0.0020317903254181147,-0.000530083489138633,-9.818063735961914,0,0,28.230436325073242,1,1,760,800
1778782975.62069798,54804736,0,0.00071106938412413,0.000683457707054913,0.0008838217472657561,-0.0011534186778590083,-0.002512345090508461,-9.817767143249512,0,0,28.2326717376709,1,1,1000,1000
1778782975.62069798,54804736,1,0.0005396697670221329,0.0005483420100063086,0.0009531704126857221,0.00044817966409027576,-0.0023414602037519217,-9.816900253295898,0,0,28.2326717376709,1,1,760,800
1778782975.66068196,54844720,0,0.0007532953750342131,0.0007933768793009222,0.0008291108533740044,-0.001278248499147594,-0.001807377440854907,-9.817476272583008,0,0,28.234907150268555,1,1,1000,1000
1778782975.66068196,54844720,1,0.0006995175499469042,0.0009388071484863758,0.0007421946502290666,-0.0013759937137365341,-0.0016485300147905946,-9.815008163452148,0,0,28.234907150268555,1,1,760,800
1778782975.70066619,54884704,0,0.0007825370412319899,0.0008080964908003807,0.000670247245579958,-0.0009855643147602677,-0.0005862026591785252,-9.81676959991455,0,0,28.23714256286621,1,1,1000,1000
1778782975.70066619,54884704,1,0.0008231615647673607,0.0007855730364099145,0.0007522980449721217,-0.002679483499377966,-0.00011086028098361567,-9.818731307983398,0,0,28.23714256286621,1,1,760,800
1778782975.74065018,54924688,0,0.0008139138808473945,0.0006695587653666735,0.0007791834068484604,-0.00065528170671314,-0.0011631693923845887,-9.816843032836914,0,0,28.239376068115234,1,1,1000,1000
1778782975.74065018,54924688,1,0.0008035877253860235,0.0008541657589375973,0.0008136369287967682,-0.0018635018495842814,-0.0012014198582619429,-9.816272735595703,0,0,28.239376068115234,1,1,760,800
1778782975.78063416,54964672,0,0.0008938585524447262,0.0007450585253536701,0.0007884340011514723,-0.00018426156020723283,0.00010127760469913483,-9.816888809204102,0,0,28.24161148071289,1,1,1000,1000
1778782975.78063416,54964672,1,0.0007398021407425404,0.0007430296391248703,0.0005520586273632944,-0.0009740679524838924,-0.00014158844714984298,-9.8199462890625,0,0,28.24161148071289,1,1,760,800
1778782975.82061815,55004656,0,0.0006804045406170189,0.000720021955203265,0.0007793286931701005,-0.00115286186337471,0.00019444676581770182,-9.816946029663086,0,0,28.243844985961914,1,1,1000,1000
1778782975.82061815,55004656,1,0.0006861475412733853,0.0007423619972541928,0.0005840924568474293,-0.0007987649296410382,-0.0018399840919300914,-9.819265365600586,0,0,28.243844985961914,1,1,760,800
1778782975.86060214,55044640,0,0.0008349412819370627,0.0008077892125584185,0.0007297160918824375,-0.0006222160300239921,-0.0005929733742959797,-9.817517280578613,0,0,28.24608039855957,1,1,1000,1000
1778782975.86060214,55044640,1,0.0007959227077662945,0.0007155067287385464,0.0010662885615602136,-0.0022626733407378197,-0.00030394853092730045,-9.817903518676758,0,0,28.24608039855957,1,1,760,800
1778782975.90058613,55084624,0,0.0007627920713275671,0.0007461320492438972,0.0006892498931847513,-0.0009251241572201252,-0.0007411306723952293,-9.81791877746582,0,0,28.248313903808594,1,1,1000,1000
1778782975.90058613,55084624,1,0.0006835376843810081,0.0007512582815252244,0.0009483118774369359,0.0011321307392790914,-0.000966806779615581,-9.81611156463623,0,0,28.248313903808594,1,1,760,800
1778782975.94057012,55124608,0,0.00073532440001145,0.0007533914176747203,0.0008532946230843663,-0.001068509416654706,-0.0014247022336348891,-9.817398071289062,0,0,28.250545501708984,1,1,1000,1000
1778782975.94057012,55124608,1,0.0008574410458095372,0.0007349798106588423,0.0006661632214672863,-0.0006853964296169579,-0.0030714848544448614,-9.81692886352539,0,0,28.250545501708984,1,1,760,800
1778782975.98055410,55164592,0,0.0007680627750232816,0.0007665753364562988,0.0007757421699352562,-0.001222327002324164,-0.0011915895156562328,-9.81704330444336,0,0,28.25278091430664,1,1,1000,1000
1778782975.98055410,55164592,1,0.000440223520854488,0.0008872196776792407,0.0007917627226561308,0.0002020408574026078,0.0009919379372149706,-9.817506790161133,0,0,28.25278091430664,1,1,760,800
1778782976.02053809,55204576,0,0.0008070565527305007,0.0007393265841528773,0.0007198406383395195,-0.0014508586609736085,-0.000355875410605222,-9.817161560058594,0,0,28.25501251220703,1,1,1000,1000
1778782976.02053809,55204576,1,0.0007149301236495376,0.0006033688550814986,0.0012524686753749847,-0.00042297475738450885,-0.00137026933953166,-9.816826820373535,0,0,28.25501251220703,1,1,760,800
1778782976.06052208,55244560,0,0.0008186508785001934,0.000791648868471384,0.0007235022494569421,-0.001252741669304669,-0.0011832521995529532,-9.816351890563965,0,0,28.257244110107422,1,1,1000,1000
1778782976.06052208,55244560,1,0.0006946964422240853,0.0007600182434543967,0.0009109197999350727,-0.0017503303242847323,0.000346165441442281,-9.818918228149414,0,0,28.257244110107422,1,1,760,800
1778782976.10050607,55284544,0,0.0007288132328540087,0.0007268303306773305,0.0007806544890627265,-0.0011284217471256852,-0.0012036843691021204,-9.817584037780762,0,0,28.259477615356445,1,1,1000,1000
1778782976.10050607,55284544,1,0.001016093767248094,0.0008500721305608749,0.000687465479131788,-0.001720795058645308,-0.0018676946638152003,-9.81685733795166,0,0,28.259477615356445,1,1,760,800
1778782976.14049006,55324528,0,0.0008531535277143121,0.0007278486154973507,0.000821536174044013,-0.0018010276835411787,-0.0012751343892887235,-9.817193031311035,0,0,28.261709213256836,1,1,1000,1000
1778782976.14049006,55324528,1,0.0006188974366523325,0.0008078443352133036,0.0006746960571035743,-0.0003361286362633109,-0.0005264222854748368,-9.81771183013916,0,0,28.261709213256836,1,1,760,800
1778782976.18047404,55364512,0,0.0007554652984254062,0.0007030988344922662,0.0008201882010325789,-0.0010214629583060741,-0.0012745035346597433,-9.81831169128418,0,0,28.263940811157227,1,1,1000,1000
1778782976.18047404,55364512,1,0.0006415760144591331,0.0008948574541136622,0.0007229417678900063,-0.0006831286591477692,-0.0009542850311845541,-9.819029808044434,0,0,28.263940811157227,1,1,760,800
1778782976.22045803,55404496,0,0.0008334683370776474,0.0008558332920074463,0.000860104919411242,-0.0010850002290681005,-0.001367908320389688,-9.817573547363281,0,0,28.266172409057617,1,1,1000,1000
1778782976.22045803,55404496,1,0.0008495952351950109,0.0008210478699766099,0.0007889490807428956,-0.0019029274117201567,-0.0018040461000055075,-9.819618225097656,0,0,28.266172409057617,1,1,760,800
1778782976.26044202,55444480,0,0.0007494568708352745,0.0006725456332787871,0.0008155222749337554,-0.0008892220794223249,-0.0018388335593044758,-9.818133354187012,0,0,28.268404006958008,1,1,1000,1000
1778782976.26044202,55444480,1,0.0006377462996169925,0.0009564444771967828,0.0008946176385506988,-0.001422611065208912,-0.000737910158932209,-9.81686782836914,0,0,28.268404006958008,1,1,760,800
1778782976.30042601,55484464,0,0.0008557143737562001,0.0008130997885018587,0.0007579267839901149,-0.00020781460625585169,-0.0004191882035229355,-9.817020416259766,0,0,28.270633697509766,1,1,1000,1000
1778782976.30042601,55484464,1,0.0006682687089778483,0.0006821769056841731,0.0010423100320622325,-0.000999200507067144,0.0005109884077683091,-9.817840576171875,0,0,28.270633697509766,1,1,760,800
1778782976.34040999,55524448,0,0.0007614463102072477,0.0007481834036298096,0.0008077407255768776,-0.0016204569255933166,-0.0017745564691722393,-9.816506385803223,0,0,28.272865295410156,1,1,1000,1000
1778782976.34040999,55524448,1,0.000613124982919544,0.0008230023668147624,0.0009821063140407205,-0.00067997194128111,0.001205506268888712,-9.817479133605957,0,0,28.272865295410156,1,1,760,800
1778782976.38039398,55564432,0,0.0008167593041434884,0.0007640274707227945,0.0008133240626193583,-0.0004203774151392281,-0.0003518137673381716,-9.817278861999512,0,0,28.275094985961914,1,1,1000,1000
1778782976.38039398,55564432,1,0.0008200388983823359,0.0005745427333749831,0.0007986372802406549,-0.00033238413743674755,-0.0010494370944797993,-9.818464279174805,0,0,28.275094985961914,1,1,760,800
1778782976.42037797,55604416,0,0.000830172561109066,0.0007523902459070086,0.0007663160795345902,-0.000967031461186707,-0.000688347383402288,-9.816716194152832,0,0,28.277324676513672,1,1,1000,1000
1778782976.42037797,55604416,1,0.0007348068756982684,0.0005489219911396503,0.0006034538964740932,-0.0015339023666456342,-0.0013170248130336404,-9.815590858459473,0,0,28.277324676513672,1,1,760,800
1778782976.46036196,55644400,0,0.0008408575667999685,0.0007362935575656593,0.0007771480595692992,-0.0006881947047077119,-6.638457125518471e-05,-9.817255973815918,0,0,28.27955436706543,1,1,1000,1000
1778782976.46036196,55644400,1,0.0008001127280294895,0.0007034486043266952,0.0007199128158390522,-0.0036212445702403784,-0.0003167740651406348,-9.815861701965332,0,0,28.27955436706543,1,1,760,800
1778782976.50034618,55684384,0,0.0008316278690472245,0.0008201127639040351,0.0007777594728395343,-0.0013630371540784836,-0.000790894846431911,-9.818620681762695,0,0,28.281784057617188,1,1,1000,1000
1778782976.50034618,55684384,1,0.000919714686460793,0.0007097867783159018,0.0006765504367649555,-0.004047316964715719,-0.00075960299000144,-9.817474365234375,0,0,28.281784057617188,1,1,760,800
1778782976.54033017,55724368,0,0.0007033492438495159,0.0007402357296086848,0.0007559272344224155,-0.0011340200435370207,-0.0009791671764105558,-9.816900253295898,0,0,28.284011840820312,1,1,1000,1000
1778782976.54033017,55724368,1,0.0007559140212833881,0.0005467747687362134,0.0010139595251530409,-0.00037801978760398924,-0.0011453565675765276,-9.817718505859375,0,0,28.284011840820312,1,1,760,800
1778782976.58031416,55764352,0,0.0007782458560541272,0.0007646807353012264,0.0007248091278597713,-0.001054648426361382,9.816682722885162e-05,-9.818553924560547,0,0,28.28624153137207,1,1,1000,1000
1778782976.58031416,55764352,1,0.00046740955440327525,0.0008271116530522704,0.0008267365046776831,-0.0007143710972741246,-0.0002382278034929186,-9.817438125610352,0,0,28.28624153137207,1,1,760,800
1778782976.62029815,55804336,0,0.0008640549494884908,0.0007204811554402113,0.0008168189087882638,-0.0005189914954826236,-0.0007203215500339866,-9.817261695861816,0,0,28.288469314575195,1,1,1000,1000
1778782976.62029815,55804336,1,0.0007898005424067378,0.0009759542299434543,0.0008620892185717821,-0.0015393092762678862,-0.0006501243333332241,-9.818567276000977,0,0,28.288469314575195,1,1,760,800
1778782976.66028214,55844320,0,0.0007908078841865063,0.000838381121866405,0.0007900767377577722,-0.00016314037202391773,-0.0013067828258499503,-9.817397117614746,0,0,28.29069709777832,1,1,1000,1000
1778782976.66028214,55844320,1,0.0005452924524433911,0.0009242152445949614,0.0009105883073061705,-0.0028714188374578953,-0.0008077670354396105,-9.819730758666992,0,0,28.29069709777832,1,1,760,800
1778782976.70026612,55884304,0,0.0007866399828344584,0.0008805120596662164,0.0007482297951355577,-0.00025626985006965697,-0.000821415800601244,-9.817089080810547,0,0,28.292924880981445,1,1,1000,1000
1778782976.70026612,55884304,1,0.00045160463196225464,0.0007525771507062018,0.0007811383111402392,0.0007205606088973582,-0.001063453033566475,-9.817254066467285,0,0,28.292924880981445,1,1,760,800
1778782976.74025011,55924288,0,0.000800269772298634,0.0007876998279243708,0.0008129109046421945,-0.0010462915524840355,-0.0012551115360110998,-9.81760311126709,0,0,28.29515266418457,1,1,1000,1000
1778782976.74025011,55924288,1,0.0007783034816384315,0.0005998880369588733,0.0005510097835212946,0.0006539380992762744,7.481287320842966e-05,-9.817501068115234,0,0,28.29515266418457,1,1,760,800
1778782976.78023410,55964272,0,0.0008102009305730462,0.000729957188013941,0.0007504165405407548,-0.000697565614245832,-0.00034778352710418403,-9.817367553710938,0,0,28.297380447387695,1,1,1000,1000
1778782976.78023410,55964272,1,0.0009015051182359457,0.0008128553163260221,0.0007044956437312067,0.00034944197977893054,-0.002349257469177246,-9.817405700683594,0,0,28.297380447387695,1,1,760,800
1778782976.82021809,56004256,0,0.000760879716835916,0.0008104942389763892,0.0007463631918653846,-0.0014975832309573889,-0.0013909402769058943,-9.817874908447266,0,0,28.299606323242188,1,1,1000,1000
1778782976.82021809,56004256,1,0.001064120209775865,0.0009603957878425717,0.0008194479160010815,-0.0024543446488678455,0.00042043632129207253,-9.817586898803711,0,0,28.299606323242188,1,1,760,800
1778782976.86020207,56044240,0,0.0007554809562861919,0.0007498688064515591,0.0008105122833512723,-0.002062091138213873,-0.001470815041102469,-9.818971633911133,0,0,28.30183219909668,1,1,1000,1000
1778782976.86020207,56044240,1,0.0007499167113564909,0.0006432422087527812,0.0005829072906635702,0.0004340076702646911,0.00017140639829449356,-9.818034172058105,0,0,28.30183219909668,1,1,760,800
1778782976.90018606,56084224,0,0.000741321942768991,0.0007948788697831333,0.0007770959637127817,-0.0013412658590823412,-0.0009553649579174817,-9.817607879638672,0,0,28.30400276184082,1,1,1000,1000
1778782976.90018606,56084224,1,0.000701535667758435,0.0008519728435203433,0.0007976407650858164,-0.0031224843114614487,-0.0007259337580762804,-9.817693710327148,0,0,28.30400276184082,1,1,760,800
1778782976.94017005,56124208,0,0.0007917968323454261,0.0007580260862596333,0.0007531836745329201,-0.00018575800640974194,-0.0016244291327893734,-9.816767692565918,0,0,28.306230545043945,1,1,1000,1000
1778782976.94017005,56124208,1,0.0009464696631766856,0.000667677610181272,0.0009333885391242802,0.00018609355902299285,0.0005261257756501436,-9.817922592163086,0,0,28.306230545043945,1,1,760,800
1778782976.98015404,56164192,0,0.000743847107514739,0.0007684073643758893,0.0008006166899576783,-0.0017303224885836244,-0.0003373149083927274,-9.817138671875,0,0,28.308456420898438,1,1,1000,1000
1778782976.98015404,56164192,1,0.0009266765555366874,0.0007436837768182158,0.0006371559575200081,-0.0012437154073268175,-0.004408369772136211,-9.81804370880127,0,0,28.308456420898438,1,1,760,800
1778782977.02013803,56204176,0,0.0007167892181314528,0.0007163002737797797,0.0007421933114528656,-0.0008369241841137409,-0.0016622982220724225,-9.817346572875977,0,0,28.310680389404297,1,1,1000,1000
1778782977.02013803,56204176,1,0.0007657759124413133,0.0004580270906444639,0.0006889840587973595,-0.0016800703015178442,-0.00012941121531184763,-9.81804370880127,0,0,28.310680389404297,1,1,760,800
1778782977.06012201,56244160,0,0.0008144914754666388,0.0007774070836603642,0.0008405445259995759,-0.000845220172777772,-0.00034294967190362513,-9.816568374633789,0,0,28.31290626525879,1,1,1000,1000
1778782977.06012201,56244160,1,0.0007039000629447401,0.0010124683612957597,0.000632703653536737,-0.0010519762290641665,-0.0009685470722615719,-9.815590858459473,0,0,28.31290626525879,1,1,760,800
1778782977.10010600,56284144,0,0.0007843197672627866,0.0008789062849245965,0.000778878340497613,-0.0019397314172238111,-0.002431725151836872,-9.81723690032959,0,0,28.31513023376465,1,1,1000,1000
1778782977.10010600,56284144,1,0.0007799430168233812,0.0009493980905972421,0.0007671454222872853,-7.526850822614506e-05,-0.0005431248573586345,-9.82016372680664,0,0,28.31513023376465,1,1,760,800
1778782977.14008999,56324128,0,0.0007194781792350113,0.0008033378981053829,0.0008026582654565573,-0.0013632550835609436,-0.0009374765795655549,-9.817899703979492,0,0,28.317354202270508,1,1,1000,1000
1778782977.14008999,56324128,1,0.0009323899867013097,0.0007746084593236446,0.0008178191492334008,0.00021630103583447635,-0.0015522047178819776,-9.814969062805176,0,0,28.317354202270508,1,1,760,800
1778782977.18007398,56364112,0,0.0009137799497693777,0.0007892186986282468,0.0007943289238028228,-0.0017511274199932814,-0.00020452406897675246,-9.818324089050293,0,0,28.319580078125,1,1,1000,1000
1778782977.18007398,56364112,1,0.0007564775878563523,0.0009014466777443886,0.0008713058778084815,5.2823561418335885e-05,0.0005745277157984674,-9.818304061889648,0,0,28.319580078125,1,1,760,800
1778782977.22005796,56404096,0,0.0007581734098494053,0.0008406370761804283,0.0008388878777623177,-0.0016299559501931071,-0.0015267779817804694,-9.816089630126953,0,0,28.32180404663086,1,1,1000,1000
1778782977.22005796,56404096,1,0.0006427323096431792,0.0006914795376360416,0.0007158747757785022,-2.705293445615098e-05,-0.00136840611230582,-9.817313194274902,0,0,28.32180404663086,1,1,760,800
1778782977.26004219,56444080,0,0.0007959614158608019,0.0007441913476213813,0.0007573360926471651,-0.0006007355405017734,-0.0016193019691854715,-9.818364143371582,0,0,28.32402801513672,1,1,1000,1000
1778782977.26004219,56444080,1,0.0008043545531108975,0.0008352154982276261,0.0006850575446151197,0.0008102181600406766,-0.0011490094475448132,-9.814501762390137,0,0,28.32402801513672,1,1,760,800
1778782977.30002618,56484064,0,0.0007398594752885401,0.0007414196152240038,0.0008428898290731013,-0.001029639272019267,-0.001401157001964748,-9.816328048706055,0,0,28.326305389404297,1,1,1000,1000
1778782977.30002618,56484064,1,0.0008482223493047059,0.0010015993611887097,0.0007841837359592319,-0.00011183483002241701,-0.0021893102675676346,-9.816789627075195,0,0,28.326250076293945,1,1,760,800
1778782977.34001017,56524048,0,0.0008670598035678267,0.0008878012886270881,0.0007576032658107579,-0.0020312394481152296,-0.00020258277072571218,-9.816675186157227,0,0,28.328529357910156,1,1,1000,1000
1778782977.34001017,56524048,1,0.0006573493592441082,0.0008688035886734724,0.0010152847971767187,-0.0009079614537768066,-0.0016952676232904196,-9.81800365447998,0,0,28.328474044799805,1,1,760,800
1778782977.37999415,56564032,0,0.0007640362600795925,0.0008044736459851265,0.0008464303100481629,-0.0007954173488542438,-0.0006565143121406436,-9.817339897155762,0,0,28.330751419067383,1,1,1000,1000
1778782977.37999415,56564032,1,0.0006916757556609809,0.000837388914078474,0.0007993520121090114,2.7167181542608887e-05,-0.0006245981203392148,-9.815286636352539,0,0,28.33069610595703,1,1,760,800
1778782977.42081118,56604849,0,0.0008480669930577278,0.0008174524991773069,0.0007999496883712709,-0.0008594012469984591,-0.00043351881322450936,-9.817493438720703,0,0,28.33297348022461,1,1,1000,1000
1778782977.42081118,56604849,1,0.0007972108433023095,0.0007227323367260396,0.0008873299229890108,-0.000793244456872344,-0.0012897381093353033,-9.81903076171875,0,0,28.33297348022461,1,1,760,800
1778782977.46079516,56644833,0,0.0007797569269314408,0.000825634109787643,0.0007980845402926207,-0.0002321310166735202,-0.0009486862691119313,-9.816900253295898,0,0,28.33519744873047,1,1,1000,1000
1778782977.46079516,56644833,1,0.0007854636060073972,0.00100241438485682,0.000715027388650924,-0.0003693219623528421,-0.0018303000833839178,-9.819570541381836,0,0,28.33519744873047,1,1,760,800
1778782977.50077915,56684817,0,0.0009056995622813702,0.0008608035277575254,0.0008037881343625486,-0.0005132976220920682,-0.0008629753720015287,-9.817706108093262,0,0,28.337417602539062,1,1,1000,1000
1778782977.50077915,56684817,1,0.000628205481916666,0.0007909506093710661,0.0007229255279526114,-0.0028837043792009354,-0.002237966051325202,-9.816645622253418,0,0,28.337417602539062,1,1,760,800
1778782977.54076314,56724801,0,0.0007687345496378839,0.0008373093442060053,0.0007318654097616673,-0.0002966867759823799,-0.0015869773924350739,-9.817519187927246,0,0,28.33963966369629,1,1,1000,1000
1778782977.54076314,56724801,1,0.0010807841317728162,0.0005910370964556932,0.0007861862541176379,0.0021004960872232914,-0.0031869583763182163,-9.8172607421875,0,0,28.33963966369629,1,1,760,800
1778782977.58074713,56764785,0,0.0007543558604083955,0.0008209483348764479,0.0008206323836930096,-0.0012562908232212067,-0.0014613228850066662,-9.817451477050781,0,0,28.341861724853516,1,1,1000,1000
1778782977.58074713,56764785,1,0.0008164542960003018,0.0008395982440561056,0.0007963169482536614,-0.0014395115431398153,-0.002797642955556512,-9.817481994628906,0,0,28.341861724853516,1,1,760,800
1778782977.62073112,56804769,0,0.0007251902716234326,0.0008074970683082938,0.0007534644100815058,-0.0006918033468537033,0.0002973742666654289,-9.816805839538574,0,0,28.34408187866211,1,1,1000,1000
1778782977.62073112,56804769,1,0.0009683724492788315,0.0006598582840524614,0.0009405275341123343,-0.003542772028595209,-0.00039763341192156076,-9.816566467285156,0,0,28.34408187866211,1,1,760,800
1778782977.66071510,56844753,0,0.0007663307478651404,0.0007320535369217396,0.0008319164044223726,-0.0010806338395923376,-0.0005838185315951705,-9.81706428527832,0,0,28.346302032470703,1,1,1000,1000
1778782977.66071510,56844753,1,0.0008035185164771974,0.0006678916979581118,0.0007415294530801475,-0.0013574524782598019,0.0017642441671341658,-9.817215919494629,0,0,28.346302032470703,1,1,760,800
1778782977.70069909,56884737,0,0.0007913691224530339,0.0008336282335221767,0.0008239825256168842,-0.00045142145245335996,-0.0010959480423480272,-9.817697525024414,0,0,28.348522186279297,1,1,1000,1000
1778782977.70069909,56884737,1,0.0005826319102197886,0.0006698621436953545,0.0006287759752012789,3.964159986935556e-07,-6.117113662185147e-05,-9.816781997680664,0,0,28.348522186279297,1,1,760,800
1778782977.74068308,56924721,0,0.0007581578101962805,0.0008236807188950479,0.0008638384169898927,-0.0005796929472126067,-0.0005431786412373185,-9.818047523498535,0,0,28.35074234008789,1,1,1000,1000
1778782977.74068308,56924721,1,0.0009492937242612243,0.0008360807551071048,0.0007765076588839293,0.00038013767334632576,0.00032788512180559337,-9.816448211669922,0,0,28.35074234008789,1,1,760,800
1778782977.78066707,56964705,0,0.0008718922617845237,0.0008559947600588202,0.0007464655791409314,-0.000909411464817822,-0.0005448110168799758,-9.817474365234375,0,0,28.352962493896484,1,1,1000,1000
1778782977.78066707,56964705,1,0.0008336780592799187,0.0011535735102370381,0.001001965720206499,0.00019745608733501285,-0.0012393215438351035,-9.816181182861328,0,0,28.352962493896484,1,1,760,800
1778782977.82065105,57004689,0,0.0008211444946937263,0.0007108870195224881,0.0007783831097185612,-0.0008139301789924502,-0.0004028828989248723,-9.816882133483887,0,0,28.355182647705078,1,1,1000,1000
1778782977.82065105,57004689,1,0.0007391715771518648,0.0009640181087888777,0.0009352784836664796,-0.002164483768865466,-0.0008018632652238011,-9.81610107421875,0,0,28.355182647705078,1,1,760,800
1778782977.86063504,57044673,0,0.0008845627307891846,0.0008813906461000443,0.0007657991372980177,-0.00042466315790079534,-0.0010723742889240384,-9.816571235656738,0,0,28.35740089416504,1,1,1000,1000
1778782977.86063504,57044673,1,0.0007220595143735409,0.0008554670494049788,0.0008214808185584843,-0.0015873488737270236,-0.0014883603435009718,-9.81795597076416,0,0,28.35740089416504,1,1,760,800
1778782977.90061903,57084657,0,0.0007433135178871453,0.0008074292563833296,0.0008398317731916904,-0.0017578830011188984,-0.0002775563334580511,-9.818252563476562,0,0,28.359621047973633,1,1,1000,1000
1778782977.90061903,57084657,1,0.0005845966516062617,0.0005900260293856263,0.0007096267072483897,-0.0001691552606644109,0.0013058268232271075,-9.81472396850586,0,0,28.359621047973633,1,1,760,800
1778782977.94060302,57124641,0,0.0007938359631225467,0.0008418454672209918,0.0008219940355047584,-0.000581292319111526,-0.0012925005285069346,-9.817121505737305,0,0,28.361839294433594,1,1,1000,1000
1778782977.94060302,57124641,1,0.0009917716961354017,0.0010379457380622625,0.0007851923583075404,-0.00042456630035303533,-0.003339943243190646,-9.818126678466797,0,0,28.361839294433594,1,1,760,800
1778782977.98058701,57164625,0,0.0008136582328006625,0.0008058100356720388,0.0008276382577605546,-0.0013500701170414686,-0.0013649670872837305,-9.817926406860352,0,0,28.364057540893555,1,1,1000,1000
1778782977.98058701,57164625,1,0.0005095080123282969,0.0008549533085897565,0.0007588377920910716,-0.0025043345522135496,-0.001289147767238319,-9.816882133483887,0,0,28.364057540893555,1,1,760,800
1778782978.02057099,57204609,0,0.0007542805396951735,0.000801292946562171,0.0007407482480630279,0.00014718950842507184,-0.0008864606497809291,-9.818007469177246,0,0,28.366275787353516,1,1,1000,1000
1778782978.02057099,57204609,1,0.0008520190604031086,0.0006631190772168338,0.0008793653687462211,-0.001772088697180152,-0.0021601389162242413,-9.818574905395508,0,0,28.366275787353516,1,1,760,800
1778782978.06055498,57244593,0,0.0008132992079481483,0.0007524864049628377,0.0008661554893478751,-0.0010636651422828436,-0.0016100038774311543,-9.817899703979492,0,0,28.368492126464844,1,1,1000,1000
1778782978.06055498,57244593,1,0.0008900030516088009,0.00080416991841048,0.0007200631080195308,-0.0032870483119040728,0.0005847978172823787,-9.818666458129883,0,0,28.368492126464844,1,1,760,800
1778782978.10053897,57284577,0,0.0008333208970725536,0.0008139258134178817,0.000750039063859731,-0.0015782923437654972,-0.0003143477370031178,-9.817581176757812,0,0,28.370710372924805,1,1,1000,1000
1778782978.10053897,57284577,1,0.0007113321917131543,0.0008986046887002885,0.0007325152400881052,-0.0016056728782132268,-0.0013725637691095471,-9.816444396972656,0,0,28.370710372924805,1,1,760,800
1778782978.14052320,57324561,0,0.0007452314021065831,0.0008415508782491088,0.0007661525160074234,-0.0016915604937821627,-0.00031119835330173373,-9.817419052124023,0,0,28.372926712036133,1,1,1000,1000
1778782978.14052320,57324561,1,0.0007797477883286774,0.0008292224374599755,0.0005291296984069049,-0.0018453847151249647,-0.0009249461581930518,-9.817914962768555,0,0,28.372926712036133,1,1,760,800
1778782978.18050718,57364545,0,0.0007423539645969868,0.0007952427840791643,0.000769362784922123,-0.0003809157060459256,-0.0003125671355519444,-9.817499160766602,0,0,28.375144958496094,1,1,1000,1000
1778782978.18050718,57364545,1,0.0007266103057190776,0.0008960309205576777,0.0009523793705739081,-0.00038068214780651033,-0.0004619968531187624,-9.817655563354492,0,0,28.375144958496094,1,1,760,800
1778782978.22049117,57404529,0,0.0008222156320698559,0.0007974471664056182,0.0008418225916102529,-0.0008187359781004488,-0.0007001321646384895,-9.817548751831055,0,0,28.37735939025879,1,1,1000,1000
1778782978.22049117,57404529,1,0.0007502336520701647,0.0009748082375153899,0.0006380624254234135,-0.0008472198387607932,0.0007125058909878135,-9.81966781616211,0,0,28.37735939025879,1,1,760,800
1778782978.26047516,57444513,0,0.0007961720111779869,0.0007718589622527361,0.0008279613684862852,-0.0011153769446536899,-0.0012492258101701736,-9.818615913391113,0,0,28.379575729370117,1,1,1000,1000
1778782978.26047516,57444513,1,0.0008597640553489327,0.0010409128153696656,0.0008685915963724256,-0.0008603325113654137,-0.005372009705752134,-9.817562103271484,0,0,28.379575729370117,1,1,760,800
1778782978.30045915,57484497,0,0.0007766577764414251,0.0007577104261144996,0.0008047269657254219,-0.001406729919835925,8.499541763740126e-06,-9.817636489868164,0,0,28.381792068481445,1,1,1000,1000
1778782978.30045915,57484497,1,0.0006204691017046571,0.0008576420950703323,0.0009785954607650638,0.0012591354316100478,-0.0013913734583184123,-9.817533493041992,0,0,28.381792068481445,1,1,760,800
1778782978.34044313,57524481,0,0.0008562898146919906,0.0008439580560661852,0.0008858364308252931,-0.0007628706516698003,-0.0010640299879014492,-9.818145751953125,0,0,28.384008407592773,1,1,1000,1000
1778782978.34044313,57524481,1,0.0007189311436377466,0.0007663971045985818,0.0008405526168644428,-0.0021780761890113354,-0.0035651482176035643,-9.818005561828613,0,0,28.384008407592773,1,1,760,800
1778782978.38042712,57564465,0,0.0007661372656002641,0.000837561790831387,0.0007784415502101183,-0.0010300690773874521,-0.001444241264835,-9.817066192626953,0,0,28.38622283935547,1,1,1000,1000
1778782978.38042712,57564465,1,0.0006266417913138866,0.0007419053581543267,0.0007781781605444849,-0.002561501692980528,-0.0013322612503543496,-9.818170547485352,0,0,28.38622283935547,1,1,760,800
1778782978.42041111,57604449,0,0.0008010593592189252,0.0008555392269045115,0.0007849817629903555,-0.00122649350669235,-0.0018635090673342347,-9.817514419555664,0,0,28.388439178466797,1,1,1000,1000
1778782978.42041111,57604449,1,0.0009776863735169172,0.0007616991642862558,0.0010573867475613952,-0.0017171807121485472,-0.001160584855824709,-9.816730499267578,0,0,28.388439178466797,1,1,760,800
1778782978.46039510,57644433,0,0.0008504380821250379,0.0008195786504074931,0.0007963841781020164,-0.0008576426771469414,-0.0015231776051223278,-9.816756248474121,0,0,28.390653610229492,1,1,1000,1000
1778782978.46039510,57644433,1,0.00047213290235958993,0.0006668316200375557,0.0007159049273468554,-0.000739912036806345,0.00025984548847191036,-9.816079139709473,0,0,28.390653610229492,1,1,760,800
1778782978.50037909,57684417,0,0.0008551250793971121,0.0007764234323985875,0.0008175947004929185,1.366382093692664e-05,-0.00201585004106164,-9.818472862243652,0,0,28.392868041992188,1,1,1000,1000
1778782978.50037909,57684417,1,0.0008174382383003831,0.0008813810418359935,0.0006712982431054115,0.0018706497503444552,0.00022248318418860435,-9.819122314453125,0,0,28.392868041992188,1,1,760,800
1778782978.54036307,57724401,0,0.0007298067212104797,0.0008315321174450219,0.0007426678203046322,-0.000606956600677222,-0.0015204822411760688,-9.816850662231445,0,0,28.395082473754883,1,1,1000,1000
1778782978.54036307,57724401,1,0.0007952463929541409,0.0006927865906618536,0.0006611583521589637,0.0014495734358206391,-0.0014964193105697632,-9.81635856628418,0,0,28.395082473754883,1,1,760,800
1778782978.58034706,57764385,0,0.000855275196954608,0.0008675177814438939,0.0007793436525389552,-0.0014223026810213923,-0.001626724610105157,-9.817030906677246,0,0,28.397294998168945,1,1,1000,1000
1778782978.58034706,57764385,1,0.0009850350907072425,0.0008431687601841986,0.0007515593315474689,-0.002190179890021682,-0.0028422933537513018,-9.81741714477539,0,0,28.397294998168945,1,1,760,800
1778782978.62033105,57804369,0,0.0007771849632263184,0.000746671692468226,0.0008303950307890773,-0.00046285655116662383,-0.0007817898876965046,-9.816896438598633,0,0,28.39950942993164,1,1,1000,1000
1778782978.62033105,57804369,1,0.0006592641002498567,0.0008961426210589707,0.0008091824711300433,-0.0010811740066856146,0.0006842953152954578,-9.818011283874512,0,0,28.39950942993164,1,1,760,800
1778782978.66031504,57844353,0,0.0008133906521834433,0.0008556804968975484,0.0007631658809259534,-0.0013112956658005714,-0.001576542854309082,-9.817421913146973,0,0,28.401721954345703,1,1,1000,1000
1778782978.66031504,57844353,1,0.0008542442228645086,0.001098064356483519,0.0007598146330565214,-0.0026118529494851828,5.044890713179484e-06,-9.818662643432617,0,0,28.401721954345703,1,1,760,800
1778782978.70029902,57884337,0,0.0007788548246026039,0.0007989988080225885,0.0007845801883377135,-0.0006982488557696342,-0.0007013558060862124,-9.817498207092285,0,0,28.403934478759766,1,1,1000,1000
1778782978.70029902,57884337,1,0.0005386167904362082,0.001041141338646412,0.0009102853946387768,-0.0017555106896907091,0.001210954156704247,-9.815864562988281,0,0,28.403934478759766,1,1,760,800
1778782978.74028301,57924321,0,0.0007828082889318466,0.0008042227709665895,0.0008136334363371134,-0.0008310721023008227,-0.0008338698535226285,-9.817774772644043,0,0,28.406147003173828,1,1,1000,1000
1778782978.74028301,57924321,1,0.0007319895667023957,0.0005823486717417836,0.0008987519540823996,0.00020870545995421708,0.0003481385065242648,-9.814254760742188,0,0,28.406147003173828,1,1,760,800
1778782978.78026700,57964305,0,0.0007955130422487855,0.0008342229411937296,0.0008433287730440497,-0.001860438147559762,-0.0010721299331635237,-9.818408012390137,0,0,28.40835952758789,1,1,1000,1000
1778782978.78026700,57964305,1,0.0010010787518694997,0.0007524928078055382,0.0006927418289706111,-0.0021671252325177193,-0.0012039700523018837,-9.8158540725708,0,0,28.40835952758789,1,1,760,800
1778782978.82025099,58004289,0,0.0007403877680189908,0.0007868531392887235,0.0008633183315396309,-0.0013343661557883024,-0.002153521403670311,-9.818015098571777,0,0,28.410572052001953,1,1,1000,1000
1778782978.82025099,58004289,1,0.0006975794094614685,0.0007096360204741359,0.0007520203362219036,-0.0016266298480331898,-0.001341657480224967,-9.816410064697266,0,0,28.410572052001953,1,1,760,800
1778782978.86023498,58044273,0,0.0008730572299100459,0.0008578340639360249,0.0008228789665736258,-0.0012322660768404603,-0.0005919270915910602,-9.817256927490234,0,0,28.412784576416016,1,1,1000,1000
1778782978.86023498,58044273,1,0.0007155432249419391,0.0007152541656978428,0.0008491681655868888,-0.0002966029569506645,-0.0027257208712399006,-9.815927505493164,0,0,28.412784576416016,1,1,760,800
1778782978.90021896,58084257,0,0.0008083194843493402,0.000855684804264456,0.00083203986287117,-0.0002032154006883502,-0.0014711504336446524,-9.81727409362793,0,0,28.414995193481445,1,1,1000,1000
1778782978.90021896,58084257,1,0.0007978856447152793,0.0007976882043294609,0.0006795197259634733,-0.0006873010424897075,-0.0009549603564664721,-9.820384979248047,0,0,28.414995193481445,1,1,760,800
1778782978.94020319,58124241,0,0.0008478171657770872,0.0007591093890368938,0.0007728206692263484,-0.001392435748130083,-0.000929707195609808,-9.817476272583008,0,0,28.417207717895508,1,1,1000,1000
1778782978.94020319,58124241,1,0.0006487888749688864,0.0008143373997882009,0.0009291663300246,-9.81539415079169e-05,8.755675662541762e-05,-9.820561408996582,0,0,28.417207717895508,1,1,760,800
1778782978.98018718,58164225,0,0.0008617502171546221,0.0007880633929744363,0.0007840876933187246,-0.0006857287371531129,-0.002347224857658148,-9.817273139953613,0,0,28.419363021850586,1,1,1000,1000
1778782978.98018718,58164225,1,0.0007054744055494666,0.001091995625756681,0.0007072379230521619,-0.0002661618054844439,-0.0013796254061162472,-9.820099830627441,0,0,28.419363021850586,1,1,760,800
1778782979.02017117,58204209,0,0.0008034213096834719,0.0008137981640174985,0.0008773256558924913,1.133818022935884e-05,-0.001345588592812419,-9.817022323608398,0,0,28.421571731567383,1,1,1000,1000
1778782979.02017117,58204209,1,0.0008421623497270048,0.0006147829699330032,0.0006729082087986171,-0.0012256193440407515,0.0007432372076436877,-9.818063735961914,0,0,28.421571731567383,1,1,760,800
1778782979.06015515,58244193,0,0.0007970184669829905,0.0008405997650697827,0.0007930808351375163,-0.0009415877284482121,-0.0023300389293581247,-9.818079948425293,0,0,28.423784255981445,1,1,1000,1000
1778782979.06015515,58244193,1,0.0009177355095744133,0.0008915819926187396,0.0009542540647089481,-0.0006162711651995778,0.0004244751762598753,-9.817484855651855,0,0,28.423784255981445,1,1,760,800
1778782979.10013914,58284177,0,0.000913683557882905,0.0007909140549600124,0.0007725657196715474,5.0189428293379024e-05,-0.0008429400040768087,-9.818365097045898,0,0,28.425994873046875,1,1,1000,1000
1778782979.10013914,58284177,1,0.0008920052205212414,0.0006906395428813994,0.0005834965268149972,0.001667096745222807,-0.0044299024157226086,-9.820257186889648,0,0,28.425994873046875,1,1,760,800
1778782979.14012313,58324161,0,0.0008340504136867821,0.0007599437376484275,0.0008084242581389844,-0.0010682456195354462,-0.0006408613407984376,-9.817594528198242,0,0,28.428203582763672,1,1,1000,1000
1778782979.14012313,58324161,1,0.0005751578719355166,0.0007855789735913277,0.0008138160919770598,-0.0011591094080358744,-0.0028733457438647747,-9.817154884338379,0,0,28.428203582763672,1,1,760,800
