timestamp,TimeUS,C,Roll,Pitch,Yaw,VN,VE,VD,dPD,PN,PE,PD,GX,GY,GZ,OH
1778627314.43998408,54645633,0,0.06,0.05,354.85,-0.013848056085407734,0.016431473195552826,9.217689512297511e-05,6.278125511016697e-05,-0.01042086724191904,0.012429450638592243,-0.0036937324330210686,0.02,0.02,-0.09,584.09
1778627314.43998408,54645633,1,0.06,0.05,354.85,-0.012877569533884525,0.016429513692855835,0.0004845422809012234,0.0002460604009684175,-0.009866176173090935,0.0124357920140028,0.006354061421006918,0.02,0.02,-0.09,584.08
1778627314.53994417,54745593,0,0.06,0.05,354.85,-0.013880675658583641,0.01645677536725998,6.11960276728496e-05,8.377433914574794e-06,-0.01047388557344675,0.012482413090765476,-0.0036908783949911594,0.02,0.02,-0.09,584.09
1778627314.53994417,54745593,1,0.06,0.05,354.85,-0.012858406640589237,0.016529930755496025,0.0004617907979991287,0.00017784623196348548,-0.009933575056493282,0.012545767240226269,0.0063779596239328384,0.02,0.02,-0.09,584.08
1778627314.63990402,54845553,0,0.06,0.05,354.85,-0.013690494000911713,0.0161841232329607,0.00010806495993165299,4.8250018153339624e-05,-0.01038726419210434,0.012371272780001163,-0.0036871368065476418,0.02,0.02,-0.09,584.09
1778627314.63990402,54845553,1,0.06,0.05,354.85,-0.012688168324530125,0.016238054260611534,0.0004746383347082883,0.00018901457951869816,-0.009858069941401482,0.01247105747461319,0.006393056828528643,0.02,0.02,-0.09,584.08
1778627314.73986411,54945513,0,0.06,0.05,354.84,-0.013509883545339108,0.016012853011488914,0.00018161906336899847,0.00012024638272123411,-0.01044357381761074,0.012427452020347118,-0.003678068285807967,0.02,0.02,-0.09,584.09
1778627314.73986411,54945513,1,0.06,0.05,354.85,-0.012735258787870407,0.016031544655561447,0.0005065687000751495,0.0002035439683822915,-0.009908212348818779,0.012537061236798763,0.006413071416318417,0.02,0.02,-0.09,584.08
1778627314.83982420,55045473,0,0.06,0.05,354.84,-0.01298811100423336,0.015462788753211498,0.00023334204161074013,0.00016672560013830662,-0.010321245528757572,0.012284957803785801,-0.0036627857480198145,0.02,0.02,-0.09,584.09
1778627314.83982420,55045473,1,0.06,0.05,354.84,-0.012375369668006897,0.015469519421458244,0.000376186246285215,7.689017365919426e-05,-0.009798525832593441,0.012378367595374584,0.006424978841096163,0.02,0.02,-0.09,584.08
1778627314.93978405,55145433,0,0.06,0.05,354.84,-0.012454536743462086,0.01491757296025753,0.00024538373691029847,0.00016764334577601403,-0.010280233807861805,0.012247258797287941,-0.0036456480156630278,0.02,0.02,-0.09,584.09
1778627314.93978405,55145433,1,0.06,0.05,354.84,-0.011887540109455585,0.014891629107296467,0.00042455148650333285,0.00011442235700087622,-0.00978029239922762,0.012329370714724064,0.006433720700442791,0.02,0.02,-0.09,584.08
1778627315.03974414,55245393,0,0.06,0.05,354.84,-0.011572306044399738,0.013889574445784092,0.0002785450778901577,0.00017976618255488575,-0.010036587715148926,0.011971097439527512,-0.003630173858255148,0.02,0.02,-0.09,584.09
1778627315.03974414,55245393,1,0.06,0.05,354.84,-0.010997042059898376,0.013895341195166111,0.00043784797890111804,0.0001477313053328544,-0.009558151476085186,0.012044189497828484,0.006449929904192686,0.02,0.02,-0.09,584.08
1778627315.13970399,55345353,0,0.06,0.05,354.83,-0.01070621982216835,0.012826334685087204,0.0002935900411102921,0.00016726995818316936,-0.009827988222241402,0.011736481450498104,-0.0036130319349467754,0.02,0.02,-0.09,584.09
1778627315.13970399,55345353,1,0.06,0.05,354.84,-0.010157779790461063,0.012831599451601505,0.00040126912062987685,0.00012062238965881988,-0.009363311342895031,0.011801638640463352,0.006467790342867374,0.02,0.02,-0.09,584.08
1778627315.23966408,55445313,0,0.06,0.05,354.83,-0.009519129060208797,0.011367985978722572,0.00027934060199186206,0.0001330273662460968,-0.009417039342224598,0.011252934113144875,-0.003599768038839102,0.02,0.02,-0.09,584.09
1778627315.23966408,55445313,1,0.06,0.05,354.83,-0.009122665971517563,0.011368406005203724,0.0002759097842499614,-2.5394998374395072e-05,-0.008984856307506561,0.011320235207676888,0.006468775682151318,0.02,0.02,-0.09,584.08
1778627315.33962417,55545273,0,0.06,0.05,354.83,-0.008352026343345642,0.009986377321183681,0.0003122745838481933,0.00014081705012358725,-0.009020326659083366,0.010782001540064812,-0.003585451515391469,0.02,0.02,-0.09,584.09
1778627315.33962417,55545273,1,0.06,0.05,354.83,-0.007869487628340721,0.00998056773096323,0.00031784872408024967,9.714850421005394e-06,-0.008506936021149158,0.01071360893547535,0.0064665148966014385,0.02,0.02,-0.09,584.08
1778627315.43958402,55645233,0,0.06,0.05,354.82,-0.007021827157586813,0.00849195383489132,0.00036342054954729974,0.0001814516872400418,-0.008440287783741951,0.010094162076711655,-0.003570826491340995,0.02,0.02,-0.09,584.09
1778627315.43958402,55645233,1,0.06,0.05,354.83,-0.006766198668628931,0.008504404686391354,0.0003512999101076275,9.440354187972844e-05,-0.008015585131943226,0.010103042237460613,0.006470892578363419,0.02,0.02,-0.09,584.08
1778627315.53954411,55745193,0,0.07,0.05,354.82,-0.0057924664579331875,0.007082231808453798,0.0003396636457182467,0.0001397536980221048,-0.007890131324529648,0.009448603726923466,-0.0035535574425011873,0.02,0.02,-0.09,584.09
1778627315.53954411,55745193,1,0.06,0.05,354.83,-0.005742463283240795,0.0071345604956150055,0.00029806295060552657,6.0777540056733415e-05,-0.0075407009571790695,0.009498662315309048,0.006483830977231264,0.02,0.02,-0.09,584.08
1778627315.63950419,55845153,0,0.07,0.05,354.82,-0.0045158579014241695,0.005597287323325872,0.00033529853681102395,0.000122366109280847,-0.007214488927274942,0.00865723006427288,-0.0035425678361207247,0.02,0.02,-0.09,584.09
1778627315.63950419,55845153,1,0.06,0.05,354.83,-0.004662926774471998,0.005724617280066013,0.00018427673785481602,-4.7377838200191036e-05,-0.006936343386769295,0.008733750320971012,0.00648466357961297,0.02,0.02,-0.09,584.08
1778627315.73946404,55945113,0,0.07,0.06,354.82,-0.003387847915291786,0.0043027764186263084,0.00031556730391457677,7.69377511460334e-05,-0.006585054099559784,0.007920067757368088,-0.003529399400576949,0.02,0.02,-0.09,584.09
1778627315.73946404,55945113,1,0.06,0.05,354.82,-0.003548398846760392,0.004378967918455601,0.0001227515167556703,-0.0001314206892857328,-0.006367964670062065,0.008012073114514351,0.006474499125033617,0.02,0.02,-0.09,584.08
1778627315.83942413,56045073,0,0.07,0.06,354.81,-0.0024135711137205362,0.00304927839897573,0.000266664574155584,2.131161636498291e-05,-0.005889064632356167,0.007099943235516548,-0.0035234319511801004,0.02,0.02,-0.09,584.09
1778627315.83942413,56045073,1,0.07,0.06,354.82,-0.0025243405252695084,0.0031304950825870037,0.0001345658820355311,-8.40806751511991e-05,-0.005719420500099659,0.007195740472525358,0.006465968210250139,0.02,0.02,-0.08,584.08
1778627315.93938398,56145033,0,0.07,0.06,354.81,-0.001560080680064857,0.002018956234678626,0.00026791045092977583,6.302390147538972e-07,-0.0052764322608709335,0.0063713123090565205,-0.0035191483329981565,0.02,0.02,-0.08,584.09
1778627315.93938398,56145033,1,0.07,0.06,354.81,-0.0016626514261588454,0.0020396187901496887,0.00018517771968618035,-5.033883098803926e-06,-0.005145843606442213,0.006474943365901709,0.006462900899350643,0.02,0.02,-0.09,584.08
1778627316.03934407,56244993,0,0.07,0.06,354.81,-0.0007527417037636042,0.0010326963383704424,0.00031806272454559803,6.934200064279139e-05,-0.004634283483028412,0.005603163503110409,-0.0035144188441336155,0.02,0.02,-0.08,584.09
1778627316.03934407,56244993,1,0.07,0.06,354.81,-0.0010138734942302108,0.0010123898973688483,0.00016393704572692513,1.6884056094568223e-05,-0.004581306129693985,0.00575660914182663,0.006461482495069504,0.02,0.02,-0.08,584.08
1778627316.13930416,56344953,0,0.07,0.06,354.8,-0.0001263336162082851,0.00022644695127382874,0.0002957085380330682,6.088430745876394e-05,-0.004075899254530668,0.004930239636451006,-0.0035050460137426853,0.02,0.02,-0.08,584.09
1778627316.13930416,56344953,1,0.07,0.06,354.81,-0.00023503348347730935,2.1619771359837614e-05,0.00019955917377956212,6.361665145959705e-05,-0.004028049763292074,0.005043562967330217,0.0064651574939489365,0.02,0.02,-0.08,584.08
1778627316.23926401,56444913,0,0.07,0.06,354.8,0.0004559035296551883,-0.0004986858693882823,0.0002539920969866216,1.924756361404434e-05,-0.003516224678605795,0.004256104119122028,-0.0035018203780055046,0.02,0.02,-0.08,584.09
1778627316.23926401,56444913,1,0.07,0.06,354.81,0.0003705942945089191,-0.0007007921813055873,0.0001982208777917549,7.188026211224496e-05,-0.0034973619040101767,0.004365688189864159,0.006468526553362608,0.02,0.02,-0.08,584.08
1778627316.33922410,56544873,0,0.08,0.06,354.8,0.0008626001654192805,-0.0010722861625254154,0.0002999811840709299,5.3335141274146736e-05,-0.0030427505262196064,0.0036780100781470537,-0.0034962166100740433,0.02,0.02,-0.08,584.09
1778627316.33922410,56544873,1,0.07,0.06,354.8,0.0008659966988489032,-0.0013608396984636784,0.00016400350432377309,3.019150608452037e-05,-0.00300095253624022,0.0037321189884096384,0.006474026478827,0.02,0.02,-0.08,584.08
1778627316.43918419,56644833,0,0.08,0.07,354.8,0.0012547810329124331,-0.0014879878144711256,0.00027096900157630444,2.8814029064960778e-05,-0.002582152606919408,0.0031187713611871004,-0.0034931283444166183,0.02,0.02,-0.08,584.09
1778627316.43918419,56644833,1,0.08,0.06,354.8,0.0011543130967766047,-0.0018505076877772808,8.349019481102005e-05,-5.2037747082067654e-05,-0.0025506310630589724,0.0031543083023279905,0.006474786438047886,0.02,0.02,-0.08,584.08
1778627316.53997707,56745626,0,0.08,0.07,354.79,0.0015451170038431883,-0.0018165711080655456,0.0002874778874684125,4.213934516883455e-05,-0.0022005203645676374,0.0026607289910316467,-0.003487900597974658,0.02,0.02,-0.08,584.09
1778627316.53997707,56745626,1,0.08,0.07,354.8,0.0014028858859091997,-0.002239949069917202,8.878194057615474e-05,-7.096609624568373e-05,-0.0021437283139675856,0.0026182597503066063,0.006470181979238987,0.02,0.02,-0.08,584.08
1778627316.63993716,56845586,0,0.08,0.07,354.79,0.0017229168443009257,-0.002035337034612894,0.00030347786378115416,6.681885861326009e-05,-0.0018357274821028113,0.00222368654794991,-0.0034834654070436954,0.02,0.02,-0.08,584.09
1778627316.63993716,56845586,1,0.08,0.07,354.79,0.0015381736448034644,-0.0023819799534976482,3.6470020859269425e-05,-0.00010840984032256529,-0.0017992656212300062,0.00216293684206903,0.006461716257035732,0.02,0.02,-0.08,584.08
1778627316.73989701,56945546,0,0.08,0.07,354.79,0.001850646105594933,-0.0021861169952899218,0.00023712044639978558,5.008341759094037e-06,-0.0015441797440871596,0.0018730050651356578,-0.003478484693914652,0.02,0.02,-0.08,584.09
1778627316.73989701,56945546,1,0.08,0.07,354.79,0.001746117603033781,-0.002460096264258027,6.543203198816627e-05,-6.376508099492639e-05,-0.0015127162914723158,0.001803537947125733,0.006453789304941893,0.02,0.02,-0.08,584.08
1778627316.83985710,57045506,0,0.08,0.07,354.78,0.001924949698150158,-0.0022408554796129465,0.0002486407174728811,3.564407961675897e-05,-0.0012872968800365925,0.0015674124006181955,-0.0034772991202771664,0.02,0.02,-0.08,584.09
1778627316.83985710,57045506,1,0.08,0.07,354.79,0.0017154719680547714,-0.0024861767888069153,0.00011579110287129879,1.3108937309880275e-05,-0.0012402980355545878,0.001469080918468535,0.006452007219195366,0.02,0.02,-0.08,584.08
1778627316.93981719,57145466,0,0.08,0.07,354.78,0.001891497289761901,-0.0022136683110147715,0.00020988839969504625,-1.2471347872633487e-05,-0.001068342593498528,0.0013074857415631413,-0.0034761580172926188,0.02,0.02,-0.08,584.09
1778627316.93981719,57145466,1,0.08,0.07,354.79,0.001708235708065331,-0.0025327519979327917,0.00013424626376945525,5.034314017393626e-05,-0.001040645525790751,0.001217366079799831,0.00645851343870163,0.02,0.02,-0.08,584.08
1778627317.03977704,57245426,0,0.09,0.08,354.78,0.0018768783193081617,-0.002256042556837201,0.00016114488244056702,-4.5305085222935304e-05,-0.0008810673607513309,0.00108112464658916,-0.003478566650301218,0.02,0.02,-0.08,584.09
1778627317.03977704,57245426,1,0.08,0.07,354.78,0.0015181031776592135,-0.0024704092647880316,4.242794602760114e-05,-5.060811236035079e-05,-0.0008793570450507104,0.0010013444116339087,0.0064553325064480305,0.02,0.02,-0.08,584.08
1778627317.13973713,57345386,0,0.09,0.08,354.77,0.0017730967374518514,-0.0021312034223228693,0.00014137740072328597,-6.736486830050126e-05,-0.0007278543780557811,0.0008923130226321518,-0.003484042128548026,0.02,0.02,-0.08,584.09
1778627317.13973713,57345386,1,0.09,0.08,354.78,0.0014215006958693266,-0.0023306841030716896,7.851272675907239e-05,-2.657168442965485e-05,-0.0007615253562107682,0.0008271764381788671,0.00644978741183877,0.02,0.02,-0.08,584.08
1778627317.23969722,57445346,0,0.09,0.08,354.77,0.0016592942411080003,-0.002012670272961259,8.691022958373651e-05,-9.455888357479125e-05,-0.0006005125469528139,0.000735423353035003,-0.003490751376375556,0.02,0.02,-0.08,584.09
1778627317.23969722,57445346,1,0.09,0.08,354.78,0.0013184362323954701,-0.0022047171369194984,-1.254062567568326e-06,-9.207813127432019e-05,-0.0006448893691413105,0.0006686981068924069,0.006442450452595949,0.02,0.02,-0.08,584.08
1778627317.33965707,57545306,0,0.09,0.08,354.77,0.001458421815186739,-0.0018128800438717008,5.078127287561074e-05,-0.0001171870026155375,-0.0005070768529549241,0.0006172653520479798,-0.0035008308477699757,0.02,0.02,-0.08,584.09
1778627317.33965707,57545306,1,0.09,0.08,354.77,0.0011355489259585738,-0.002123813610523939,-9.567456800141372e-06,-9.029722423292696e-05,-0.0005715816514566541,0.0005524030420929193,0.006435186602175236,0.02,0.02,-0.08,584.08
1778627317.43961716,57645266,0,0.09,0.08,354.76,0.0013090107822790742,-0.0017067695735022426,8.235373388743028e-05,-5.0833441491704434e-05,-0.00043281051330268383,0.0005183754255995154,-0.0035084036644548178,0.02,0.02,-0.08,584.09
1778627317.43961716,57645266,1,0.09,0.08,354.77,0.0009849624475464225,-0.0018608118407428265,-5.033588968217373e-05,-0.00011241851461818442,-0.0004990120069123805,0.00043910706881433725,0.006422767881304026,0.02,0.02,-0.08,584.08
1778627317.53957701,57745226,0,0.09,0.08,354.76,0.0010948864510282874,-0.0015034559182822704,7.280269346665591e-05,-3.63986509910319e-05,-0.00038553838385269046,0.00044643174624070525,-0.003512441646307707,0.02,0.02,-0.08,584.09
1778627317.53957701,57745226,1,0.09,0.08,354.77,0.0008896909421309829,-0.001605662633664906,-0.00011926922888960689,-0.0001682384463492781,-0.00045782822417095304,0.0003817447868641466,0.006410070229321718,0.02,0.02,-0.08,584.08
1778627317.63953710,57845186,0,0.1,0.08,354.76,0.000865374633576721,-0.0012778295204043388,4.713662565336563e-05,-3.951934922952205e-05,-0.0003525173815432936,0.0003910835075657815,-0.003516609314829111,0.02,0.02,-0.08,584.09
1778627317.63953710,57845186,1,0.09,0.09,354.76,0.0005615705740638077,-0.0012040943838655949,-0.00015732528117951006,-0.00017246247443836182,-0.00041765818605199456,0.00033607875229790807,0.006395342759788036,0.02,0.02,-0.08,584.08
1778627317.73949718,57945146,0,0.1,0.09,354.75,0.0006268420838750899,-0.001014834619127214,8.612181409262121e-05,8.912894372770097e-06,-0.00034320986014790833,0.0003622955991886556,-0.0035180591512471437,0.02,0.02,-0.08,584.09
1778627317.73949718,57945146,1,0.1,0.09,354.76,0.0002845328999683261,-0.0008771735010668635,4.712208829005249e-05,6.171218410599977e-05,-0.00043745271977968514,0.0003654909960459918,0.006390646565705538,0.02,0.02,-0.08,584.08
1778627317.83945704,58045106,0,0.1,0.09,354.75,0.0003562483179848641,-0.0007363682379946113,7.763771282043308e-05,4.557334250421263e-06,-0.0003446323098614812,0.0003476346901152283,-0.003520641475915909,0.02,0.02,-0.08,584.09
1778627317.83945704,58045106,1,0.1,0.09,354.76,1.1017696124326903e-05,-0.0005994143430143595,6.223742093425244e-05,9.06497152755037e-05,-0.0004411538830026984,0.0003656105836853385,0.006399569567292929,0.02,0.02,-0.08,584.08
1778627317.93941712,58145066,0,0.1,0.09,354.75,0.00014221259334590286,-0.0003963263297919184,7.284289313247427e-05,-7.299165645235917e-06,-0.0003732804616447538,0.0003728171868715435,-0.003521982580423355,0.02,0.02,-0.08,584.09
1778627317.93941712,58145066,1,0.1,0.09,354.75,-0.00025818997528404,-0.00023643636086490005,-0.00010586267308099195,-6.810341437812895e-05,-0.0004807460936717689,0.00040281435940414667,0.006400893907994032,0.02,0.02,-0.07,584.08
1778627318.03937721,58245026,0,0.1,0.09,354.75,-0.0001251461944775656,-0.00017092960479203612,8.22727961349301e-05,2.11806695915584e-06,-0.0003887682396452874,0.00038405091618187726,-0.003521704114973545,0.02,0.02,-0.08,584.09
1778627318.03937721,58245026,1,0.1,0.09,354.75,-0.0005611032247543335,0.00013754320389125496,-0.00017997667600866407,-0.00015279132639989257,-0.0005066183512099087,0.00042942300206050277,0.00638726819306612,0.02,0.02,-0.07,584.08
1778627318.13933706,58344986,0,0.1,0.09,354.74,-0.00042535673128440976,0.0001850470289355144,5.4834545153426006e-05,-2.769547063508071e-05,-0.00044150304165668786,0.0004330909578129649,-0.0035235071554780006,0.02,0.02,-0.07,584.09
1778627318.13933706,58344986,1,0.1,0.09,354.75,-0.0009412392391823232,0.00038342378684319556,-0.0002170257648685947,-0.00020317109010647982,-0.0005776315811090171,0.0004940452636219561,0.006366006098687649,0.02,0.02,-0.07,584.08
1778627318.23929715,58444946,0,0.11,0.09,354.74,-0.0007267639739438891,0.0005379021167755127,3.7414702092064545e-05,-3.7821144360350445e-05,-0.0004816823056899011,0.00047221319982782006,-0.003526933491230011,0.02,0.02,-0.07,584.09
1778627318.23929715,58444946,1,0.1,0.09,354.74,-0.0014235021080821753,0.0005856573698110878,-0.0003076783905271441,-0.00025534778251312673,-0.0006402761791832745,0.0005297313909977674,0.00634969025850296,0.02,0.02,-0.07,584.08
1778627318.33925700,58544906,0,0.11,0.1,354.74,-0.0010320207802578807,0.0009348341263830662,1.281053300772328e-05,-6.108295929152519e-05,-0.0005601933225989342,0.0005575889954343438,-0.0035314057022333145,0.02,0.02,-0.07,584.09
1778627318.33925700,58544906,1,0.1,0.1,354.74,-0.0017303432105109096,0.0009005148895084858,-0.0004559984663501382,-0.0003374441002961248,-0.0007536702905781567,0.0006070446106605232,0.00632080901414156,0.02,0.02,-0.07,584.08
1778627318.43921709,58644866,0,0.11,0.1,354.73,-0.0013104549143463373,0.0013085533864796162,2.6354713554610498e-05,-3.40052429237403e-05,-0.0006182377692312002,0.0006252588937059045,-0.003536297008395195,0.02,0.02,-0.07,584.09
1778627318.43921709,58644866,1,0.11,0.1,354.73,-0.002101476537063718,0.001314433990046382,-0.0005343855009414256,-0.0003661444934550673,-0.0008649968658573925,0.0006832718499936163,0.006289185490459204,0.02,0.02,-0.07,584.08
1778627318.53917718,58744826,0,0.11,0.1,354.73,-0.0017008853610605001,0.0017262924229726195,-7.614176865899935e-06,-5.663709089276381e-05,-0.0007192872581072152,0.0007439499022439122,-0.0035404511727392673,0.02,0.02,-0.07,584.09
1778627318.53917718,58744826,1,0.11,0.1,354.73,-0.002488519297912717,0.0016309277852997184,-0.0005531716742552817,-0.0003091100079473108,-0.00098607933614403,0.0007725530304014683,0.006256168708205223,0.02,0.02,-0.07,584.08
1778627318.63997006,58845619,0,0.11,0.1,354.73,-0.0020390041172504425,0.002143497345969081,1.0964335160679184e-05,-2.9511893444578163e-05,-0.0008023961563594639,0.0008396496414206922,-0.0035441587679088116,0.02,0.02,-0.07,584.09
1778627318.63997006,58845619,1,0.11,0.1,354.73,-0.00274506863206625,0.0019275390077382326,-0.0003599376941565424,-3.614836896304041e-05,-0.0010783473262563348,0.0008501071715727448,0.0062407380901277065,0.02,0.02,-0.07,584.08
1778627318.73993015,58945579,0,0.11,0.1,354.72,-0.002397639909759164,0.0026347185485064983,7.0616377342958e-05,3.334114808239974e-05,-0.0009281838429160416,0.0009888836648315191,-0.0035453990567475557,0.02,0.02,-0.07,584.09
1778627318.73993015,58945579,1,0.11,0.1,354.73,-0.003000854281708598,0.0022389166988432407,-0.00031071153352968395,6.735259376000613e-05,-0.001207698485814035,0.0009693179745227098,0.00623919814825058,0.02,0.02,-0.07,584.08
1778627318.83989000,59045539,0,0.12,0.11,354.72,-0.002767300233244896,0.0030702578369528055,6.297265645116568e-05,2.7194682843401097e-05,-0.0010269817430526018,0.001113259233534336,-0.003542652353644371,0.02,0.02,-0.07,584.09
1778627318.83989000,59045539,1,0.11,0.1,354.72,-0.003249547677114606,0.002587969182059169,-0.0003956133732572198,-3.5096425563097e-05,-0.0013020512415096164,0.0010535020846873522,0.006235032808035612,0.02,0.02,-0.07,584.08
1778627318.93985009,59145499,0,0.12,0.11,354.72,-0.0032081648241728544,0.003487652400508523,7.568155706394464e-05,3.748560629901476e-05,-0.0011806781403720379,0.001290461397729814,-0.003538995049893856,0.02,0.02,-0.07,584.09
1778627318.93985009,59145499,1,0.11,0.11,354.72,-0.0037137677427381277,0.0029455379117280245,-0.000435817550169304,-0.00010100819054059684,-0.0014469563029706478,0.001188750145956874,0.006220633164048195,0.02,0.02,-0.07,584.08
1778627319.03981018,59245459,0,0.12,0.11,354.71,-0.0035764449276030064,0.003969665616750717,7.924845704110339e-05,2.991521978401579e-05,-0.001304993755184114,0.0014314220752567053,-0.003537291195243597,0.02,0.02,-0.07,584.09
1778627319.03981018,59245459,1,0.12,0.11,354.72,-0.004164219368249178,0.0034436474088579416,-0.000385440158424899,-5.201227031648159e-05,-0.0015652240253984928,0.001290367916226387,0.006214085966348648,0.02,0.02,-0.07,584.08
1778627319.13977003,59345419,0,0.12,0.11,354.71,-0.003949068486690521,0.004437592811882496,4.264109520590864e-05,-2.263649002998136e-05,-0.0014784827362746,0.0016333505045622587,-0.0035369452089071274,0.02,0.02,-0.07,584.09
1778627319.13977003,59345419,1,0.12,0.11,354.71,-0.004594334401190281,0.0039748079143464565,-0.0003157751343678683,2.933614086941816e-05,-0.0017483519623056054,0.0014712084084749222,0.006210235878825188,0.02,0.02,-0.07,584.08
1778627319.23973012,59445379,0,0.12,0.11,354.71,-0.004263660870492458,0.0048879473470151424,7.0947103267826606e-06,-6.384857988450676e-05,-0.001610614825040102,0.0017943214625120163,-0.003542310558259487,0.02,0.02,-0.07,584.09
1778627319.23973012,59445379,1,0.12,0.11,354.71,-0.005010762717574835,0.004406894091516733,-0.00028489300166256726,4.067206828040071e-05,-0.0018945805495604873,0.0016150979790836573,0.006210374180227518,0.02,0.02,-0.07,584.08
1778627319.33969021,59545339,0,0.12,0.11,354.7,-0.004634459037333727,0.005338246934115887,8.13223232398741e-05,1.143784857049468e-06,-0.0017936505610123277,0.002020615618675947,-0.003544481471180916,0.02,0.02,-0.07,584.09
1778627319.33969021,59545339,1,0.12,0.11,354.71,-0.005306686274707317,0.004892595577985048,-0.00022131414152681828,8.918671665014699e-05,-0.0020964399445801973,0.001825643703341484,0.006216901354491711,0.02,0.02,-0.07,584.08
1778627319.43965006,59645299,0,0.13,0.12,354.7,-0.005002643913030624,0.005818039178848267,4.559346052701585e-05,-2.6035284463432617e-05,-0.0019332123920321465,0.0021954665426164865,-0.0035460549406707287,0.02,0.02,-0.07,584.09
1778627319.43965006,59645299,1,0.12,0.11,354.7,-0.005663860589265823,0.005360299721360207,-0.00021803664276376367,5.276565934764221e-05,-0.002227946650236845,0.0019853878766298294,0.006226864643394947,0.02,0.02,-0.07,584.08
1778627319.53961015,59745259,0,0.13,0.12,354.69,-0.0053830211982131,0.006305830553174019,-2.400794801360462e-05,-8.943240391090512e-05,-0.0021348705049604177,0.002442947356030345,-0.0035516221541911364,0.02,0.02,-0.07,584.09
1778627319.53961015,59745259,1,0.12,0.12,354.7,-0.006166457664221525,0.005846790038049221,-0.00018462067237123847,3.808104156632908e-05,-0.002454145113006234,0.0022324894089251757,0.006231498438864946,0.02,0.02,-0.07,584.08
1778627319.63957000,59845219,0,0.13,0.12,354.69,-0.005750399548560381,0.006753130350261927,6.68103984935442e-06,-4.1970288293669e-05,-0.002282855100929737,0.0026274488773196936,-0.003555979346856475,0.02,0.02,-0.07,584.09
1778627319.63957000,59845219,1,0.12,0.12,354.7,-0.006419457495212555,0.006233718246221542,-0.0002029366442002356,-1.630827500775922e-05,-0.0026232420932501554,0.0024194419384002686,0.006235138513147831,0.02,0.02,-0.07,584.08
1778627319.73953009,59945179,0,0.13,0.12,354.69,-0.006151162087917328,0.007221851963549852,3.30909933836665e-05,5.050029585618176e-07,-0.002501232549548149,0.002893666969612241,-0.0035557043738663197,0.02,0.02,-0.07,584.09
1778627319.73953009,59945179,1,0.13,0.12,354.69,-0.006774761714041233,0.006728423293679953,-0.00022745999740436673,-5.6198728998424485e-05,-0.00284664798527956,0.0026756117586046457,0.006233276333659887,0.02,0.02,-0.07,584.08
1778627319.83949018,60045139,0,0.13,0.12,354.68,-0.006501236464828253,0.007655352354049683,3.215988908777945e-05,-3.829082743322942e-06,-0.002664212603121996,0.0030950771179050207,-0.003558158176019788,0.02,0.02,-0.07,584.09
1778627319.83949018,60045139,1,0.13,0.12,354.69,-0.007210582494735718,0.00705317547544837,-0.0001302744058193639,3.3944965252885595e-05,-0.003014724003151059,0.002862389199435711,0.006234682165086269,0.02,0.02,-0.07,584.08
1778627319.93945003,60145099,0,0.13,0.12,354.68,-0.006934805307537317,0.008176583796739578,6.0967813624301925e-05,1.1965844350925181e-05,-0.002900992752984166,0.0033804134000092745,-0.0035587421152740717,0.02,0.02,-0.07,584.09
1778627319.93945003,60145099,1,0.13,0.12,354.69,-0.007550464011728764,0.007573022972792387,-0.00029527064180001616,-0.00012357231753412634,-0.0032565768342465162,0.0031283332500606775,0.006230561528354883,0.02,0.02,-0.07,584.08
1778627320.03941011,60245059,0,0.14,0.13,354.68,-0.007354869972914457,0.008592488244175911,4.330246156314388e-05,-7.757746061543003e-06,-0.003088209545239806,0.0036015959922224283,-0.0035582170821726322,0.02,0.02,-0.07,584.09
1778627320.03941011,60245059,1,0.13,0.13,354.68,-0.0078079476952552795,0.008135220035910606,-0.00038791054976172745,-0.00021857670799363405,-0.003435162827372551,0.003341846400871873,0.006216762121766806,0.02,0.02,-0.07,584.08
1778627320.13937020,60345019,0,0.14,0.13,354.67,-0.007773090153932571,0.009092318825423717,-6.604524514841614e-06,-5.7059525715885684e-05,-0.003347179852426052,0.003907389938831329,-0.003560412209481001,0.02,0.02,-0.07,584.09
1778627320.13937020,60345019,1,0.13,0.13,354.68,-0.008184561505913734,0.008660659193992615,-0.00041421366040594876,-0.0002487043966539204,-0.003634208347648382,0.003600115654990077,0.006194123066961765,0.02,0.02,-0.07,584.08
1778627320.23933005,60444979,0,0.14,0.13,354.67,-0.008112417533993721,0.009546255692839622,4.910127699986333e-06,-3.8956935895839706e-05,-0.003536986419931054,0.004133633803576231,-0.003565087914466858,0.02,0.02,-0.07,584.09
1778627320.23933005,60444979,1,0.13,0.13,354.68,-0.008696242235600948,0.009130424819886684,-0.00037864557816646993,-0.00018973946862388402,-0.0038396299351006746,0.0038506046403199434,0.006175890099257231,0.02,0.02,-0.07,584.08
1778627320.33929014,60544939,0,0.14,0.13,354.67,-0.008476798422634602,0.01008082740008831,-8.312666068377439e-06,-4.739912401419133e-05,-0.0038070029113441706,0.0044578309170901775,-0.0035702509339898825,0.02,0.02,-0.06,584.09
1778627320.33929014,60544939,1,0.14,0.13,354.67,-0.009137215092778206,0.009535851888358593,-0.000428393337642774,-0.00017613220552448183,-0.0041328067891299725,0.004183845594525337,0.0061568766832351685,0.02,0.02,-0.06,584.08
1778627320.43924999,60644899,0,0.14,0.13,354.66,-0.00887310691177845,0.01049958448857069,-2.5861554604489356e-06,-3.256595300626941e-05,-0.004001909866929054,0.00469604879617691,-0.0035742148756980896,0.02,0.02,-0.06,584.09
1778627320.43924999,60644899,1,0.14,0.13,354.67,-0.009528911672532558,0.009916671551764011,-0.0004272259830031544,-0.0001400292239850387,-0.004343400709331036,0.0044210986234247684,0.006142871454358101,0.02,0.02,-0.06,584.08
1778627320.53921008,60744859,0,0.14,0.13,354.66,-0.009297012351453304,0.010999485850334167,-1.1858547622978222e-05,-3.4446813515387475e-05,-0.004287726245820522,0.005036996677517891,-0.003575325943529606,0.02,0.02,-0.06,584.09
1778627320.53921008,60744859,1,0.14,0.13,354.67,-0.00980941392481327,0.01044547837227583,-0.0004276619292795658,-9.280013182433322e-05,-0.004638148006051779,0.00474946852773428,0.006130533292889595,0.02,0.02,-0.06,584.08
1778627320.64000320,60845652,0,0.15,0.14,354.65,-0.009673136286437511,0.011397913098335266,-3.1134655728237703e-05,-5.616963608190417e-05,-0.004499237984418869,0.005289746914058924,-0.0035811797715723515,0.02,0.02,-0.06,584.09
1778627320.64000320,60845652,1,0.14,0.13,354.66,-0.01003312598913908,0.010931775905191898,-0.00036505109164863825,-2.8472726626205258e-05,-0.0048342603258788586,0.004999751690775156,0.006124014500528574,0.02,0.02,-0.06,584.08
1778627320.73996305,60945612,0,0.15,0.14,354.65,-0.010087942704558372,0.011894896626472473,-5.712681377190165e-05,-8.85292756720446e-05,-0.004800870083272457,0.00564435264095664,-0.0035879495553672314,0.02,0.02,-0.06,584.09
1778627320.73996305,60945612,1,0.14,0.13,354.66,-0.01036198902875185,0.011407432146370411,-0.00040250085294246674,-2.7365358619135804e-05,-0.005120464134961367,0.005351676605641842,0.0061172908172011375,0.02,0.02,-0.06,584.08
1778627320.83992314,61045572,0,0.15,0.14,354.65,-0.010410528630018234,0.012294510379433632,-5.6893506553024054e-05,-7.531733717769384e-05,-0.005011140834540129,0.005896194372326136,-0.003593621077015996,0.02,0.02,-0.06,584.09
1778627320.83992314,61045572,1,0.14,0.13,354.65,-0.010600388050079346,0.011881192214787006,-0.00034834546386264265,-3.846135768981185e-06,-0.005308470223098993,0.005612192675471306,0.006112730596214533,0.02,0.02,-0.06,584.08
1778627320.93988299,61145532,0,0.15,0.14,354.64,-0.01079293992370367,0.012728173285722733,-0.00010341956658521667,-0.0001085615367628634,-0.005320447962731123,0.006264859810471535,-0.0036035694647580385,0.02,0.02,-0.06,584.09
1778627320.93988299,61145532,1,0.14,0.14,354.65,-0.010970626957714558,0.012360574677586555,-0.00028660823591053486,3.989066317444667e-05,-0.005592224188148975,0.00598133122548461,0.006114166229963303,0.02,0.02,-0.06,584.08
1778627321.03984308,61245492,0,0.15,0.14,354.64,-0.011093685403466225,0.013054226525127888,-9.431603393750265e-05,-7.483443187084049e-05,-0.0055308872833848,0.0065129962749779224,-0.003611708292737603,0.02,0.02,-0.06,584.09
1778627321.03984308,61245492,1,0.15,0.14,354.65,-0.011121038347482681,0.01281888410449028,-0.0003409451455809176,-3.587795436033048e-05,-0.00576841039583087,0.006243929732590914,0.006114093121141195,0.02,0.02,-0.06,584.08
1778627321.13980317,61345452,0,0.15,0.14,354.63,-0.011453764513134956,0.013521288521587849,-9.389375918544829e-05,-5.379790673032403e-05,-0.005842338781803846,0.00688229501247406,-0.0036188093945384026,0.02,0.02,-0.06,584.09
1778627321.13980317,61345452,1,0.15,0.14,354.64,-0.011324352584779263,0.013147704303264618,-0.0003739135281648487,-7.926674152258784e-05,-0.005950845777988434,0.0065231285989284515,0.006106586195528507,0.02,0.02,-0.06,584.08
1778627321.23976302,61445412,0,0.15,0.14,354.63,-0.011802218854427338,0.013889032416045666,-0.00010050002310890704,-4.880594860878773e-05,-0.006051669828593731,0.007128543220460415,-0.0036225842777639627,0.02,0.02,-0.06,584.09
1778627321.23976302,61445412,1,0.15,0.14,354.64,-0.01168964896351099,0.01357816532254219,-0.0004294139507692307,-0.00013435825530905277,-0.006161083467304707,0.00681427214294672,0.006091140676289797,0.02,0.02,-0.06,584.08
1778627321.33972311,61545372,0,0.15,0.14,354.63,-0.012263531796634197,0.014415760524570942,-0.0001167771260952577,-5.9630965552059934e-05,-0.0063779219053685665,0.007511537056416273,-0.003629432525485754,0.02,0.02,-0.06,584.09
1778627321.33972311,61545372,1,0.15,0.14,354.64,-0.011995368637144566,0.014016563072800636,-0.0004438274772837758,-0.0001423321373295039,-0.006470042280852795,0.007218375336378813,0.006073121912777424,0.02,0.02,-0.06,584.08
1778627321.43968320,61645332,0,0.16,0.15,354.62,-0.012578570283949375,0.014762402512133121,-8.569730562157929e-05,-1.8575103240436874e-05,-0.006597866304218769,0.007765710353851318,-0.0036320150829851627,0.02,0.02,-0.06,584.09
1778627321.43968320,61645332,1,0.15,0.14,354.63,-0.012364794500172138,0.014392539858818054,-0.000531896366737783,-0.00019162935495842248,-0.006664186716079712,0.007486644666641951,0.006061834748834372,0.02,0.02,-0.06,584.08
1778627321.53964305,61745292,0,0.16,0.15,354.62,-0.012977652251720428,0.015246888622641563,-0.00013191676407586783,-5.490903276950121e-05,-0.006933650933206081,0.008158000186085701,-0.0036362127866595984,0.02,0.02,-0.06,584.09
1778627321.53964305,61745292,1,0.15,0.14,354.63,-0.012792916037142277,0.01486525870859623,-0.0005223501357249916,-0.00014012663450557739,-0.006978914607316256,0.007875379174947739,0.006044075358659029,0.02,0.02,-0.06,584.08
1778627321.63960314,61845252,0,0.16,0.15,354.62,-0.013279255479574203,0.015610122121870518,-0.00011300206824671477,-3.648243728093803e-05,-0.007153112441301346,0.00841301865875721,-0.0036410342436283827,0.02,0.02,-0.06,584.09
1778627321.63960314,61845252,1,0.15,0.14,354.63,-0.013017975725233555,0.015264691784977913,-0.00041508759022690356,-1.703262205410283e-05,-0.00717918062582612,0.008137226104736328,0.006035780534148216,0.02,0.02,-0.06,584.08
1778627321.73956299,61945212,0,0.16,0.15,354.61,-0.013667626306414604,0.01605856604874134,-0.00011670958338072523,-4.28100538556464e-05,-0.0074870833195745945,0.008802288211882114,-0.0036461662966758013,0.02,0.02,-0.06,584.09
1778627321.73956299,61945212,1,0.15,0.15,354.62,-0.013319747522473335,0.01568455994129181,-0.00036648797686211765,4.912181248073466e-05,-0.007491511292755604,0.008536744862794876,0.006035087164491415,0.02,0.02,-0.06,584.08
1778627321.83952308,62045172,0,0.16,0.15,354.61,-0.013884317129850388,0.01638595201075077,-9.123006748268381e-05,-1.5150926628848538e-05,-0.007699307985603809,0.009055188857018948,-0.0036494426894932985,0.02,0.02,-0.06,584.09
1778627321.83952308,62045172,1,0.15,0.15,354.62,-0.01333168987184763,0.015912985429167747,-0.00029170597554184496,0.00010850041144294664,-0.0076029798947274685,0.00871227402240038,0.00604328652843833,0.02,0.02,-0.06,584.08
1778627321.93948317,62145132,0,0.16,0.15,354.6,-0.014251049607992172,0.01680009998381138,-0.0001227294560521841,-4.263710798113607e-05,-0.008036984130740166,0.009456499479711056,-0.0036534639075398445,0.02,0.02,-0.06,584.09
1778627321.93948317,62145132,1,0.16,0.15,354.61,-0.01364719308912754,0.016266101971268654,-0.00035162660060450435,2.1705189283238724e-05,-0.007920063100755215,0.00912548042833805,0.0060411617159843445,0.02,0.02,-0.06,584.08
1778627322.03944302,62245092,0,0.16,0.15,354.6,-0.014466483145952225,0.017095504328608513,-0.00011335250019328669,-3.316138099762611e-05,-0.008239115588366985,0.009700092487037182,-0.0036569919902831316,0.02,0.02,-0.06,584.09
1778627322.03944302,62245092,1,0.16,0.15,354.61,-0.013884219340980053,0.01662205532193184,-0.00035257259150967,3.1227311865222873e-06,-0.008104614913463593,0.009379864670336246,0.006044612266123295,0.02,0.02,-0.06,584.08
1778627322.13940310,62345052,0,0.16,0.15,354.6,-0.014833862893283367,0.01755603589117527,-0.008961798623204231,-0.00883702002465725,-0.00858590193092823,0.01011804211884737,-0.0037680920213460922,0.02,0.03,-0.06,584.09
1778627322.13940310,62345052,1,0.16,0.15,354.61,-0.014203332364559174,0.017101887613534927,-0.009212552569806576,-0.008801020681858063,-0.008421613834798336,0.009798544459044933,0.00593711668625474,0.02,0.02,-0.06,584.08
1778627322.23936319,62445012,0,0.16,0.15,354.59,-0.015276971273124218,0.018079634755849838,-0.06884531676769257,-0.07150053977966309,-0.008880778215825558,0.010472367517650127,-0.008195650763809681,0.02,0.03,-0.06,584.09
1778627322.23936319,62445012,1,0.16,0.15,354.6,-0.01447258424013853,0.017606008797883987,-0.0692095160484314,-0.07194620370864868,-0.008593066595494747,0.010049600154161453,0.0014116250677034259,0.02,0.02,-0.06,584.08
1778627322.33932304,62544972,0,0.16,0.15,354.59,-0.015750356018543243,0.018604088574647903,-0.12621758878231049,-0.13358071446418762,-0.009206732735037804,0.01086132787168026,-0.01864960417151451,0.02,0.03,-0.06,584.09
1778627322.33932304,62544972,1,0.16,0.15,354.6,-0.014944303780794144,0.018082095310091972,-0.12642373144626617,-0.1335098296403885,-0.008905663155019283,0.010465890169143677,-0.009018206968903542,0.02,0.02,-0.06,584.08
1778627322.43928313,62644932,0,0.16,0.15,354.58,-0.016138581559062004,0.019053170457482338,-0.17940236628055573,-0.18373386561870575,-0.009495660662651062,0.011204037815332413,-0.03421124070882797,0.02,0.03,-0.06,584.09
1778627322.43928313,62644932,1,0.16,0.15,354.6,-0.015432391315698624,0.018604887649416924,-0.17943412065505981,-0.18384042382240295,-0.009102247655391693,0.010726450942456722,-0.024582304060459137,0.02,0.03,-0.06,584.08
1778627322.53924298,62744892,0,0.17,0.16,354.58,-0.016553014516830444,0.01952160894870758,-0.23226995766162872,-0.2313603013753891,-0.009813951328396797,0.011579680256545544,-0.05473710969090462,0.02,0.03,-0.06,584.09
1778627322.53924298,62744892,1,0.16,0.15,354.59,-0.015877285972237587,0.019028808921575546,-0.2323002964258194,-0.23260676860809326,-0.009350993670523167,0.01103280484676361,-0.04523118585348129,0.02,0.03,-0.06,584.08
1778627322.63920307,62844852,0,0.17,0.16,354.58,-0.01686066761612892,0.019931484013795853,-0.2883860766887665,-0.2850112318992615,-0.010091654025018215,0.011911374516785145,-0.08051779866218567,0.02,0.03,-0.06,584.09
1778627322.63920307,62844852,1,0.16,0.15,354.59,-0.01631982810795307,0.019538620486855507,-0.28836169838905334,-0.2862570881843567,-0.009616274386644363,0.01135681290179491,-0.07107696682214737,0.02,0.03,-0.06,584.08
1778627322.73999619,62945645,0,0.17,0.16,354.57,-0.017254550009965897,0.020372500643134117,-0.3491280674934387,-0.34425368905067444,-0.010412152856588364,0.012291915714740753,-0.11234746873378754,0.02,0.03,-0.05,584.09
1778627322.73999619,62945645,1,0.16,0.15,354.59,-0.01665724441409111,0.020121276378631592,-0.3489493429660797,-0.34537580609321594,-0.010025436989963055,0.011867666617035866,-0.10302475094795227,0.02,0.03,-0.05,584.08
1778627322.83995605,63045605,0,0.05,0.05,354.57,-0.017412617802619934,0.020582102239131927,-0.649585485458374,-0.6433528065681458,-0.010677093639969826,0.01260971650481224,-0.15679806470870972,0.02,0.03,-0.05,584.09
1778627322.83995605,63045605,1,0.05,0.04,354.58,-0.016918955370783806,0.02030521258711815,-0.6505603194236755,-0.645710289478302,-0.010265280492603779,0.012168290093541145,-0.14758767187595367,0.02,0.03,-0.05,584.08
1778627322.93991613,63145565,0,-0.11,-0.11,354.57,-0.015621423721313477,0.018516307696700096,-1.0875301361083984,-1.0783417224884033,-0.010869030840694904,0.012843414209783077,-0.2455420196056366,0.02,0.03,-0.05,584.09
1778627322.93991613,63145565,1,-0.11,-0.11,354.59,-0.015240863896906376,0.01817024126648903,-1.0904333591461182,-1.0831142663955688,-0.010549341328442097,0.012511422857642174,-0.23665766417980194,0.02,0.03,-0.05,584.08
1778627323.03987598,63245525,0,-0.21,-0.21,354.58,-0.01219154056161642,0.014171496964991093,-1.2455939054489136,-1.2160199880599976,-0.010702952742576599,0.012628598138689995,-0.36101457476615906,0.02,0.03,-0.05,584.09
1778627323.03987598,63245525,1,-0.21,-0.21,354.59,-0.011682209558784962,0.013706621713936329,-1.2483941316604614,-1.2234387397766113,-0.0103272320702672,0.012224502861499786,-0.3530252277851105,0.02,0.03,-0.05,584.08
1778627323.13983607,63345485,0,-0.23,-0.23,354.58,-0.0072234515100717545,0.00800780113786459,-1.2197234630584717,-1.160682201385498,-0.010101250372827053,0.011858229525387287,-0.4800512194633484,0.02,0.03,-0.05,584.09
1778627323.13983607,63345485,1,-0.24,-0.24,354.59,-0.0067281643860042095,0.007710958365350962,-1.222777009010315,-1.1833209991455078,-0.009790829382836819,0.011538295075297356,-0.4742121994495392,0.02,0.03,-0.05,584.08
1778627323.23979616,63445445,0,-0.2,-0.2,354.59,-0.00147140899207443,0.0008458348456770182,-1.166136622428894,-1.1127550601959229,-0.00889759324491024,0.010332728736102581,-0.5945691466331482,0.02,0.03,-0.05,584.09
1778627323.23979616,63445445,1,-0.21,-0.21,354.6,-0.0010767935309559107,0.0005039124516770244,-1.1707555055618286,-1.136864423751831,-0.00851385947316885,0.009920627810060978,-0.5897336006164551,0.02,0.03,-0.05,584.08
1778627323.33975601,63545405,0,-0.13,-0.13,354.59,0.0036655894946306944,-0.005554981995373964,-1.1667418479919434,-1.1288795471191406,-0.007151801139116287,0.008125030435621738,-0.7077022790908813,0.02,0.03,-0.05,584.09
1778627323.33975601,63545405,1,-0.13,-0.14,354.6,0.003949474077671766,-0.00572233647108078,-1.1716392040252686,-1.151788592338562,-0.006835434585809708,0.0077897231094539165,-0.7048607468605042,0.02,0.03,-0.05,584.08
1778627323.43971610,63645365,0,-0.02,-0.04,354.59,0.007252187468111515,-0.009900319389998913,-1.2284494638442993,-1.231549620628357,-0.004993054084479809,0.005392592865973711,-0.8277756571769714,0.02,0.03,-0.05,584.09
1778627323.43971610,63645365,1,-0.03,-0.04,354.6,0.007551092654466629,-0.01000298373401165,-1.2334073781967163,-1.2453618049621582,-0.00461491709575057,0.004985055420547724,-0.8261514902114868,0.02,0.03,-0.05,584.08
1778627323.53967619,63745325,0,0.07,0.05,354.59,0.00883427169173956,-0.011709725484251976,-1.3232356309890747,-1.3622843027114868,-0.0026453083846718073,0.0024262587539851665,-0.9582105278968811,0.02,0.03,-0.05,584.09
1778627323.53967619,63745325,1,0.06,0.05,354.6,0.009170601144433022,-0.011951250955462456,-1.3280575275421143,-1.3658562898635864,-0.002174743451178074,0.0019091579597443342,-0.9573388695716858,0.02,0.03,-0.05,584.08
1778627323.63963604,63845285,0,0.15,0.12,354.59,0.008943239226937294,-0.011638409458100796,-1.4263169765472412,-1.4771568775177002,-7.773899415042251e-05,-0.0007144403643906116,-1.0994468927383423,0.02,0.03,-0.05,584.09
1778627323.63963604,63845285,1,0.14,0.12,354.61,0.009313576854765415,-0.011919563636183739,-1.4310061931610107,-1.4761027097702026,0.00041852262802422047,-0.0012525622732937336,-1.0985404253005981,0.02,0.03,-0.05,584.08
1778627323.73959613,63945245,0,0.2,0.18,354.59,0.00794253870844841,-0.010093937627971172,-1.5274410247802734,-1.5795655250549316,0.0024728947319090366,-0.003770601935684681,-1.2512937784194946,0.02,0.03,-0.05,584.09
1778627323.73959613,63945245,1,0.2,0.17,354.61,0.00824880599975586,-0.010260270908474922,-1.532162070274353,-1.5722094774246216,0.0028576075565069914,-0.004174354020506144,-1.249963402748108,0.02,0.03,-0.05,584.08
1778627323.83955622,64045205,0,0.25,0.23,354.59,0.006032777018845081,-0.007714972831308842,-1.6251579523086548,-1.673388957977295,0.004870662000030279,-0.006759269628673792,-1.4116321802139282,0.02,0.03,-0.05,584.09
1778627323.83955622,64045205,1,0.24,0.23,354.61,0.006411151960492134,-0.007948956452310085,-1.6306788921356201,-1.6662631034851074,0.005299803800880909,-0.007239475380629301,-1.4112368822097778,0.02,0.03,-0.05,584.08
1778627323.93951607,64145165,0,0.28,0.27,354.59,0.0033919343259185553,-0.004477911163121462,-1.7241971492767334,-1.7675225734710693,0.006992462556809187,-0.009500193409621716,-1.5830886363983154,0.02,0.03,-0.05,584.09
1778627323.93951607,64145165,1,0.28,0.26,354.61,0.0036897098179906607,-0.004688181448727846,-1.72976815700531,-1.7629774808883667,0.0073466612957417965,-0.009874395094811916,-1.5824567079544067,0.02,0.03,-0.05,584.08
1778627324.03947616,64245125,0,0.3,0.29,354.59,0.0003214752359781414,-0.0007719463319517672,-1.8251080513000488,-1.8676778078079224,0.00879588257521391,-0.012080389074981213,-1.7646268606185913,0.02,0.03,-0.05,584.09
1778627324.03947616,64245125,1,0.3,0.29,354.6,0.0005110249039717019,-0.0011391411535441875,-1.830569863319397,-1.863932728767395,0.009181322529911995,-0.012561175040900707,-1.7637087106704712,0.02,0.03,-0.05,584.08
1778627324.13943601,64345085,0,0.32,0.3,354.59,-0.0031045202631503344,0.0032032784074544907,-1.927977204322815,-1.9697295427322388,0.010201559402048588,-0.014325111173093319,-1.9563887119293213,0.02,0.03,-0.05,584.09
1778627324.13943601,64345085,1,0.32,0.3,354.6,-0.0029122699052095413,0.0028362709563225508,-1.933348298072815,-1.9670361280441284,0.010501868091523647,-0.014703672379255295,-1.9552425146102905,0.02,0.03,-0.05,584.08
1778627324.23939610,64445045,0,0.33,0.3,354.59,-0.00633672159165144,0.007046006619930267,-2.0324747562408447,-2.0741138458251953,0.01168404147028923,-0.0167239997535944,-2.1605515480041504,0.02,0.03,-0.05,584.09
1778627324.23939610,64445045,1,0.32,0.3,354.6,-0.00610892241820693,0.006780711002647877,-2.037665367126465,-2.0716512203216553,0.011908343061804771,-0.017008833587169647,-2.1587984561920166,0.02,0.03,-0.05,584.08
1778627324.33935618,64545005,0,0.33,0.3,354.59,-0.009562996216118336,0.011090951040387154,-2.136056423187256,-2.1764512062072754,0.01257416233420372,-0.01828690990805626,-2.373093605041504,0.02,0.03,-0.05,584.09
1778627324.33935618,64545005,1,0.33,0.3,354.6,-0.009289617650210857,0.010970097966492176,-2.141071319580078,-2.1714775562286377,0.012759188190102577,-0.018514230847358704,-2.370837688446045,0.02,0.03,-0.05,584.08
1778627324.43931603,64644965,0,0.33,0.29,354.59,-0.012359757907688618,0.014924810267984867,-2.2391409873962402,-2.280102014541626,0.013378864154219627,-0.019707614555954933,-2.595914125442505,0.03,0.03,-0.05,584.09
1778627324.43931603,64644965,1,0.32,0.29,354.6,-0.012076744809746742,0.014868877828121185,-2.2440431118011475,-2.2760682106018066,0.013542798347771168,-0.019878508523106575,-2.5933475494384766,0.02,0.03,-0.05,584.08
1778627324.53927612,64744925,0,0.32,0.28,354.59,-0.015116277150809765,0.018596166744828224,-2.3380048274993896,-2.379276990890503,0.013734928332269192,-0.020479923114180565,-2.8290762901306152,0.03,0.03,-0.05,584.09
1778627324.53927612,64744925,1,0.31,0.28,354.6,-0.01474872324615717,0.018685316666960716,-2.3429129123687744,-2.3778040409088135,0.013901101425290108,-0.020612657070159912,-2.826373815536499,0.02,0.03,-0.05,584.08
1778627324.63923621,64844885,0,0.31,0.27,352.65,-0.017280338332057,0.021850764751434326,-2.414027214050293,-2.455859661102295,0.014011719264090061,-0.02110515907406807,-3.0709340572357178,0.03,0.03,-0.05,584.09
1778627324.63923621,64844885,1,0.3,0.27,352.66,-0.016916530206799507,0.0219129491597414,-2.4188764095306396,-2.456096887588501,0.014176844619214535,-0.021201036870479584,-3.0682075023651123,0.02,0.03,-0.05,584.08
1778627324.73919606,64944845,0,0.3,0.27,352.66,-0.019302234053611755,0.02495688572525978,-2.466747999191284,-2.5073487758636475,0.013892940245568752,-0.02112141251564026,-3.319185495376587,0.03,0.03,-0.05,584.09
1778627324.73919606,64944845,1,0.29,0.27,352.67,-0.01890038512647152,0.0250740684568882,-2.471447229385376,-2.5087437629699707,0.014069339260458946,-0.021188315004110336,-3.3165299892425537,0.02,0.03,-0.05,584.08
1778627324.83998919,65045638,0,0.28,0.26,352.66,-0.02116679958999157,0.027703378349542618,-2.5008597373962402,-2.5428307056427,0.013608688488602638,-0.020844846963882446,-3.573669910430908,0.03,0.03,-0.05,584.09
1778627324.83998919,65045638,1,0.28,0.25,352.67,-0.020831095054745674,0.027763567864894867,-2.505542516708374,-2.5440361499786377,0.013797285966575146,-0.020895879715681076,-3.5711276531219482,0.02,0.03,-0.05,584.08
1778627324.93994904,65145598,0,0.26,0.25,352.67,-0.022763362154364586,0.029900992289185524,-2.520113229751587,-2.5594482421875,0.013140346854925156,-0.020274527370929718,-3.8286521434783936,0.03,0.03,-0.05,584.09
1778627324.93994904,65145598,1,0.26,0.24,352.67,-0.022433627396821976,0.030077453702688217,-2.524667739868164,-2.5623867511749268,0.0133232856169343,-0.020296629518270493,-3.826216220855713,0.02,0.03,-0.05,584.08
1778627325.03990912,65245558,0,0.24,0.23,352.68,-0.024051327258348465,0.03161076828837395,-2.5286619663238525,-2.569709300994873,0.012549935840070248,-0.019559388980269432,-4.085079669952393,0.03,0.03,-0.05,584.09
1778627325.03990912,65245558,1,0.24,0.22,352.69,-0.02377527952194214,0.03171951323747635,-2.53306245803833,-2.564371347427368,0.012722068466246128,-0.019550910219550133,-4.082065105438232,0.02,0.03,-0.05,584.08
1778627325.13986921,65345518,0,0.22,0.2,352.69,-0.02500739134848118,0.03282950073480606,-2.5292606353759766,-2.5699195861816406,0.011804057285189629,-0.018650097772479057,-4.341920375823975,0.03,0.03,-0.05,584.09
1778627325.13986921,65345518,1,0.22,0.2,352.7,-0.024665407836437225,0.03297862038016319,-2.5334622859954834,-2.558434247970581,0.011973590590059757,-0.018620410934090614,-4.337959289550781,0.02,0.03,-0.05,584.08
1778627325.23982906,65445478,0,0.2,0.19,352.69,-0.025552701205015182,0.03351175785064697,-2.5240964889526367,-2.5588626861572266,0.01103272009640932,-0.01769803650677204,-4.597818374633789,0.03,0.03,-0.05,584.09
1778627325.23982906,65445478,1,0.2,0.19,352.7,-0.02519618533551693,0.03379266709089279,-2.528287410736084,-2.550424337387085,0.011225016787648201,-0.017673678696155548,-4.5912346839904785,0.02,0.03,-0.05,584.08
1778627325.33978915,65545438,0,0.19,0.18,352.7,-0.02585298754274845,0.0338425450026989,-2.515947103500366,-2.543610095977783,0.010198613628745079,-0.016654260456562042,-4.852566242218018,0.03,0.03,-0.05,584.09
1778627325.33978915,65545438,1,0.18,0.17,352.71,-0.025487689301371574,0.03393455594778061,-2.519954204559326,-2.542348623275757,0.010542633011937141,-0.01681516133248806,-4.846030235290527,0.03,0.03,-0.05,584.08
1778627325.43974900,65645398,0,0.19,0.16,352.7,-0.025748591870069504,0.03386147692799568,-2.5059916973114014,-2.5297107696533203,0.009421566501259804,-0.015664897859096527,-5.106105804443359,0.03,0.03,-0.05,584.09
1778627325.43974900,65645398,1,0.19,0.16,352.71,-0.025427095592021942,0.03415613994002342,-2.509946346282959,-2.535203695297241,0.009684454649686813,-0.015697110444307327,-5.10006046295166,0.02,0.03,-0.05,584.08
1778627325.53970909,65745358,0,0.19,0.15,352.7,-0.02531460113823414,0.033903755247592926,-2.495833396911621,-2.5167293548583984,0.008668651804327965,-0.014645862393081188,-5.3583598136901855,0.03,0.03,-0.05,584.09
1778627325.53970909,65745358,1,0.19,0.15,352.71,-0.025156155228614807,0.03430984541773796,-2.499701738357544,-2.5234837532043457,0.00887069758027792,-0.014579227194190025,-5.352743148803711,0.02,0.03,-0.05,584.08
1778627325.63966918,65845318,0,0.19,0.14,352.7,-0.024648964405059814,0.03374727442860603,-2.486366033554077,-2.505446672439575,0.008029882796108723,-0.013710825704038143,-5.609429359436035,0.03,0.03,-0.05,584.09
1778627325.63966918,65845318,1,0.19,0.14,352.71,-0.024548452347517014,0.034111130982637405,-2.4901351928710938,-2.510958194732666,0.008182466961443424,-0.013577700592577457,-5.604182720184326,0.02,0.03,-0.05,584.08
1778627325.73962903,65945278,0,0.18,0.15,352.71,-0.023941267281770706,0.033528026193380356,-2.4783174991607666,-2.4962968826293945,0.0074513754807412624,-0.012778142467141151,-5.859475612640381,0.03,0.03,-0.05,584.09
1778627325.73962903,65945278,1,0.18,0.14,352.71,-0.02393067255616188,0.033965472131967545,-2.481999635696411,-2.5002853870391846,0.007565471809357405,-0.012598724104464054,-5.854565143585205,0.02,0.03,-0.05,584.08
1778627325.83958912,66045238,0,0.17,0.16,352.7,-0.02329973503947258,0.03293507546186447,-2.4719619750976562,-2.4889283180236816,0.00701028760522604,-0.01198339369148016,-6.108672142028809,0.03,0.03,-0.05,584.09
1778627325.83958912,66045238,1,0.16,0.15,352.71,-0.023496493697166443,0.03341270610690117,-2.475562334060669,-2.4921302795410156,0.007087691221386194,-0.011771184392273426,-6.104051113128662,0.02,0.03,-0.05,584.08
1778627325.93954921,66145198,0,0.16,0.16,352.7,-0.02278660237789154,0.032072681933641434,-2.4665496349334717,-2.4822545051574707,0.006645778194069862,-0.011286606080830097,-6.355055332183838,0.03,0.03,-0.05,584.09
1778627325.93954921,66145198,1,0.15,0.16,352.71,-0.02306879684329033,0.032561689615249634,-2.4700915813446045,-2.4848618507385254,0.006657878402620554,-0.01102413795888424,-6.35275936126709,0.02,0.03,-0.05,584.08
1778627326.03950906,66245158,0,0.15,0.16,352.7,-0.022187698632478714,0.030972596257925034,-2.4635252952575684,-2.477543354034424,0.006368362810462713,-0.010751018300652504,-6.602907657623291,0.03,0.03,-0.05,584.09
1778627326.03950906,66245158,1,0.14,0.16,352.71,-0.022396046668291092,0.031244976446032524,-2.4670650959014893,-2.480790138244629,0.006593496538698673,-0.010817059315741062,-6.6009840965271,0.03,0.03,-0.05,584.08
1778627326.13946915,66345118,0,0.15,0.15,352.7,-0.021578947082161903,0.029795048758387566,-2.461488962173462,-2.474616527557373,0.006138147320598364,-0.010320917703211308,-6.850448131561279,0.03,0.03,-0.05,584.09
1778627326.13946915,66345118,1,0.15,0.15,352.71,-0.021717889234423637,0.03006025217473507,-2.4651215076446533,-2.480879545211792,0.006229908671230078,-0.01024620234966278,-6.849231719970703,0.02,0.03,-0.05,584.08
1778627326.23942900,66445078,0,0.15,0.16,352.7,-0.020764879882335663,0.028621025383472443,-2.4601707458496094,-2.4725770950317383,0.006006108596920967,-0.010070727206766605,-7.097691059112549,0.03,0.03,-0.05,584.09
1778627326.23942900,66445078,1,0.15,0.15,352.71,-0.02098766155540943,0.028840763494372368,-2.463689088821411,-2.4792568683624268,0.006011052988469601,-0.009907536208629608,-7.097006320953369,0.02,0.03,-0.05,584.08
1778627326.33938909,66545038,0,0.16,0.17,352.7,-0.02023852989077568,0.027615156024694443,-2.4608254432678223,-2.4720423221588135,0.00588219054043293,-0.009864806197583675,-7.346840858459473,0.03,0.03,-0.05,584.09
1778627326.33938909,66545038,1,0.16,0.17,352.71,-0.02034742198884487,0.02773294411599636,-2.4642205238342285,-2.475799322128296,0.005844456609338522,-0.009667742066085339,-7.346503734588623,0.02,0.03,-0.05,584.08
1778627326.43934917,66644998,0,0.17,0.19,352.69,-0.019910644739866257,0.026774920523166656,-2.461601495742798,-2.4716527462005615,0.005837219767272472,-0.009806407615542412,-7.593904495239258,0.03,0.03,-0.05,584.09
1778627326.43934917,66644998,1,0.17,0.19,352.7,-0.0200149267911911,0.02697458304464817,-2.4649484157562256,-2.473320484161377,0.005782619118690491,-0.009597505442798138,-7.593725204467773,0.02,0.03,-0.05,584.08
1778627326.53930902,66744958,0,0.18,0.2,352.69,-0.019844960421323776,0.026236150413751602,-2.46291446685791,-2.472041606903076,0.005768658127635717,-0.009757503867149353,-7.841008186340332,0.03,0.03,-0.05,584.09
1778627326.53930902,66744958,1,0.18,0.2,352.7,-0.019848469644784927,0.026370327919721603,-2.466175079345703,-2.471318244934082,0.0057175555266439915,-0.009550042450428009,-7.84081506729126,0.02,0.03,-0.05,584.08
1778627326.63926911,66844918,0,0.19,0.21,352.69,-0.019935810938477516,0.02577107772231102,-2.4643144607543945,-2.4734880924224854,0.005682497285306454,-0.009784260764718056,-8.088237762451172,0.03,0.03,-0.05,584.09
1778627326.63926911,66844918,1,0.18,0.2,352.7,-0.019802413880825043,0.02564377151429653,-2.4673871994018555,-2.471451759338379,0.005885056219995022,-0.009934847243130207,-8.0879487991333,0.02,0.03,-0.05,584.08
1778627326.73922920,66944878,0,0.19,0.21,352.69,-0.02007494680583477,0.0253929253667593,-2.4658663272857666,-2.474991798400879,0.00551518052816391,-0.009781970642507076,-8.335580825805664,0.03,0.03,-0.05,584.09
1778627326.73922920,66944878,1,0.19,0.21,352.7,-0.02005069889128208,0.02532956376671791,-2.46883487701416,-2.4743735790252686,0.005619296804070473,-0.009807276539504528,-8.335379600524902,0.02,0.03,-0.05,584.08
1778627326.83918905,67044838,0,0.21,0.21,352.69,-0.020250385627150536,0.025225527584552765,-2.468230724334717,-2.477060079574585,0.005312297493219376,-0.009794536046683788,-8.5830659866333,0.03,0.03,-0.05,584.09
1778627326.83918905,67044838,1,0.2,0.21,352.7,-0.02030525542795658,0.02512856014072895,-2.4712331295013428,-2.481353998184204,0.005346793681383133,-0.009748243726789951,-8.583365440368652,0.02,0.03,-0.05,584.08
1778627326.93998218,67145631,0,0.21,0.2,352.69,-0.020340466871857643,0.0252218134701252,-2.470874309539795,-2.478917360305786,0.005009366665035486,-0.009696248918771744,-8.832796096801758,0.03,0.03,-0.05,584.09
1778627326.93998218,67145631,1,0.21,0.2,352.7,-0.020448563620448112,0.025161100551486015,-2.4740262031555176,-2.488180637359619,0.00499221496284008,-0.00960912648588419,-8.833898544311523,0.02,0.03,-0.05,584.08
1778627327.03994203,67245591,0,0.22,0.2,352.69,-0.020393388345837593,0.02535439096391201,-2.4736149311065674,-2.4805908203125,0.004702769219875336,-0.009614838287234306,-9.0806245803833,0.03,0.03,-0.05,584.09
1778627327.03994203,67245591,1,0.21,0.2,352.7,-0.020385464653372765,0.02527877315878868,-2.4768755435943604,-2.4929792881011963,0.004647413268685341,-0.009487916715443134,-9.082752227783203,0.02,0.03,-0.05,584.08
1778627327.13990211,67345551,0,0.22,0.19,352.69,-0.02039351500570774,0.02555829845368862,-2.476329803466797,-2.482290267944336,0.004324915818870068,-0.009430216625332832,-9.328676223754883,0.03,0.03,-0.05,584.09
1778627327.13990211,67345551,1,0.22,0.19,352.7,-0.02033700793981552,0.02539891190826893,-2.479652166366577,-2.492330312728882,0.004267323296517134,-0.009301651269197464,-9.331578254699707,0.02,0.03,-0.05,584.08
1778627327.23986220,67445511,0,0.22,0.19,352.69,-0.02028566226363182,0.02586115524172783,-2.478586435317993,-2.484201192855835,0.0039363401010632515,-0.009018820710480213,-9.57691478729248,0.03,0.03,-0.05,584.09
1778627327.23986220,67445511,1,0.22,0.19,352.7,-0.020195050165057182,0.025742270052433014,-2.481912136077881,-2.490267038345337,0.003884970210492611,-0.008903700858354568,-9.58034610748291,0.02,0.03,-0.05,584.08
1778627327.33982205,67545471,0,0.22,0.19,352.69,-0.020158305764198303,0.02614806592464447,-2.480605363845825,-2.4854788780212402,0.0034870828967541456,-0.008367881178855896,-9.825301170349121,0.03,0.03,-0.05,584.09
1778627327.33982205,67545471,1,0.21,0.18,352.7,-0.02006521448493004,0.026109417900443077,-2.4838030338287354,-2.488468647003174,0.0034646952990442514,-0.008284940384328365,-9.827019691467285,0.02,0.03,-0.05,584.08
1778627327.43978214,67645431,0,0.21,0.18,352.69,-0.01988549716770649,0.026536118239164352,-2.482422351837158,-2.486949920654297,0.0030628086533397436,-0.007429939229041338,-10.07382869720459,0.03,0.03,-0.05,584.09
1778627327.43978214,67645431,1,0.21,0.17,352.69,-0.019765526056289673,0.0264262817800045,-2.4854700565338135,-2.4880776405334473,0.003058512695133686,-0.007363251410424709,-10.075749397277832,0.02,0.03,-0.05,584.08
1778627327.53974199,67745391,0,0.2,0.17,352.69,-0.019571000710129738,0.026834404096007347,-2.484027862548828,-2.4882140159606934,0.0026094624772667885,-0.006228687707334757,-10.322513580322266,0.03,0.03,-0.05,584.09
1778627327.53974199,67745391,1,0.19,0.17,352.69,-0.019518781453371048,0.02667298913002014,-2.4870715141296387,-2.4884166717529297,0.002621302381157875,-0.006189592648297548,-10.324557304382324,0.02,0.03,-0.05,584.08
1778627327.63970208,67845351,0,0.18,0.17,352.69,-0.019231058657169342,0.026833757758140564,-2.485515594482422,-2.489506483078003,0.0021939435973763466,-0.004929932300001383,-10.5712890625,0.03,0.03,-0.05,584.09
1778627327.63970208,67845351,1,0.18,0.17,352.69,-0.019227970391511917,0.0267203189432621,-2.4884514808654785,-2.4893791675567627,0.0022123530507087708,-0.004910935647785664,-10.573405265808105,0.02,0.03,-0.05,584.08
1778627327.73966217,67945311,0,0.17,0.17,352.69,-0.01893526315689087,0.02661684714257717,-2.4868016242980957,-2.4898557662963867,0.0017512650229036808,-0.003534389892593026,-10.820143699645996,0.03,0.03,-0.05,584.09
1778627327.73966217,67945311,1,0.16,0.16,352.69,-0.01882338337600231,0.026434743776917458,-2.4896156787872314,-2.4895734786987305,0.0019053159048780799,-0.003635483095422387,-10.82229995727539,0.02,0.03,-0.05,584.08
1778627327.83962202,68045271,0,0.15,0.17,352.68,-0.018663445487618446,0.02613457664847374,-2.4880788326263428,-2.4909861087799072,0.0013375190319493413,-0.002206814242526889,-11.06910228729248,0.03,0.03,-0.05,584.09
1778627327.83962202,68045271,1,0.15,0.16,352.69,-0.018577292561531067,0.0260917991399765,-2.4908437728881836,-2.4933478832244873,0.0014227607753127813,-0.0022381378803402185,-11.071578025817871,0.02,0.03,-0.05,584.08
1778627327.93958211,68145231,0,0.14,0.16,352.68,-0.018433747813105583,0.025394411757588387,-2.4892122745513916,-2.4919021129608154,0.0008995981188490987,-0.0009315828210674226,-11.316097259521484,0.03,0.03,-0.05,584.09
