timestamp,TimeUS,C,Roll,Pitch,Yaw,VN,VE,VD,dPD,PN,PE,PD,GX,GY,GZ,OH
1778788392.76001596,65945278,0,0.06,0.05,354.59,-0.01457675825804472,0.01698397658765316,-0.000141324067953974,-0.00014530506450682878,-0.011371883563697338,0.013224733993411064,-0.003762295003980398,0.03,0.03,-0.05,584.09
1778788392.76001596,65945278,1,0.06,0.05,354.6,-0.014393885619938374,0.017338089644908905,-0.0002813018800225109,8.592770427640062e-06,-0.011192253790795803,0.013402177952229977,0.005770577117800713,0.03,0.03,-0.05,584.08
1778788392.85997605,66045238,0,0.06,0.05,354.59,-0.014455009251832962,0.01683482713997364,-0.00015143470955081284,-0.00013912977010477334,-0.011257684789597988,0.01309696864336729,-0.0037758059334009886,0.03,0.03,-0.05,584.09
1778788392.85997605,66045238,1,0.06,0.05,354.6,-0.014472723007202148,0.01722170040011406,-0.0002510152698960155,1.60431518452242e-05,-0.011125609278678894,0.013316704891622066,0.005773844197392464,0.03,0.03,-0.05,584.08
1778788392.95993614,66145198,0,0.06,0.05,354.59,-0.014415863901376724,0.016783906146883965,-0.0001087434939108789,-8.529933984391391e-05,-0.011299642734229565,0.013150233775377274,-0.003786462591961026,0.03,0.03,-0.05,584.09
1778788392.95993614,66145198,1,0.06,0.05,354.6,-0.014490516856312752,0.017157062888145447,-0.00023564464936498553,-7.80465234129224e-06,-0.011218690313398838,0.013402185402810574,0.005772458855062723,0.03,0.03,-0.05,584.08
1778788393.05989599,66245158,0,0.06,0.05,354.59,-0.01404037605971098,0.0164203941822052,-0.00010983676475007087,-6.979910540394485e-05,-0.011187841184437275,0.01302692573517561,-0.003793091746047139,0.03,0.03,-0.05,584.09
1778788393.05989599,66245158,1,0.06,0.05,354.6,-0.014248192310333252,0.016834041103720665,-0.0002812970196828246,-8.4160034020897e-05,-0.011140292510390282,0.01328514888882637,0.005765595939010382,0.03,0.03,-0.05,584.08
1778788393.15985608,66345118,0,0.06,0.05,354.59,-0.013753803446888924,0.01606176793575287,-0.00010238207323709503,-4.7797842853469774e-05,-0.011196734383702278,0.013045097701251507,-0.0037980887573212385,0.03,0.03,-0.05,584.09
1778788393.15985608,66345118,1,0.06,0.05,354.6,-0.013799941167235374,0.016365451738238335,-0.00034681137185543776,-0.00016764894826337695,-0.011170553043484688,0.01329784095287323,0.005752879660576582,0.03,0.03,-0.05,584.08
1778788393.25981593,66445078,0,0.06,0.05,354.59,-0.01297381054610014,0.015285477973520756,-0.00010510202992008999,-4.867683310294524e-05,-0.011002102866768837,0.012830504216253757,-0.003802178194746375,0.03,0.03,-0.05,584.09
1778788393.25981593,66445078,1,0.06,0.05,354.59,-0.013042228296399117,0.015472602099180222,-0.00025182802346535027,-7.412222475977615e-05,-0.01097977813333273,0.013064798898994923,0.005739901680499315,0.03,0.03,-0.05,584.08
1778788393.35977602,66545038,0,0.06,0.05,354.59,-0.012228394858539104,0.014467047527432442,-0.00013824189954902977,-8.213452383643016e-05,-0.010882611386477947,0.012708358466625214,-0.0038097212091088295,0.03,0.03,-0.05,584.09
1778788393.35977602,66545038,1,0.06,0.05,354.59,-0.012134047225117683,0.014509511180222034,-0.00022527406690642238,-4.01274228352122e-05,-0.010843100026249886,0.012905561365187168,0.005733587313443422,0.03,0.03,-0.04,584.08
1778788393.45973611,66644998,0,0.06,0.05,354.58,-0.011091417632997036,0.013162675313651562,-0.00014077822561375797,-8.308743417728692e-05,-0.010525901801884174,0.012312489561736584,-0.003817760618403554,0.03,0.03,-0.05,584.09
1778788393.45973611,66644998,1,0.06,0.05,354.59,-0.010975352488458157,0.01326547097414732,-0.00025728094624355435,-7.379375165328383e-05,-0.010464203543961048,0.012475820258259773,0.0057280887849628925,0.03,0.03,-0.04,584.08
1778788393.55969596,66744958,0,0.07,0.05,354.58,-0.010020071640610695,0.011932349763810635,-0.00012757728109136224,-6.649037095485255e-05,-0.010190984234213829,0.011940564028918743,-0.0038259699940681458,0.03,0.03,-0.04,584.09
1778788393.55969596,66744958,1,0.06,0.05,354.59,-0.009788498282432556,0.01196881104260683,-0.0002584898320492357,-7.802138134138659e-05,-0.010100633837282658,0.012076932936906815,0.005720863584429026,0.03,0.03,-0.04,584.08
1778788393.65965605,66844918,0,0.07,0.05,354.58,-0.00870648305863142,0.010403646156191826,-0.00017281287000514567,-0.00010332059900974855,-0.009651854634284973,0.011324591003358364,-0.0038328191731125116,0.03,0.03,-0.04,584.09
1778788393.65965605,66844918,1,0.07,0.05,354.59,-0.008377687074244022,0.010230588726699352,-0.0002363064413657412,-5.907036393182352e-05,-0.009371000342071056,0.011227494105696678,0.005714070983231068,0.03,0.03,-0.04,584.08
1778788393.75961614,66944878,0,0.07,0.06,354.58,-0.007376949768513441,0.00894238706678152,-0.00020447476708795875,-0.00012873434752691537,-0.00912847463041544,0.010734151117503643,-0.003844369202852249,0.03,0.03,-0.04,584.09
1778788393.75961614,66944878,1,0.07,0.05,354.59,-0.007187771610915661,0.008843258023262024,-0.0002331124705960974,-6.962702900636941e-05,-0.00891799945384264,0.01070475671440363,0.005705766845494509,0.03,0.03,-0.04,584.08
1778788393.85957599,67044838,0,0.07,0.06,354.58,-0.005986906122416258,0.007360720541328192,-0.00023152129142545164,-0.00013843530905433,-0.008440709672868252,0.009949969127774239,-0.0038573311176151037,0.03,0.03,-0.04,584.09
1778788393.85957599,67044838,1,0.07,0.06,354.58,-0.005907878279685974,0.007250924129039049,-0.00029714617994613945,-0.00014052240294404328,-0.008292070589959621,0.009962597861886024,0.005694313440471888,0.03,0.03,-0.04,584.08
1778788393.95953608,67144798,0,0.07,0.06,354.58,-0.004720780998468399,0.005882556084543467,-0.0001995945640373975,-9.224392852047458e-05,-0.0077880984172225,0.009209230542182922,-0.0038693100214004517,0.03,0.03,-0.04,584.09
1778788393.95953608,67144798,1,0.07,0.06,354.58,-0.0047206818126142025,0.00582564203068614,-0.00037769399932585657,-0.00021058731363154948,-0.007687733508646488,0.009244414046406746,0.005677357316017151,0.03,0.03,-0.04,584.08
1778788394.05949593,67244758,0,0.07,0.06,354.57,-0.003519756020978093,0.004473051056265831,-0.00021946070773992687,-9.470737131778151e-05,-0.0070368945598602295,0.008342181332409382,-0.00387790659442544,0.03,0.03,-0.04,584.09
1778788394.05949593,67244758,1,0.07,0.06,354.58,-0.0034115195740014315,0.004419135395437479,-0.0004161889082752168,-0.00022053814609535038,-0.006966619752347469,0.008392208255827427,0.005659934598952532,0.03,0.03,-0.04,584.08
1778788394.15945601,67344718,0,0.07,0.06,354.57,-0.0025074456352740526,0.003268407192081213,-0.00021284872491378337,-7.498784543713555e-05,-0.006355131044983864,0.007554135750979185,-0.003889090148732066,0.03,0.03,-0.04,584.09
1778788394.15945601,67344718,1,0.07,0.06,354.58,-0.002377803437411785,0.003150389064103365,-0.0004524313553702086,-0.00021949459915049374,-0.006291128229349852,0.007600584998726845,0.00564115634188056,0.03,0.03,-0.04,584.08
1778788394.25941610,67444678,0,0.07,0.06,354.57,-0.001541743054986,0.0021159439347684383,-0.00020001237862743437,-4.489266939344816e-05,-0.005631562788039446,0.006709202658385038,-0.003895955625921488,0.03,0.03,-0.04,584.09
1778788394.25941610,67444678,1,0.07,0.06,354.58,-0.0013995886547490954,0.002055903198197484,-0.00046078345621936023,-0.00020091247279196978,-0.005573156755417585,0.0067497482523322105,0.0056211682967841625,0.03,0.03,-0.04,584.08
1778788394.35937595,67544638,0,0.07,0.06,354.57,-0.0007642080308869481,0.00108495750464499,-0.00021665000531356782,-4.7561898099957034e-05,-0.004996071103960276,0.0059585655108094215,-0.0039005677681416273,0.03,0.03,-0.04,584.09
1778788394.35937595,67544638,1,0.07,0.06,354.57,-0.0005774328601546586,0.0010609542950987816,-0.0003966056683566421,-0.00010192409536102787,-0.004885297734290361,0.005934883840382099,0.0056020780466496944,0.03,0.03,-0.04,584.08
1778788394.45933604,67644598,0,0.08,0.06,354.57,-2.2461967091658153e-05,0.0002253236307296902,-0.00025819535949267447,-9.314678027294576e-05,-0.004347274545580149,0.005187920294702053,-0.003908880054950714,0.03,0.03,-0.04,584.09
1778788394.45933604,67644598,1,0.08,0.06,354.57,0.00016338030400220305,0.00016797002172097564,-0.00033683402580209076,-4.589487798511982e-05,-0.004270513076335192,0.00521149393171072,0.0055982437916100025,0.03,0.03,-0.04,584.08
1778788394.55929613,67744558,0,0.08,0.07,354.56,0.000564736663363874,-0.00045032938942313194,-0.00021676416508853436,-6.138267781352624e-05,-0.003788359696045518,0.004527600947767496,-0.003919088281691074,0.03,0.03,-0.04,584.09
1778788394.55929613,67744558,1,0.08,0.06,354.57,0.0006763894925825298,-0.0005455559003166854,-0.0003511856193654239,-1.5750467355246656e-05,-0.003729569260030985,0.004568800330162048,0.005592798348516226,0.03,0.03,-0.04,584.08
1778788394.65925598,67844518,0,0.08,0.07,354.56,0.0010896031744778156,-0.0010783084435388446,-0.0002414702030364424,-7.413509592879564e-05,-0.003234721487388015,0.0038738411385565996,-0.003924532327800989,0.03,0.03,-0.04,584.09
1778788394.65925598,67844518,1,0.08,0.07,354.57,0.0011355889728292823,-0.0011110318591818213,-0.00032857750193215907,-1.1612279422479332e-06,-0.0031952420249581337,0.003926281351596117,0.005592502187937498,0.03,0.03,-0.04,584.08
1778788394.75921607,67944478,0,0.08,0.07,354.56,0.0014726994559168816,-0.0015281557571142912,-0.0001697271945886314,1.088692260964308e-05,-0.0027682092040777206,0.0033246257808059454,-0.00392972631379962,0.03,0.03,-0.04,584.09
1778788394.75921607,67944478,1,0.08,0.07,354.57,0.0015368997119367123,-0.0015232586301863194,-0.00022577702475246042,0.00010229572944808751,-0.0027393701020628214,0.0033840895630419254,0.005596469156444073,0.03,0.03,-0.04,584.08
1778788394.86000896,68045271,0,0.08,0.07,354.56,0.0017684566555544734,-0.0018452686490491033,-0.00016712005890440196,9.453328857489396e-06,-0.002347793895751238,0.0028312928043305874,-0.003929740283638239,0.03,0.03,-0.04,584.09
1778788394.86000896,68045271,1,0.08,0.07,354.56,0.0018428496550768614,-0.0017276114085689187,-0.0002062793937511742,0.00010221131378784776,-0.002306085079908371,0.0028772614896297455,0.005602074321359396,0.03,0.03,-0.04,584.08
1778788394.95996904,68145231,0,0.08,0.07,354.56,0.0019653677009046078,-0.00208964548073709,-0.00017652451060712337,1.0218264833383728e-05,-0.001977505162358284,0.0023968196474015713,-0.003929535858333111,0.03,0.03,-0.04,584.09
1778788394.95996904,68145231,1,0.09,0.07,354.56,0.0021070274524390697,-0.0018857477698475122,-0.00023845676332712173,2.5387766072526574e-05,-0.0019461181946098804,0.002472275635227561,0.005603035446256399,0.03,0.03,-0.04,584.08
1778788395.05992913,68245191,0,0.09,0.07,354.55,0.0020987875759601593,-0.0022406545467674732,-0.00010917730833170936,6.617965846089646e-05,-0.0016493063885718584,0.0020147101022303104,-0.003926143050193787,0.03,0.03,-0.04,584.09
1778788395.05992913,68245191,1,0.09,0.07,354.56,0.0021350949537009,-0.002114644041284919,-0.00020125193987041712,3.915732668247074e-05,-0.0016045916127040982,0.0020716784056276083,0.0056081851944327354,0.03,0.03,-0.04,584.08
1778788395.15988898,68345151,0,0.09,0.08,354.55,0.002182110445573926,-0.0023282435722649097,-0.00011161780275870115,6.505635974463075e-05,-0.0013655121438205242,0.0016826163046061993,-0.003921233583241701,0.03,0.03,-0.04,584.09
1778788395.15988898,68345151,1,0.09,0.07,354.56,0.002323434455320239,-0.0021589798852801323,-0.00026989515754394233,-3.345287041156553e-05,-0.001332624233327806,0.0017502966802567244,0.005609519314020872,0.03,0.03,-0.04,584.08
1778788395.25984907,68445111,0,0.09,0.08,354.55,0.0021720663644373417,-0.002342752879485488,-5.6445333029842004e-05,9.75149596342817e-05,-0.0011211339151486754,0.0013974973699077964,-0.003912737593054771,0.03,0.03,-0.04,584.09
1778788395.25984907,68445111,1,0.09,0.07,354.56,0.002401928883045912,-0.002288450952619314,-0.0002556429535616189,-2.357206176384352e-05,-0.0010602144757285714,0.0014425376430153847,0.005609303247183561,0.03,0.03,-0.04,584.08
1778788395.35980892,68545071,0,0.09,0.08,354.55,0.0021335026249289513,-0.0023213461972773075,-1.5125810932659078e-05,0.0001263022277271375,-0.0009173423168249428,0.0011576309334486723,-0.003901207819581032,0.03,0.03,-0.04,584.09
1778788395.35980892,68545071,1,0.09,0.07,354.55,0.0024219865445047617,-0.0021779423113912344,-0.00023278027947526425,-3.853332145808963e-06,-0.0008441281970590353,0.0012061985908076167,0.0056076557375490665,0.03,0.03,-0.04,584.08
1778788395.45976901,68645031,0,0.09,0.08,354.55,0.002033051336184144,-0.0022032756824046373,-5.2959519962314516e-05,5.224974302109331e-05,-0.0007435552543029189,0.0009529344970360398,-0.0038932799361646175,0.03,0.03,-0.04,584.09
1778788395.45976901,68645031,1,0.09,0.08,354.55,0.002331811236217618,-0.002215184271335602,-9.846073953667656e-05,0.00012880550639238209,-0.0006678240024484694,0.0010058821644634008,0.005615684203803539,0.03,0.03,-0.04,584.08
1778788395.55972910,68744991,0,0.09,0.08,354.54,0.0019039808539673686,-0.0020293232519179583,-5.755502570536919e-05,1.6885524019016884e-05,-0.0006110880058258772,0.0007948024431243539,-0.003890412859618664,0.03,0.03,-0.04,584.09
1778788395.55972910,68744991,1,0.1,0.08,354.55,0.002233820268884301,-0.002130239736288786,-9.234091703547165e-05,0.00012941805471200496,-0.000530862482264638,0.0008431434398517013,0.005626971833407879,0.03,0.03,-0.04,584.08
1778788395.65968895,68844951,0,0.09,0.08,354.54,0.0016937144100666046,-0.0018423997098580003,-8.0953846918419e-05,-1.7381709767505527e-05,-0.0005037780501879752,0.0006663376116193831,-0.0038885134272277355,0.03,0.03,-0.04,584.09
1778788395.65968895,68844951,1,0.1,0.08,354.55,0.0021673443261533976,-0.0018060602014884353,-0.00010256237874273211,9.631764987716451e-05,-0.00039786810521036386,0.0006932619144208729,0.005634962115436792,0.03,0.03,-0.04,584.08
1778788395.75964904,68944911,0,0.1,0.09,354.54,0.0015216509345918894,-0.0016128368442878127,-0.00017049480811692774,-0.00010333128739148378,-0.0004279858840163797,0.0005768397240899503,-0.0038934408221393824,0.03,0.03,-0.04,584.09
1778788395.75964904,68944911,1,0.1,0.08,354.55,0.002083372790366411,-0.0016155425691977143,-0.00018667869153432548,-4.3741379158745985e-06,-0.00029592495411634445,0.0006049278890714049,0.005636041518300772,0.03,0.03,-0.04,584.08
1778788395.85960913,69044871,0,0.1,0.09,354.54,0.001225207932293415,-0.0013865688815712929,-0.00016967652481980622,-9.286306885769591e-05,-0.0003736343642231077,0.0005062257405370474,-0.0039014406502246857,0.03,0.03,-0.04,584.09
1778788395.85960913,69044871,1,0.1,0.08,354.54,0.0018864113371819258,-0.0012812180211767554,-6.577135354746133e-05,0.00012030581274302676,-0.00019795021216850728,0.0005225231288932264,0.005642092786729336,0.03,0.03,-0.04,584.08
1778788395.95956898,69144831,0,0.1,0.09,354.54,0.0009956047870218754,-0.00111745810136199,-0.00014468884910456836,-4.849104516324587e-05,-0.00034862139727920294,0.0004626978770829737,-0.003908147104084492,0.03,0.03,-0.04,584.09
1778788395.95956898,69144831,1,0.1,0.08,354.54,0.0017513381317257881,-0.0008489367901347578,-4.554080533125671e-06,0.0001942025701282546,-0.00014590889622922987,0.00050494319293648,0.005657347850501537,0.03,0.03,-0.04,584.08
1778788396.05952907,69244791,0,0.1,0.09,354.53,0.0007382344920188189,-0.0008304860675707459,-0.00018218561308458447,-7.382276089629158e-05,-0.0003364470321685076,0.00043543605715967715,-0.0039121732115745544,0.03,0.03,-0.04,584.09
1778788396.05952907,69244791,1,0.11,0.08,354.54,0.0014527423772960901,-0.0005323422374203801,-7.295583054656163e-05,0.00010132784518646076,-0.00011172630911460146,0.000495511048939079,0.005672304891049862,0.03,0.03,-0.04,584.08
1778788396.15948892,69344751,0,0.1,0.09,354.53,0.0004361610335763544,-0.0005275392904877663,-0.00016729140770621598,-3.83353944926057e-05,-0.0003470818046480417,0.0004366420325823128,-0.003919121343642473,0.03,0.03,-0.04,584.09
1778788396.15948892,69344751,1,0.11,0.09,354.54,0.0012297515058889985,-0.00016127647540997714,2.5735163944773376e-05,0.00015932516544125974,-0.0001111979509005323,0.0005398452049121261,0.005682355258613825,0.03,0.03,-0.04,584.08
1778788396.25944901,69444711,0,0.11,0.09,354.53,0.00015248222916852683,-0.0001514862960902974,-0.00014340683992486447,-3.4330255402892362e-06,-0.00036662249476648867,0.00045228758244775236,-0.003920046146959066,0.03,0.03,-0.04,584.09
1778788396.25944901,69444711,1,0.11,0.09,354.53,0.0009780271211639047,0.0001476865727454424,5.26788535353262e-05,0.00016174252959899604,-0.00010106597619596869,0.0005627450882457197,0.005701974965631962,0.03,0.03,-0.04,584.08
1778788396.35940909,69544671,0,0.11,0.1,354.53,-0.0001804438652470708,0.0002418512012809515,-0.00015892164083197713,2.9442926461342722e-06,-0.00040785814053379,0.0004965365515090525,-0.0039196256548166275,0.03,0.03,-0.04,584.09
1778788396.35940909,69544671,1,0.11,0.09,354.53,0.0007522083469666541,0.0004244012525305152,0.00010433916031615809,0.00020643635070882738,-0.00012260902440175414,0.0006197325419634581,0.005721212364733219,0.03,0.03,-0.04,584.08
1778788396.45936894,69644631,0,0.11,0.1,354.52,-0.0004690863424912095,0.000534301158040762,-0.00011458568769739941,3.849353743134998e-05,-0.0004556103958748281,0.0005474803037941456,-0.003918627742677927,0.03,0.03,-0.04,584.09
1778788396.45936894,69644631,1,0.11,0.09,354.53,0.0005477440427057445,0.0008704325300641358,0.00012061671441188082,0.00018683653615880758,-0.00012829326442442834,0.000661323603708297,0.005739306565374136,0.03,0.03,-0.04,584.08
1778788396.55932903,69744591,0,0.11,0.1,354.52,-0.0007879806798882782,0.0009449500939808786,-0.00010721239959821105,4.397776137921028e-05,-0.000522682152222842,0.0006193145527504385,-0.003914359025657177,0.03,0.03,-0.04,584.09
1778788396.55932903,69744591,1,0.11,0.09,354.53,0.0002038477687165141,0.0012969875242561102,0.00013283624139148742,0.00016071209392976016,-0.00016611683531664312,0.0007586788851767778,0.0057532605715096,0.03,0.03,-0.04,584.08
1778788396.65928912,69844551,0,0.11,0.1,354.52,-0.0010693436488509178,0.0012892060913145542,-0.00010830935934791341,2.1489020582521334e-05,-0.0005833110772073269,0.0006886472692713141,-0.003910527098923922,0.03,0.03,-0.04,584.09
1778788396.65928912,69844551,1,0.12,0.09,354.52,-5.4024902055971324e-05,0.0018424662994220853,0.00015845168672967702,0.0001671715872362256,-0.000199459187570028,0.0008405382977798581,0.005770405288785696,0.03,0.03,-0.04,584.08
1778788396.75924897,69944511,0,0.11,0.1,354.52,-0.0014344709925353527,0.0017528058961033821,-7.517763879150152e-05,3.6435321817407385e-05,-0.0006788200116716325,0.0008029652526602149,-0.003907180856913328,0.03,0.03,-0.04,584.09
1778788396.75924897,69944511,1,0.12,0.1,354.52,-0.00024220642808359116,0.0021606506779789925,0.00022377143613994122,0.00021958885190542787,-0.0002719238691497594,0.0009845781605690718,0.005788118112832308,0.03,0.03,-0.04,584.08
1778788396.85920906,70044471,0,0.12,0.11,354.52,-0.0017922818660736084,0.0021443006116896868,-7.195960643002763e-05,2.3441549274139106e-05,-0.0007544105756096542,0.0008939772378653288,-0.003904543351382017,0.03,0.03,-0.03,584.09
1778788396.85920906,70044471,1,0.12,0.1,354.52,-0.000621800369117409,0.002640099497511983,5.598704592557624e-05,3.7575628084596246e-05,-0.0003282437101006508,0.0010947153205052018,0.005801590159535408,0.03,0.03,-0.03,584.08
1778788396.96000195,70145264,0,0.12,0.11,354.51,-0.002124726539477706,0.002562370151281357,-6.1676291807089e-05,2.819731344061438e-05,-0.0008774041198194027,0.0010389642557129264,-0.00390228652395308,0.03,0.03,-0.03,584.09
1778788396.96000195,70145264,1,0.12,0.1,354.52,-0.0009473576792515814,0.0030673041474074125,5.9540136135183275e-05,2.20769416046096e-05,-0.0004217034438624978,0.0012595150619745255,0.005805757362395525,0.03,0.03,-0.03,584.08
1778788397.05996203,70245224,0,0.12,0.11,354.51,-0.002427364932373166,0.0029724095948040485,-0.00012979161692783237,-4.8513884394196793e-05,-0.0009632656001485884,0.001149586751125753,-0.0039032723288983107,0.03,0.03,-0.03,584.09
1778788397.05996203,70245224,1,0.12,0.1,354.51,-0.0013866485096514225,0.0034850742667913437,0.00011901797552127391,9.153794235317037e-05,-0.0005024968995712698,0.001378401299007237,0.005814647302031517,0.03,0.03,-0.03,584.08
1778788397.15992212,70345184,0,0.12,0.11,354.51,-0.0029041492380201817,0.00349045149050653,-0.04085155576467514,-0.04035491496324539,-0.001100387191399932,0.001317612361162901,-0.005236399360001087,0.03,0.03,-0.03,584.09
1778788397.15992212,70345184,1,0.13,0.1,354.51,-0.001820599427446723,0.004048051778227091,-0.040825825184583664,-0.040453940629959106,-0.0006296364008449018,0.0015577455051243305,0.004481083247810602,0.03,0.03,-0.03,584.08
1778788397.25988197,70445144,0,0.12,0.11,354.51,-0.003410558681935072,0.004009911324828863,-0.09746698290109634,-0.10185427963733673,-0.0012215181486681104,0.0014600668800994754,-0.01289921160787344,0.03,0.03,-0.03,584.09
1778788397.25988197,70445144,1,0.13,0.1,354.51,-0.0022772052325308323,0.004575511906296015,-0.09749877452850342,-0.10319026559591293,-0.0007439227192662656,0.0017053649062290788,-0.003249460831284523,0.03,0.03,-0.03,584.08
1778788397.35984206,70545104,0,0.13,0.11,354.5,-0.0038816272281110287,0.004633638542145491,-0.1535087525844574,-0.16424418985843658,-0.0014067355077713728,0.0016767970519140363,-0.026458268985152245,0.03,0.03,-0.03,584.09
1778788397.35984206,70545104,1,0.13,0.11,354.51,-0.0027457154355943203,0.005154828075319529,-0.15365000069141388,-0.16566075384616852,-0.0009113075211644173,0.0019247711170464754,-0.016909467056393623,0.03,0.03,-0.03,584.08
1778788397.45980215,70645064,0,0.13,0.12,354.5,-0.004327857401221991,0.005180913023650646,-0.20625890791416168,-0.2129637449979782,-0.0015602557687088847,0.0018609821563586593,-0.04497151076793671,0.03,0.03,-0.03,584.09
1778788397.45980215,70645064,1,0.13,0.11,354.5,-0.0031747021712362766,0.00589403510093689,-0.2065671682357788,-0.21456384658813477,-0.0010527471313253045,0.00211760844103992,-0.03561284765601158,0.03,0.03,-0.03,584.08
1778788397.55976200,70745024,0,0.13,0.12,354.5,-0.0047613102942705154,0.0058012898080050945,-0.2602938115596771,-0.26128026843070984,-0.0017704212805256248,0.002118074567988515,-0.06841129809617996,0.03,0.03,-0.03,584.09
1778788397.55976200,70745024,1,0.13,0.11,354.5,-0.0035871616564691067,0.006596782244741917,-0.2606373727321625,-0.263500839471817,-0.0012420103885233402,0.0024026818573474884,-0.05925534665584564,0.03,0.03,-0.03,584.08
1778788397.65972209,70844984,0,0.13,0.12,354.5,-0.0052008419297635555,0.006337278988212347,-0.3181953430175781,-0.3166341781616211,-0.0019359957659617066,0.002326671266928315,-0.09726768732070923,0.03,0.03,-0.03,584.09
1778788397.65972209,70844984,1,0.14,0.11,354.5,-0.004188443534076214,0.007178181316703558,-0.3184034824371338,-0.31853634119033813,-0.0014014687621966004,0.002631139475852251,-0.08829159289598465,0.03,0.03,-0.03,584.08
1778788397.75968194,70944944,0,0.12,0.11,354.49,-0.005770227871835232,0.00702116871252656,-0.40896522998809814,-0.4062577784061432,-0.0021692842710763216,0.0026163761503994465,-0.13230489194393158,0.03,0.03,-0.03,584.09
1778788397.75968194,70944944,1,0.12,0.1,354.5,-0.004732721950858831,0.007944144308567047,-0.4094826281070709,-0.40818876028060913,-0.0016319684218615294,0.002951111877337098,-0.12347516417503357,0.03,0.03,-0.03,584.08
1778788397.85964203,71044904,0,0.01,0.01,354.49,-0.0058558015152812,0.007260454818606377,-0.8939098119735718,-0.9063294529914856,-0.0023499487433582544,0.0028492920100688934,-0.19918835163116455,0.03,0.03,-0.03,584.09
1778788397.85964203,71044904,1,0.02,0.0,354.49,-0.004783512558788061,0.008126563392579556,-0.8951866030693054,-0.9067994356155396,-0.00180521747097373,0.0031837911810725927,-0.19031201303005219,0.03,0.03,-0.03,584.08
1778788397.95960212,71144864,0,-0.07,-0.07,354.49,-0.004737282637506723,0.005894663743674755,-1.1982898712158203,-1.2316330671310425,-0.0025033638812601566,0.00305329542607069,-0.3095182776451111,0.03,0.03,-0.03,584.09
1778788397.95960212,71144864,1,-0.06,-0.07,354.5,-0.003599831834435463,0.006705869920551777,-1.1993485689163208,-1.229817509651184,-0.0019471995765343308,0.0034182046074420214,-0.3005498945713043,0.03,0.03,-0.03,584.08
1778788398.05956197,71244824,0,-0.11,-0.11,354.49,-0.002498720306903124,0.0029631115030497313,-1.243579626083374,-1.2324258089065552,-0.0023543720599263906,0.0028861362952739,-0.42982718348503113,0.03,0.03,-0.03,584.09
1778788398.05956197,71244824,1,-0.1,-0.11,354.5,-0.0012957678409293294,0.0038155876100063324,-1.2441935539245605,-1.230864405632019,-0.0017857574857771397,0.0032683340832591057,-0.4208233058452606,0.03,0.03,-0.03,584.08
1778788398.15952206,71344784,0,-0.11,-0.11,354.5,0.0005277908057905734,-0.0010769288055598736,-1.1852328777313232,-1.122538685798645,-0.001961423084139824,0.002392298774793744,-0.5463352203369141,0.03,0.03,-0.03,584.09
1778788398.15952206,71344784,1,-0.1,-0.11,354.5,0.001720178290270269,-0.00015004076703917235,-1.1856086254119873,-1.1217138767242432,-0.0013637171359732747,0.0027985672932118177,-0.5372852087020874,0.03,0.03,-0.03,584.08
1778788398.25948215,71444744,0,-0.08,-0.08,354.5,0.003814609721302986,-0.0053179520182311535,-1.1512441635131836,-1.10094153881073,-0.0011375041212886572,0.0013361861929297447,-0.6594479084014893,0.03,0.03,-0.03,584.09
1778788398.25948215,71444744,1,-0.08,-0.09,354.5,0.0050188153982162476,-0.004389319568872452,-1.151660680770874,-1.1003000736236572,-0.0005278987227939069,0.0017530287150293589,-0.6503224968910217,0.03,0.03,-0.03,584.08
1778788398.35944200,71544704,0,-0.03,-0.03,354.5,0.006406689528375864,-0.008719605393707752,-1.1826255321502686,-1.1613749265670776,-5.785430039395578e-05,-6.280789239099249e-05,-0.774430513381958,0.03,0.03,-0.03,584.09
1778788398.35944200,71544704,1,-0.03,-0.04,354.5,0.0076657868921756744,-0.007735917344689369,-1.183050274848938,-1.1606842279434204,0.0005760540370829403,0.00037598676863126457,-0.7652326822280884,0.03,0.03,-0.03,584.08
1778788398.45940208,71644664,0,0.02,0.01,354.5,0.007987024262547493,-0.010795820504426956,-1.2636961936950684,-1.2746344804763794,0.0012685133842751384,-0.0017876755446195602,-0.8977183103561401,0.03,0.03,-0.03,584.09
1778788398.45940208,71644664,1,0.02,0.01,354.5,0.009180164895951748,-0.009987587109208107,-1.264115810394287,-1.2745518684387207,0.0019100273493677378,-0.0013453606516122818,-0.8884381651878357,0.03,0.03,-0.03,584.08
1778788398.55936193,71744624,0,0.07,0.06,354.5,0.008637460879981518,-0.011525752022862434,-1.365415096282959,-1.3986248970031738,0.002633320866152644,-0.0035719864536076784,-1.0316632986068726,0.03,0.03,-0.03,584.09
1778788398.55936193,71744624,1,0.08,0.05,354.5,0.009736159816384315,-0.01064939796924591,-1.3657971620559692,-1.399817943572998,0.0033259810879826546,-0.003182100597769022,-1.0226041078567505,0.03,0.03,-0.03,584.08
1778788398.65932202,71844584,0,0.12,0.1,354.5,0.0083887604996562,-0.01124055590480566,-1.4692074060440063,-1.5080713033676147,0.004021006170660257,-0.005618448834866285,-1.1763383150100708,0.03,0.03,-0.03,584.09
1778788398.65932202,71844584,1,0.12,0.09,354.5,0.009489137679338455,-0.010519970208406448,-1.4695641994476318,-1.5090339183807373,0.0046924143098294735,-0.005194373894482851,-1.167357325553894,0.03,0.03,-0.03,584.08
1778788398.75928211,71944544,0,0.15,0.13,354.5,0.0074644386768341064,-0.010163423605263233,-1.570056438446045,-1.608559250831604,0.005278006196022034,-0.007565084844827652,-1.3315033912658691,0.03,0.03,-0.03,584.09
1778788398.75928211,71944544,1,0.16,0.13,354.5,0.008674116805195808,-0.009484490379691124,-1.5704312324523926,-1.6107617616653442,0.005952476989477873,-0.007126183714717627,-1.3227473497390747,0.03,0.03,-0.03,584.08
1778788398.85924196,72044504,0,0.18,0.16,354.5,0.006359015125781298,-0.008560441434383392,-1.669653058052063,-1.7051441669464111,0.006695990450680256,-0.009510348550975323,-1.496508002281189,0.03,0.03,-0.03,584.09
1778788398.85924196,72044504,1,0.18,0.15,354.5,0.0074599385261535645,-0.0080022057518363,-1.6699130535125732,-1.7086496353149414,0.007360918913036585,-0.0090746209025383,-1.4880598783493042,0.03,0.03,-0.03,584.08
1778788398.96003509,72145297,0,0.2,0.17,354.5,0.004964052699506283,-0.0064902896992862225,-1.7715253829956055,-1.80400550365448,0.00799474585801363,-0.01119631715118885,-1.6730157136917114,0.03,0.03,-0.03,584.09
1778788398.96003509,72145297,1,0.2,0.16,354.5,0.006035053636878729,-0.005960078444331884,-1.7710192203521729,-1.8072456121444702,0.008655175566673279,-0.01076413132250309,-1.6634976863861084,0.03,0.03,-0.03,584.08
1778788399.05999494,72245257,0,0.21,0.18,354.5,0.0034316256642341614,-0.004376615397632122,-1.8746920824050903,-1.905768632888794,0.009273449890315533,-0.012931862846016884,-1.8582607507705688,0.03,0.03,-0.03,584.09
1778788399.05999494,72245257,1,0.21,0.18,354.5,0.004559399094432592,-0.003920000046491623,-1.8740978240966797,-1.9117761850357056,0.009924506768584251,-0.012510900385677814,-1.8490943908691406,0.03,0.03,-0.03,584.08
1778788399.15995502,72345217,0,0.21,0.19,354.5,0.00154789665248245,-0.002080670092254877,-1.9786217212677002,-2.0091891288757324,0.010316570289433002,-0.01439022645354271,-2.0523769855499268,0.03,0.03,-0.03,584.09
1778788399.15995502,72345217,1,0.22,0.18,354.5,0.0027593648992478848,-0.0016299543203786016,-1.9789495468139648,-2.0120439529418945,0.010982833802700043,-0.013982790522277355,-2.0449447631835938,0.03,0.03,-0.03,584.08
1778788399.25991511,72445177,0,0.22,0.2,354.5,-0.000290996948024258,0.00023735025024507195,-2.0840721130371094,-2.1149942874908447,0.011252623051404953,-0.015765493735671043,-2.258585214614868,0.03,0.03,-0.03,584.09
1778788399.25991511,72445177,1,0.23,0.2,354.5,0.0008507793536409736,0.0007768444484099746,-2.084428548812866,-2.115234375,0.011878423392772675,-0.015282309614121914,-2.251175880432129,0.03,0.03,-0.03,584.08
1778788399.35987496,72545137,0,0.22,0.2,354.5,-0.0021577798761427402,0.0027123296167701483,-2.189497470855713,-2.2213807106018066,0.011914952658116817,-0.01678749918937683,-2.4755163192749023,0.03,0.03,-0.03,584.09
1778788399.35987496,72545137,1,0.23,0.19,354.5,-0.0011616850970312953,0.003237262601032853,-2.1896579265594482,-2.2191226482391357,0.012573588639497757,-0.016342224553227425,-2.4679670333862305,0.03,0.03,-0.03,584.08
1778788399.45983505,72645097,0,0.23,0.2,354.5,-0.003991502337157726,0.005083805415779352,-2.2936434745788574,-2.326056957244873,0.012476516887545586,-0.017872199416160583,-2.7028610706329346,0.03,0.03,-0.03,584.09
1778788399.45983505,72645097,1,0.23,0.2,354.5,-0.0031036892905831337,0.0056567080318927765,-2.29371976852417,-2.3237295150756836,0.013099158182740211,-0.017336715012788773,-2.695152997970581,0.03,0.03,-0.03,584.08
1778788399.55979514,72745057,0,0.23,0.2,352.62,-0.00575255649164319,0.00749077508226037,-2.384831428527832,-2.4167397022247314,0.012772236950695515,-0.01863536797463894,-2.9421403408050537,0.03,0.03,-0.03,584.09
1778788399.55979514,72745057,1,0.23,0.19,352.62,-0.0048380885273218155,0.007915318943560123,-2.384833574295044,-2.4146029949188232,0.013493599370121956,-0.01831168308854103,-2.934525728225708,0.03,0.03,-0.03,584.08
1778788399.65975499,72845017,0,0.22,0.19,352.62,-0.007007569074630737,0.009440715424716473,-2.449314832687378,-2.4761900901794434,0.013180823065340519,-0.019450368359684944,-3.186488389968872,0.03,0.03,-0.03,584.09
1778788399.65975499,72845017,1,0.22,0.18,352.62,-0.00600030180066824,0.009866920299828053,-2.4492790699005127,-2.4787137508392334,0.01389346458017826,-0.019114451482892036,-3.179016351699829,0.03,0.03,-0.03,584.08
1778788399.75971508,72944977,0,0.21,0.18,352.62,-0.007986408658325672,0.01110384427011013,-2.492546796798706,-2.5118391513824463,0.013615204021334648,-0.02020064741373062,-3.4357564449310303,0.03,0.03,-0.03,584.09
1778788399.75971508,72944977,1,0.22,0.18,352.62,-0.007103833835572004,0.011419267393648624,-2.4924747943878174,-2.511526346206665,0.014321676455438137,-0.019872182980179787,-3.4281458854675293,0.03,0.03,-0.03,584.08
1778788399.85967493,73044937,0,0.21,0.18,352.63,-0.008789717219769955,0.012521468102931976,-2.51936411857605,-2.5369017124176025,0.0140576446428895,-0.020913565531373024,-3.68829345703125,0.03,0.03,-0.03,584.09
1778788399.85967493,73044937,1,0.21,0.18,352.63,-0.008119984529912472,0.012805087491869926,-2.519277334213257,-2.5353708267211914,0.014740806072950363,-0.020598050206899643,-3.6805620193481445,0.03,0.03,-0.03,584.08
1778788399.95963502,73144897,0,0.21,0.18,352.64,-0.009556512348353863,0.013822874054312706,-2.5336668491363525,-2.5494747161865234,0.014439847320318222,-0.021503983065485954,-3.9427454471588135,0.03,0.03,-0.03,584.09
1778788399.95963502,73144897,1,0.21,0.18,352.64,-0.00894759688526392,0.013975097797811031,-2.5335028171539307,-2.5479252338409424,0.015096825547516346,-0.021206792443990707,-3.934901237487793,0.03,0.03,-0.03,584.08
1778788400.05959511,73244857,0,0.21,0.19,352.65,-0.01031381543725729,0.014896748587489128,-2.538674831390381,-2.5559005737304688,0.014791995286941528,-0.022031141445040703,-4.198151588439941,0.03,0.03,-0.03,584.09
1778788400.05959511,73244857,1,0.21,0.18,352.64,-0.009665020741522312,0.014964273199439049,-2.538632392883301,-2.5547237396240234,0.015427915379405022,-0.02176806516945362,-4.190210342407227,0.03,0.03,-0.03,584.08
1778788400.15955496,73344817,0,0.2,0.19,352.65,-0.010961167514324188,0.015873244032263756,-2.5374443531036377,-2.554874897003174,0.015063310973346233,-0.022431591525673866,-4.453723430633545,0.03,0.03,-0.03,584.09
1778788400.15955496,73344817,1,0.21,0.18,352.65,-0.010346791706979275,0.015947019681334496,-2.5374348163604736,-2.5539767742156982,0.015680864453315735,-0.022197507321834564,-4.44570255279541,0.03,0.03,-0.03,584.08
1778788400.25951505,73444777,0,0.21,0.18,352.66,-0.011596770957112312,0.016794705763459206,-2.5318710803985596,-2.550750255584717,0.015297144651412964,-0.022764263674616814,-4.7090067863464355,0.03,0.03,-0.03,584.09
1778788400.25951505,73444777,1,0.21,0.18,352.66,-0.010676443576812744,0.016711672767996788,-2.5317866802215576,-2.551342725753784,0.016075577586889267,-0.022813087329268456,-4.7010955810546875,0.03,0.03,-0.03,584.08
1778788400.35947514,73544737,0,0.22,0.19,352.66,-0.012096199207007885,0.0177297480404377,-2.523810863494873,-2.5431995391845703,0.015455435030162334,-0.02296452410519123,-4.963613510131836,0.03,0.03,-0.03,584.09
1778788400.35947514,73544737,1,0.22,0.18,352.66,-0.011225084774196148,0.017775805667042732,-2.5238025188446045,-2.547090768814087,0.01618163101375103,-0.02293066866695881,-4.956111431121826,0.03,0.03,-0.03,584.08
1778788400.45943499,73644697,0,0.22,0.19,352.66,-0.012725850567221642,0.018547838553786278,-2.5142722129821777,-2.5339865684509277,0.015560731291770935,-0.023094378411769867,-5.217329025268555,0.03,0.03,-0.03,584.09
1778788400.45943499,73644697,1,0.22,0.19,352.66,-0.011845702305436134,0.01868845708668232,-2.5143513679504395,-2.537432909011841,0.016245776787400246,-0.02300209179520607,-5.210015773773193,0.03,0.03,-0.03,584.08
1778788400.55939507,73744657,0,0.21,0.19,352.65,-0.013263319618999958,0.019326236099004745,-2.505016565322876,-2.523996114730835,0.015575998462736607,-0.023104654625058174,-5.47003698348999,0.03,0.03,-0.03,584.09
1778788400.55939507,73744657,1,0.22,0.18,352.65,-0.012474908493459225,0.01954340562224388,-2.505150556564331,-2.5250589847564697,0.016233278438448906,-0.022963818162679672,-5.462769031524658,0.03,0.03,-0.03,584.08
1778788400.65935493,73844617,0,0.2,0.19,352.65,-0.013624073937535286,0.01983015611767769,-2.4962503910064697,-2.514554977416992,0.015560233034193516,-0.023073343560099602,-5.7217817306518555,0.03,0.03,-0.03,584.09
1778788400.65935493,73844617,1,0.21,0.18,352.65,-0.012972657568752766,0.020213380455970764,-2.496328830718994,-2.513697862625122,0.016190599650144577,-0.022892924025654793,-5.714448928833008,0.03,0.03,-0.03,584.08
1778788400.75931501,73944577,0,0.2,0.19,352.65,-0.013983729295432568,0.02023019827902317,-2.4884085655212402,-2.5055041313171387,0.015489726327359676,-0.022962262853980064,-5.972599506378174,0.03,0.03,-0.03,584.09
1778788400.75931501,73944577,1,0.2,0.18,352.65,-0.013305413536727428,0.02065884694457054,-2.488422155380249,-2.5034828186035156,0.016098685562610626,-0.022748347371816635,-5.965118408203125,0.03,0.03,-0.03,584.08
1778788400.85927510,74044537,0,0.19,0.18,352.65,-0.014159510843455791,0.020410887897014618,-2.482168436050415,-2.4981603622436523,0.01540939137339592,-0.022854965180158615,-6.222588539123535,0.03,0.03,-0.03,584.09
1778788400.85927510,74044537,1,0.19,0.17,352.65,-0.013548817485570908,0.020800279453396797,-2.4820616245269775,-2.4958078861236572,0.0160007756203413,-0.022618094459176064,-6.214904308319092,0.03,0.03,-0.03,584.08
1778788400.95923495,74144497,0,0.18,0.17,352.65,-0.0141797149553895,0.02033376507461071,-2.4762871265411377,-2.491234064102173,0.015307380817830563,-0.02272423356771469,-6.471950054168701,0.03,0.03,-0.03,584.09
1778788400.95923495,74144497,1,0.19,0.16,352.65,-0.013407106511294842,0.020575959235429764,-2.4764246940612793,-2.489039421081543,0.016002997756004333,-0.022653654217720032,-6.464132308959961,0.03,0.03,-0.03,584.08
1778788401.06002808,74245290,0,0.18,0.17,352.65,-0.013856849633157253,0.019746992737054825,-2.4716455936431885,-2.4869353771209717,0.015407136641442776,-0.022905757650732994,-6.723004341125488,0.03,0.03,-0.03,584.09
1778788401.06002808,74245290,1,0.19,0.17,352.65,-0.013290361501276493,0.020327167585492134,-2.4717674255371094,-2.4879186153411865,0.015876447781920433,-0.02250366285443306,-6.713152885437012,0.03,0.03,-0.03,584.08
1778788401.15998793,74345250,0,0.2,0.18,352.65,-0.013829759322106838,0.019698703661561012,-2.4689509868621826,-2.486255645751953,0.015275470912456512,-0.022756120190024376,-6.971730709075928,0.03,0.03,-0.03,584.09
1778788401.15998793,74345250,1,0.2,0.18,352.65,-0.013314967975020409,0.020337432622909546,-2.4690632820129395,-2.49065899848938,0.015751883387565613,-0.022361133247613907,-6.962123394012451,0.03,0.03,-0.03,584.08
1778788401.25994802,74445210,0,0.21,0.2,352.65,-0.013953781686723232,0.019849125295877457,-2.4670400619506836,-2.4872586727142334,0.015173343941569328,-0.022661784663796425,-7.2183380126953125,0.03,0.03,-0.03,584.09
1778788401.25994802,74445210,1,0.21,0.19,352.65,-0.013677177019417286,0.020373033359646797,-2.4671223163604736,-2.486644744873047,0.015622069127857685,-0.022254258394241333,-7.210557460784912,0.03,0.03,-0.03,584.08
1778788401.35990810,74545170,0,0.22,0.2,352.66,-0.014317500405013561,0.02017250843346119,-2.4659979343414307,-2.486905813217163,0.01502192672342062,-0.022509770467877388,-7.466878890991211,0.03,0.03,-0.03,584.09
1778788401.35990810,74545170,1,0.22,0.19,352.65,-0.01407599076628685,0.02069438062608242,-2.4659128189086914,-2.4810950756073,0.015444673597812653,-0.02210881933569908,-7.458547115325928,0.03,0.03,-0.03,584.08
1778788401.45986795,74645130,0,0.22,0.2,352.65,-0.014470084570348263,0.020493965595960617,-2.46614670753479,-2.487582206726074,0.014884015545248985,-0.022359561175107956,-7.715432167053223,0.03,0.03,-0.03,584.09
1778788401.45986795,74645130,1,0.22,0.19,352.65,-0.014362284913659096,0.021093172952532768,-2.4659745693206787,-2.478034496307373,0.01526518166065216,-0.021956831216812134,-7.7062907218933105,0.03,0.03,-0.03,584.08
1778788401.55982804,74745090,0,0.22,0.19,352.65,-0.014514775946736336,0.020810525864362717,-2.4667978286743164,-2.488070011138916,0.014733131043612957,-0.022151269018650055,-7.964059829711914,0.03,0.03,-0.03,584.09
1778788401.55982804,74745090,1,0.22,0.19,352.65,-0.014439317397773266,0.02121235989034176,-2.4663822650909424,-2.476783037185669,0.01507310476154089,-0.021745575591921806,-7.95395565032959,0.03,0.03,-0.03,584.08
1778788401.65978813,74845050,0,0.21,0.19,352.65,-0.014533283188939095,0.020993808284401894,-2.4677929878234863,-2.489295244216919,0.014590234495699406,-0.021913625299930573,-8.214746475219727,0.03,0.03,-0.03,584.09
1778788401.65978813,74845050,1,0.22,0.19,352.65,-0.014483402483165264,0.021391788497567177,-2.4672493934631348,-2.4766643047332764,0.014886516146361828,-0.02152201347053051,-8.203611373901367,0.03,0.03,-0.03,584.08
1778788401.75974798,74945010,0,0.21,0.19,352.64,-0.014600339345633984,0.021116172894835472,-2.4685983657836914,-2.4882895946502686,0.014439060352742672,-0.02163679338991642,-8.463394165039062,0.03,0.03,-0.03,584.09
1778788401.75974798,74945010,1,0.22,0.19,352.64,-0.014510970562696457,0.02153671719133854,-2.4679248332977295,-2.476029872894287,0.014702262356877327,-0.021249791607260704,-8.451172828674316,0.03,0.03,-0.03,584.08
1778788401.85970807,75044970,0,0.21,0.19,352.64,-0.014563058502972126,0.02117779105901718,-2.469085454940796,-2.4877243041992188,0.014295422472059727,-0.021348144859075546,-8.711986541748047,0.03,0.03,-0.03,584.09
1778788401.85970807,75044970,1,0.21,0.18,352.64,-0.014677600003778934,0.021636342629790306,-2.4682490825653076,-2.4751198291778564,0.014520842581987381,-0.02096378244459629,-8.698603630065918,0.03,0.03,-0.03,584.08
1778788401.95966792,75144930,0,0.2,0.19,352.64,-0.014534678310155869,0.02114085853099823,-2.470209836959839,-2.4876179695129395,0.014125138521194458,-0.021004093810915947,-8.96063232421875,0.03,0.03,-0.03,584.09
1778788401.95966792,75144930,1,0.2,0.18,352.64,-0.014605431817471981,0.021378271281719208,-2.4690089225769043,-2.4744420051574707,0.01442830078303814,-0.020800795406103134,-8.946048736572266,0.03,0.03,-0.03,584.08
1778788402.05962801,75244890,0,0.19,0.18,352.64,-0.014432900585234165,0.020933767780661583,-2.4713854789733887,-2.489177942276001,0.0139642134308815,-0.02068798616528511,-9.20938777923584,0.03,0.03,-0.03,584.09
1778788402.05962801,75244890,1,0.19,0.17,352.64,-0.014652438461780548,0.021199675276875496,-2.4699602127075195,-2.477914810180664,0.014165865257382393,-0.020409872755408287,-9.193760871887207,0.03,0.03,-0.03,584.08
1778788402.15958810,75344850,0,0.19,0.17,352.65,-0.014166714623570442,0.02057478204369545,-2.4725539684295654,-2.4894769191741943,0.013783455826342106,-0.020350737497210503,-9.458185195922852,0.03,0.03,-0.03,584.09
1778788402.15958810,75344850,1,0.19,0.17,352.65,-0.014537154696881771,0.020936261862516403,-2.470947504043579,-2.4781720638275146,0.013899488374590874,-0.020027101039886475,-9.441388130187988,0.03,0.03,-0.03,584.08
1778788402.25954795,75444810,0,0.19,0.17,352.65,-0.013829885050654411,0.020176813006401062,-2.473618507385254,-2.489915132522583,0.013625983148813248,-0.02005714550614357,-9.706985473632812,0.03,0.03,-0.03,584.09
1778788402.25954795,75444810,1,0.19,0.16,352.65,-0.014246534556150436,0.020482473075389862,-2.4717845916748047,-2.4767849445343018,0.013670469634234905,-0.019708894193172455,-9.688896179199219,0.03,0.03,-0.03,584.08
1778788402.35950804,75544770,0,0.19,0.17,352.65,-0.013512665405869484,0.019927239045500755,-2.4746081829071045,-2.4894890785217285,0.013454967178404331,-0.019740456715226173,-9.955821990966797,0.03,0.03,-0.03,584.09
1778788402.35950804,75544770,1,0.2,0.16,352.66,-0.013849490322172642,0.02017061784863472,-2.472527503967285,-2.475374221801758,0.013449183665215969,-0.0193873792886734,-9.93636703491211,0.03,0.03,-0.03,584.08
1778788402.45946813,75644730,0,0.2,0.16,352.66,-0.013083302415907383,0.019767504185438156,-2.4754884243011475,-2.489858388900757,0.013322336599230766,-0.01946290209889412,-10.20463752746582,0.03,0.03,-0.03,584.09
1778788402.45946813,75644730,1,0.2,0.16,352.66,-0.013485724106431007,0.01992311142385006,-2.4733152389526367,-2.4751980304718018,0.013282477855682373,-0.019117631018161774,-10.183799743652344,0.03,0.03,-0.03,584.08
1778788402.55942798,75744690,0,0.2,0.17,352.66,-0.012761980295181274,0.01963437907397747,-2.47638201713562,-2.4894044399261475,0.013190947473049164,-0.019152022898197174,-10.45347785949707,0.03,0.03,-0.03,584.09
1778788402.55942798,75744690,1,0.21,0.17,352.66,-0.013187549076974392,0.019827019423246384,-2.4740233421325684,-2.474846363067627,0.013122649863362312,-0.018828613683581352,-10.431235313415527,0.03,0.03,-0.03,584.08
1778788402.65938807,75844650,0,0.21,0.19,352.67,-0.012753427028656006,0.01968233659863472,-2.4776904582977295,-2.490676164627075,0.013076362200081348,-0.01885353773832321,-10.702372550964355,0.03,0.03,-0.03,584.09
1778788402.65938807,75844650,1,0.21,0.19,352.67,-0.012976040132343769,0.01978887990117073,-2.4750843048095703,-2.476030111312866,0.013138317503035069,-0.018758773803710938,-10.678729057312012,0.03,0.03,-0.03,584.08
1778788402.75934815,75944610,0,0.21,0.2,352.67,-0.013051550835371017,0.01986650377511978,-2.4790239334106445,-2.4907724857330322,0.012906135059893131,-0.018487760797142982,-10.951313018798828,0.03,0.03,-0.03,584.09
1778788402.75934815,75944610,1,0.21,0.2,352.67,-0.013335870578885078,0.0199886504560709,-2.4763407707214355,-2.4797637462615967,0.012893276289105415,-0.018307451158761978,-10.926665306091309,0.03,0.03,-0.03,584.08
1778788402.85930800,76044570,0,0.21,0.21,352.66,-0.013422328978776932,0.020128196105360985,-2.4801859855651855,-2.4912569522857666,0.012719588354229927,-0.018113836646080017,-11.200265884399414,0.03,0.03,-0.03,584.09
1778788402.85930800,76044570,1,0.22,0.2,352.66,-0.013707572594285011,0.020280109718441963,-2.477511405944824,-2.4817912578582764,0.012654718942940235,-0.017878739163279533,-11.17457389831543,0.03,0.03,-0.03,584.08
1778788402.95926809,76144530,0,0.21,0.2,352.66,-0.01377579290419817,0.020420674234628677,-2.4809181690216064,-2.4909510612487793,0.01246968749910593,-0.017660919576883316,-11.44930362701416,0.03,0.03,-0.03,584.09
1778788402.95926809,76144530,1,0.22,0.2,352.66,-0.013942711986601353,0.020599743351340294,-2.478084087371826,-2.4800291061401367,0.012380162253975868,-0.01739107072353363,-11.422425270080566,0.03,0.03,-0.03,584.08
1778788403.05922794,76244490,0,0.21,0.2,352.65,-0.013981386087834835,0.020659402012825012,-2.4702064990997314,-2.480013847351074,0.012211916036903858,-0.017207419499754906,-11.697907447814941,0.03,0.03,-0.03,584.09
1778788403.05922794,76244490,1,0.21,0.19,352.66,-0.014179186895489693,0.020776351913809776,-2.4672107696533203,-2.4674932956695557,0.01211498025804758,-0.016926484182476997,-11.669793128967285,0.03,0.03,-0.03,584.08
1778788403.16002107,76345283,0,0.2,0.2,352.65,-0.014127075672149658,0.020598798990249634,-2.4345195293426514,-2.443113327026367,0.011898855678737164,-0.01668430306017399,-11.94613265991211,0.03,0.03,-0.03,584.09
1778788403.16002107,76345283,1,0.2,0.19,352.65,-0.014297937974333763,0.020698267966508865,-2.431656837463379,-2.429949998855591,0.011916483752429485,-0.016570115461945534,-11.914673805236816,0.03,0.03,-0.03,584.08
1778788403.25998092,76445243,0,0.19,0.19,352.65,-0.01410237979143858,0.02044338919222355,-2.378175735473633,-2.385708808898926,0.011609460227191448,-0.016066942363977432,-12.187471389770508,0.03,0.03,-0.03,584.09
1778788403.25998092,76445243,1,0.2,0.19,352.65,-0.014455058611929417,0.020558884367346764,-2.3752570152282715,-2.37471342086792,0.011569315567612648,-0.015900494530797005,-12.155051231384277,0.03,0.03,-0.03,584.08
1778788403.35994101,76545203,0,0.19,0.19,352.64,-0.014030518010258675,0.020136184990406036,-2.306143045425415,-2.3085029125213623,0.011309022083878517,-0.015359949320554733,-12.419859886169434,0.03,0.03,-0.03,584.09
1778788403.35994101,76545203,1,0.19,0.18,352.65,-0.014348010532557964,0.020271172747015953,-2.302582025527954,-2.3048596382141113,0.011214119382202625,-0.015155834145843983,-12.389208793640137,0.03,0.03,-0.03,584.08
1778788403.45990109,76645163,0,0.18,0.18,352.64,-0.013824994675815105,0.019768815487623215,-2.220978260040283,-2.218148946762085,0.011020089499652386,-0.014451870694756508,-12.645926475524902,0.03,0.03,-0.03,584.09
1778788403.45990109,76645163,1,0.19,0.18,352.65,-0.014036289416253567,0.01996466889977455,-2.2174832820892334,-2.2245490550994873,0.010908100754022598,-0.014240019023418427,-12.615853309631348,0.03,0.03,-0.03,584.08
1778788403.55986094,76745123,0,0.17,0.18,352.64,-0.013604034669697285,0.019410833716392517,-2.126558303833008,-2.120081901550293,0.010714223608374596,-0.013396218419075012,-12.86268424987793,0.03,0.03,-0.03,584.09
1778788403.55986094,76745123,1,0.18,0.18,352.64,-0.013959109783172607,0.019543124362826347,-2.1235175132751465,-2.1341755390167236,0.01060068141669035,-0.013190362602472305,-12.83369255065918,0.03,0.03,-0.03,584.08
1778788403.65982103,76845083,0,0.17,0.18,352.64,-0.013371672481298447,0.018822839483618736,-2.0256314277648926,-2.0175957679748535,0.010451234877109528,-0.012346851639449596,-13.069550514221191,0.03,0.03,-0.03,584.09
1778788403.65982103,76845083,1,0.17,0.18,352.64,-0.013704330660402775,0.019069992005825043,-2.0230517387390137,-2.0354573726654053,0.01033141277730465,-0.012146818451583385,-13.042024612426758,0.03,0.03,-0.03,584.08
1778788403.75978112,76945043,0,0.16,0.18,352.64,-0.013081613928079605,0.018174150958657265,-1.9198808670043945,-1.9120367765426636,0.010172500275075436,-0.011283408850431442,-13.267642974853516,0.03,0.03,-0.03,584.09
1778788403.75978112,76945043,1,0.16,0.17,352.64,-0.013305695727467537,0.018400955945253372,-1.9177063703536987,-1.9330381155014038,0.010046053677797318,-0.011069552041590214,-13.241782188415527,0.03,0.03,-0.03,584.08
1778788403.85974097,77045003,0,0.15,0.18,352.64,-0.012770626693964005,0.017457308247685432,-1.81228506565094,-1.8042570352554321,0.009954718872904778,-0.010333805344998837,-13.453396797180176,0.03,0.03,-0.03,584.09
1778788403.85974097,77045003,1,0.15,0.17,352.64,-0.013180798850953579,0.01752983033657074,-1.810388445854187,-1.822266936302185,0.00981074944138527,-0.010122531093657017,-13.428972244262695,0.03,0.03,-0.03,584.08
1778788403.95970106,77144963,0,0.14,0.17,352.64,-0.012504354119300842,0.01653318852186203,-1.7036603689193726,-1.6957863569259644,0.009735098108649254,-0.009450103156268597,-13.628247261047363,0.03,0.03,-0.03,584.09
1778788403.95970106,77144963,1,0.15,0.17,352.64,-0.013011607341468334,0.0165723767131567,-1.7019840478897095,-1.7086210250854492,0.009565643966197968,-0.009259380400180817,-13.60499095916748,0.03,0.03,-0.03,584.08
1778788404.05966115,77244923,0,0.14,0.17,352.64,-0.012207485735416412,0.015660040080547333,-1.594726800918579,-1.586381196975708,0.009562206454575062,-0.008526144549250603,-13.79223918914795,0.03,0.03,-0.03,584.09
1778788404.05966115,77244923,1,0.14,0.16,352.64,-0.012669588439166546,0.015692830085754395,-1.5931810140609741,-1.595658540725708,0.009375963360071182,-0.008360881358385086,-13.769909858703613,0.03,0.03,-0.03,584.08
1778788404.15962100,77344883,0,0.13,0.16,352.64,-0.01192917488515377,0.014695493504405022,-1.4864132404327393,-1.478580355644226,0.009385824203491211,-0.007583011407405138,-13.945303916931152,0.03,0.03,-0.03,584.09
1778788404.15962100,77344883,1,0.13,0.16,352.65,-0.012391691096127033,0.014729444868862629,-1.4848259687423706,-1.484857201576233,0.009188641794025898,-0.007438130211085081,-13.923726081848145,0.03,0.03,-0.03,584.08
1778788404.25958109,77444843,0,0.12,0.16,352.64,-0.011504939757287502,0.013651277869939804,-1.3788474798202515,-1.3695346117019653,0.00927900429815054,-0.006728003732860088,-14.087503433227539,0.03,0.03,-0.03,584.09
1778788404.25958109,77444843,1,0.13,0.15,352.65,-0.012079217471182346,0.013726266101002693,-1.3772355318069458,-1.3744447231292725,0.009069124236702919,-0.006601247470825911,-14.06651782989502,0.03,0.03,-0.03,584.08
1778788404.35954094,77544803,0,0.12,0.16,352.64,-0.011125854216516018,0.012626633048057556,-1.272729516029358,-1.2630524635314941,0.009191443212330341,-0.005945269484072924,-14.218932151794434,0.03,0.03,-0.03,584.09
1778788404.35954094,77544803,1,0.13,0.15,352.65,-0.011657324619591236,0.012635728344321251,-1.2712392807006836,-1.2664885520935059,0.00906342826783657,-0.005880179349333048,-14.198357582092285,0.03,0.03,-0.03,584.08
1778788404.45950103,77644763,0,0.12,0.17,352.64,-0.010754922404885292,0.011534162797033787,-1.1680389642715454,-1.1569411754608154,0.009159468114376068,-0.005322264041751623,-14.339742660522461,0.03,0.03,-0.03,584.09
1778788404.45950103,77644763,1,0.12,0.16,352.65,-0.011309542693197727,0.01163801271468401,-1.1666839122772217,-1.1611140966415405,0.008962868712842464,-0.0052281892858445644,-14.319770812988281,0.03,0.03,-0.03,584.08
1778788404.55946112,77744723,0,0.12,0.18,352.64,-0.010671017691493034,0.010565629228949547,-1.0642427206039429,-1.0523598194122314,0.009116735309362411,-0.004816687200218439,-14.449974060058594,0.03,0.03,-0.03,584.09
1778788404.55946112,77744723,1,0.13,0.18,352.65,-0.011141618713736534,0.01069397758692503,-1.0630576610565186,-1.0599864721298218,0.008883836679160595,-0.004700891207903624,-14.430788040161133,0.03,0.03,-0.03,584.08
1778788404.65942097,77844683,0,0.13,0.19,352.64,-0.010694238357245922,0.009661384858191013,-0.9618587493896484,-0.9482426047325134,0.009106925688683987,-0.004454365000128746,-14.549840927124023,0.03,0.03,-0.03,584.09
1778788404.65942097,77844683,1,0.13,0.18,352.65,-0.011316844262182713,0.009773874655365944,-0.9607111215591431,-0.9550114274024963,0.008846865966916084,-0.004333645571023226,-14.53126049041748,0.03,0.03,-0.03,584.08
1778788404.75938106,77944643,0,0.13,0.19,352.64,-0.010753017850220203,0.008864739909768105,-0.8608937859535217,-0.8468186259269714,0.00906687043607235,-0.004185852129012346,-14.639411926269531,0.03,0.03,-0.03,584.09
1778788404.75938106,77944643,1,0.13,0.18,352.65,-0.01139501016587019,0.008982332423329353,-0.8599259853363037,-0.8515625,0.008780679665505886,-0.004063214175403118,-14.621305465698242,0.03,0.03,-0.03,584.08
1778788404.85934114,78044603,0,0.14,0.19,352.64,-0.010781328193843365,0.008187683299183846,-0.7606644034385681,-0.7445281147956848,0.009053102694451809,-0.004060904961079359,-14.718770027160645,0.03,0.03,-0.03,584.09
1778788404.85934114,78044603,1,0.15,0.19,352.65,-0.011446557007730007,0.008362486027181149,-0.7596517205238342,-0.7478392124176025,0.008747708983719349,-0.003937067463994026,-14.701044082641602,0.03,0.03,-0.03,584.08
1778788404.95930099,78144563,0,0.16,0.19,352.64,-0.010977070778608322,0.0077444459311664104,-0.6608007550239563,-0.6433354616165161,0.008998197503387928,-0.004007849842309952,-14.787993431091309,0.03,0.03,-0.03,584.09
1778788404.95930099,78144563,1,0.16,0.19,352.65,-0.01165553368628025,0.007948894053697586,-0.6597899794578552,-0.6458893418312073,0.008676121011376381,-0.0038792602717876434,-14.770572662353516,0.03,0.03,-0.03,584.08
1778788405.05926108,78244523,0,0.16,0.19,352.64,-0.011052035726606846,0.007494732737541199,-0.5623825192451477,-0.5429839491844177,0.008957592770457268,-0.004023733548820019,-14.847210884094238,0.03,0.03,-0.03,584.09
1778788405.05926108,78244523,1,0.17,0.19,352.65,-0.011669855564832687,0.007610049564391375,-0.5613662004470825,-0.5442275404930115,0.008778267540037632,-0.0040061078034341335,-14.829854965209961,0.03,0.03,-0.03,584.08
1778788405.15922093,78344483,0,0.17,0.2,352.64,-0.011099683120846748,0.00734922057017684,-0.46419820189476013,-0.4445912539958954,0.008893217891454697,-0.004056804347783327,-14.896495819091797,0.03,0.03,-0.03,584.09
1778788405.15922093,78344483,1,0.18,0.19,352.65,-0.0116237448528409,0.007548413705080748,-0.4633078873157501,-0.44504886865615845,0.008640749379992485,-0.003985065501183271,-14.879315376281738,0.03,0.03,-0.03,584.08
1778788405.26001406,78445276,0,0.17,0.19,352.64,-0.011226124130189419,0.007287061773240566,-0.36543524265289307,-0.3449965715408325,0.008838010020554066,-0.004124275408685207,-14.936277389526367,0.03,0.03,-0.03,584.09
1778788405.26001406,78445276,1,0.17,0.19,352.65,-0.011732987128198147,0.007399828638881445,-0.365406334400177,-0.34878095984458923,0.008698727004230022,-0.004137529991567135,-14.91901969909668,0.03,0.03,-0.03,584.08
1778788405.35997415,78545236,0,0.16,0.18,352.64,-0.011248143389821053,0.007044354919344187,-0.26764965057373047,-0.2474636733531952,0.008759710006415844,-0.004204797092825174,-14.965834617614746,0.03,0.03,-0.03,584.09
1778788405.35997415,78545236,1,0.16,0.18,352.65,-0.01177537813782692,0.007377310190349817,-0.2676796615123749,-0.251085102558136,0.00853310339152813,-0.004139903001487255,-14.948909759521484,0.03,0.03,-0.03,584.08
1778788405.45993400,78645196,0,0.15,0.18,352.64,-0.011282015591859818,0.00661749392747879,-0.17108607292175293,-0.1495058685541153,0.008507558144629002,-0.004383052699267864,-14.985363006591797,0.03,0.03,-0.03,584.09
1778788405.45993400,78645196,1,0.16,0.18,352.65,-0.011811700649559498,0.007066560443490744,-0.17037805914878845,-0.1528819352388382,0.008217951282858849,-0.004242798313498497,-14.969056129455566,0.03,0.03,-0.03,584.08
1778788405.55989408,78745156,0,0.16,0.17,352.64,-0.011292328126728535,0.006396161392331123,-0.08522095531225204,-0.06244520843029022,0.008097605779767036,-0.004596441984176636,-14.99560546875,0.03,0.03,-0.03,584.09
1778788405.55989408,78745156,1,0.17,0.17,352.65,-0.011880753561854362,0.006860261783003807,-0.08472180366516113,-0.06797521561384201,0.00777403125539422,-0.004406226333230734,-14.979785919189453,0.03,0.03,-0.03,584.08
1778788405.65985394,78845116,0,0.17,0.17,352.64,-0.011312857270240784,0.006320970132946968,-0.024668917059898376,-0.0011484114220365882,0.007645125966519117,-0.0048594423569738865,-14.998592376708984,0.03,0.03,-0.03,584.09
1778788405.65985394,78845116,1,0.18,0.17,352.65,-0.011924427933990955,0.006854059640318155,-0.024607179686427116,-0.006632971577346325,0.007305646315217018,-0.004631791263818741,-14.983323097229004,0.03,0.03,-0.03,584.08
1778788405.75981402,78945076,0,0.18,0.17,352.64,-0.01134736742824316,0.006499994080513716,0.014568586833775043,0.03740466386079788,0.007140659727156162,-0.005109098739922047,-14.9966402053833,0.03,0.03,-0.03,584.09
1778788405.75981402,78945076,1,0.18,0.17,352.65,-0.012031840160489082,0.006948208902031183,0.014392752200365067,0.03077324852347374,0.00679098442196846,-0.004855106584727764,-14.981951713562012,0.03,0.03,-0.03,584.08
1778788405.85977411,79045036,0,0.19,0.16,352.64,-0.01126231998205185,0.0067049176432192326,0.03729037567973137,0.06153068318963051,0.006747247651219368,-0.005514684598892927,-14.99124813079834,0.03,0.03,-0.03,584.09
1778788405.85977411,79045036,1,0.19,0.16,352.65,-0.01207629032433033,0.007286012638360262,0.0369691364467144,0.05566778406500816,0.006291513331234455,-0.005118797067552805,-14.977347373962402,0.03,0.03,-0.03,584.08
1778788405.95973396,79144996,0,0.19,0.16,352.64,-0.011211518198251724,0.007178500294685364,0.04695878177881241,0.07308164238929749,0.0062355282716453075,-0.0057098823599517345,-14.984319686889648,0.03,0.03,-0.03,584.09
1778788405.95973396,79144996,1,0.19,0.16,352.65,-0.012020805850625038,0.007822796702384949,0.04654184728860855,0.06696871668100357,0.005797638092190027,-0.005351791623979807,-14.971003532409668,0.03,0.03,-0.03,584.08
1778788406.05969405,79244956,0,0.19,0.15,352.64,-0.01103897113353014,0.007664189673960209,0.04783359169960022,0.07596603780984879,0.005808526184409857,-0.0059357560239732265,-14.976810455322266,0.03,0.03,-0.03,584.09
1778788406.05969405,79244956,1,0.19,0.15,352.65,-0.011899792589247227,0.00833043921738863,0.04736367613077164,0.07110501825809479,0.005374506115913391,-0.005591857247054577,-14.96393871307373,0.03,0.03,-0.03,584.08
1778788406.15965414,79344916,0,0.18,0.14,352.64,-0.01083557028323412,0.008051020093262196,0.04184647276997566,0.07071328163146973,0.005424399860203266,-0.006134918425232172,-14.969478607177734,0.03,0.03,-0.03,584.09
1778788406.15965414,79344916,1,0.19,0.14,352.65,-0.011671202257275581,0.00862899050116539,0.041466765105724335,0.06931989639997482,0.004979967139661312,-0.005790324881672859,-14.956960678100586,0.03,0.03,-0.03,584.08
1778788406.25961399,79444876,0,0.18,0.14,352.64,-0.010446554981172085,0.00845850259065628,0.032344989478588104,0.062213871628046036,0.005160871893167496,-0.006368893664330244,-14.962836265563965,0.03,0.03,-0.03,584.09
1778788406.25961399,79444876,1,0.19,0.14,352.65,-0.011275239288806915,0.00891716219484806,0.03190167620778084,0.06110971048474312,0.004695568699389696,-0.00602123886346817,-14.950613021850586,0.03,0.03,-0.03,584.08
1778788406.35957408,79544836,0,0.18,0.14,352.64,-0.01005309633910656,0.008763069286942482,0.021014217287302017,0.05101662129163742,0.004967065993696451,-0.006583990063518286,-14.957268714904785,0.03,0.03,-0.03,584.09
