timestamp,TimeUS,I,Alt,AltAMSL,Press,Temp,CRt,SMS,Offset,GndTemp,H,CPress
1778782185.06005621,68245191,0,0.00372314453125,584.0936889648438,94502.828125,30.57,0.0,68245,0.0,28.02182960510254,1,94502.828125
1778782185.06005621,68245191,1,-0.14910888671875,583.9408569335938,94503.296875,30.57,0.0,68245,0.0,28.02182960510254,1,94503.296875
1778782185.16001606,68345151,0,0.00372314453125,584.0936889648438,94502.828125,30.57,0.0,68345,0.0,28.02182960510254,1,94502.828125
1778782185.16001606,68345151,1,-0.17547607421875,583.9144897460938,94503.59375,30.57,0.0,68345,0.0,28.02182960510254,1,94503.59375
1778782185.25997615,68445111,0,0.00372314453125,584.0936889648438,94502.828125,30.57,0.0,68445,0.0,28.02182960510254,1,94502.828125
1778782185.25997615,68445111,1,-0.07830810546875,584.0116577148438,94502.4921875,30.57,0.0,68445,0.0,28.02182960510254,1,94502.4921875
1778782185.35993600,68545071,0,0.00372314453125,584.0936889648438,94502.828125,30.57,0.0,68545,0.0,28.02182960510254,1,94502.828125
1778782185.35993600,68545071,1,-0.04608154296875,584.0438842773438,94502.125,30.57,0.0,68545,0.0,28.02182960510254,1,94502.125
1778782185.45989609,68645031,0,0.00372314453125,584.0936889648438,94502.828125,30.57,0.0,68645,0.0,28.02182960510254,1,94502.828125
1778782185.45989609,68645031,1,0.03009033203125,584.1200561523438,94501.2578125,30.57,0.0,68645,0.0,28.02182960510254,1,94501.2578125
1778782185.55985618,68744991,0,0.00372314453125,584.0936889648438,94502.828125,30.58,0.0,68744,0.0,28.02182960510254,1,94502.828125
1778782185.55985618,68744991,1,0.05694580078125,584.1469116210938,94500.953125,30.58,0.0,68744,0.0,28.02182960510254,1,94500.953125
1778782185.65981603,68844951,0,0.00372314453125,584.0936889648438,94502.828125,30.58,0.0,68844,0.0,28.02182960510254,1,94502.828125
1778782185.65981603,68844951,1,-0.29315185546875,583.7968139648438,94504.921875,30.58,0.0,68844,0.0,28.02182960510254,1,94504.921875
1778782185.75977612,68944911,0,0.00372314453125,584.0936889648438,94502.828125,30.58,0.0,68944,0.0,28.02182960510254,1,94502.828125
1778782185.75977612,68944911,1,-0.22869873046875,583.8612670898438,94504.1953125,30.58,0.0,68944,0.0,28.02182960510254,1,94504.1953125
1778782185.85973620,69044871,0,0.00372314453125,584.0936889648438,94502.828125,30.58,0.0,69044,0.0,28.02182960510254,1,94502.828125
1778782185.85973620,69044871,1,-0.10809326171875,583.9818725585938,94502.828125,30.58,0.0,69044,0.0,28.02182960510254,1,94502.828125
1778782185.95969605,69144831,0,0.00372314453125,584.0936889648438,94502.828125,30.58,0.0,69144,0.0,28.02182960510254,1,94502.828125
1778782185.95969605,69144831,1,-0.11688232421875,583.9730834960938,94502.921875,30.58,0.0,69144,0.0,28.02182960510254,1,94502.921875
1778782186.05965614,69244791,0,0.00372314453125,584.0936889648438,94502.828125,30.59,0.0,69244,0.0,28.02182960510254,1,94502.828125
1778782186.05965614,69244791,1,0.00958251953125,584.0995483398438,94501.4921875,30.59,0.0,69244,0.0,28.02182960510254,1,94501.4921875
1778782186.15961599,69344751,0,0.00372314453125,584.0936889648438,94502.828125,30.59,0.0,69344,0.0,28.02182960510254,1,94502.828125
1778782186.15961599,69344751,1,-0.24334716796875,583.8466186523438,94504.359375,30.59,0.0,69344,0.0,28.02182960510254,1,94504.359375
1778782186.25957608,69444711,0,0.00372314453125,584.0936889648438,94502.828125,30.59,0.0,69444,0.0,28.02182960510254,1,94502.828125
1778782186.25957608,69444711,1,-0.25213623046875,583.8378295898438,94504.4609375,30.59,0.0,69444,0.0,28.02182960510254,1,94504.4609375
1778782186.35953617,69544671,0,0.00372314453125,584.0936889648438,94502.828125,30.59,0.0,69544,0.0,28.02182960510254,1,94502.828125
1778782186.35953617,69544671,1,-0.26971435546875,583.8202514648438,94504.65625,30.59,0.0,69544,0.0,28.02182960510254,1,94504.65625
1778782186.45949602,69644631,0,0.00372314453125,584.0936889648438,94502.828125,30.59,0.0,69644,0.0,28.02182960510254,1,94502.828125
1778782186.45949602,69644631,1,-0.23748779296875,583.8524780273438,94504.2890625,30.6,0.0,69644,0.0,28.02182960510254,1,94504.2890625
1778782186.55945611,69744591,0,0.00372314453125,584.0936889648438,94502.828125,30.6,0.0,69744,0.0,28.02182960510254,1,94502.828125
1778782186.55945611,69744591,1,-0.23748779296875,583.8524780273438,94504.2890625,30.6,0.0,69744,0.0,28.02182960510254,1,94504.2890625
1778782186.65941620,69844551,0,0.00372314453125,584.0936889648438,94502.828125,30.6,0.0,69844,0.0,28.02182960510254,1,94502.828125
1778782186.65941620,69844551,1,0.0540771484375,584.14404296875,94500.984375,30.6,0.0,69844,0.0,28.02182960510254,1,94500.984375
1778782186.75937605,69944511,0,0.00372314453125,584.0936889648438,94502.828125,30.6,0.0,69944,0.0,28.02182960510254,1,94502.828125
1778782186.75937605,69944511,1,0.02130126953125,584.1112670898438,94501.3515625,30.6,0.0,69944,0.0,28.02182960510254,1,94501.3515625
1778782186.85933614,70044471,0,0.00372314453125,584.0936889648438,94502.828125,30.6,0.0,70044,0.0,28.02182960510254,1,94502.828125
1778782186.85933614,70044471,1,-0.24334716796875,583.8466186523438,94504.359375,30.6,0.0,70044,0.0,28.02182960510254,1,94504.359375
1778782186.95929623,70144431,0,0.00372314453125,584.0936889648438,94502.828125,30.6,0.0,70144,0.0,28.02182960510254,1,94502.828125
1778782186.95929623,70144431,1,-0.06072998046875,584.0292358398438,94502.2890625,30.6,0.0,70144,0.0,28.02182960510254,1,94502.2890625
1778782187.05925608,70244391,0,0.00372314453125,584.0936889648438,94502.828125,30.61,0.0,70244,0.0,28.02182960510254,1,94502.828125
1778782187.05925608,70244391,1,-0.26971435546875,583.8202514648438,94504.65625,30.61,0.0,70244,0.0,28.02182960510254,1,94504.65625
1778782187.16004920,70345184,0,0.00372314453125,584.0936889648438,94502.828125,30.61,0.0,70345,0.0,28.02182960510254,1,94502.828125
1778782187.16004920,70345184,1,-0.11102294921875,583.9789428710938,94502.859375,30.61,0.0,70345,0.0,28.02182960510254,1,94502.859375
1778782187.26000905,70445144,0,0.00372314453125,584.0936889648438,94502.828125,30.61,0.0,70445,0.0,28.02182960510254,1,94502.828125
1778782187.26000905,70445144,1,-0.21942138671875,583.8705444335938,94504.0859375,30.61,0.0,70445,0.0,28.02182960510254,1,94504.0859375
1778782187.35996914,70545104,0,0.00372314453125,584.0936889648438,94502.828125,30.61,0.0,70545,0.0,28.02182960510254,1,94502.828125
1778782187.35996914,70545104,1,0.04473876953125,584.1347045898438,94501.09375,30.61,0.0,70545,0.0,28.02182960510254,1,94501.09375
1778782187.45992923,70645064,0,0.00372314453125,584.0936889648438,94502.828125,30.61,0.0,70645,0.0,28.02182960510254,1,94502.828125
1778782187.45992923,70645064,1,-0.06072998046875,584.0292358398438,94502.2890625,30.61,0.0,70645,0.0,28.02182960510254,1,94502.2890625
1778782187.55988908,70745024,0,0.00372314453125,584.0936889648438,94502.828125,30.62,0.0,70745,0.0,28.02182960510254,1,94502.828125
1778782187.55988908,70745024,1,-0.06951904296875,584.0204467773438,94502.390625,30.62,0.0,70745,0.0,28.02182960510254,1,94502.390625
1778782187.65984917,70844984,0,0.00372314453125,584.0936889648438,94502.828125,30.62,0.0,70844,0.0,28.02182960510254,1,94502.828125
1778782187.65984917,70844984,1,-0.24627685546875,583.8436889648438,94504.3984375,30.62,0.0,70844,0.0,28.02182960510254,1,94504.3984375
1778782187.75980902,70944944,0,0.00372314453125,584.0936889648438,94502.828125,30.62,0.0,70944,0.0,28.02182960510254,1,94502.828125
1778782187.75980902,70944944,1,-0.23748779296875,583.8524780273438,94504.2890625,30.62,0.0,70944,0.0,28.02182960510254,1,94504.2890625
1778782187.85976911,71044904,0,0.00372314453125,584.0936889648438,94502.828125,30.62,0.0,71044,0.0,28.02182960510254,1,94502.828125
1778782187.85976911,71044904,1,-0.19891357421875,583.8910522460938,94503.8515625,30.62,0.0,71044,0.0,28.02182960510254,1,94503.8515625
1778782187.95972919,71144864,0,0.00372314453125,584.0936889648438,94502.828125,30.62,0.0,71144,0.0,28.02182960510254,1,94502.828125
1778782187.95972919,71144864,1,-0.04901123046875,584.0409545898438,94502.1640625,30.62,0.0,71144,0.0,28.02182960510254,1,94502.1640625
1778782188.05968904,71244824,0,0.00372314453125,584.0936889648438,94502.828125,30.63,0.0,71244,0.0,28.02182960510254,1,94502.828125
1778782188.05968904,71244824,1,-0.18133544921875,583.9086303710938,94503.6640625,30.63,0.0,71244,0.0,28.02182960510254,1,94503.6640625
1778782188.15964913,71344784,0,0.00372314453125,584.0936889648438,94502.828125,30.63,0.0,71344,0.0,28.02182960510254,1,94502.828125
1778782188.15964913,71344784,1,-0.04901123046875,584.0409545898438,94502.1640625,30.63,0.0,71344,0.0,28.02182960510254,1,94502.1640625
1778782188.25960922,71444744,0,0.00372314453125,584.0936889648438,94502.828125,30.63,0.0,71444,0.0,28.02182960510254,1,94502.828125
1778782188.25960922,71444744,1,-0.26092529296875,583.8290405273438,94504.5625,30.63,0.0,71444,0.0,28.02182960510254,1,94504.5625
1778782188.35956907,71544704,0,0.00372314453125,584.0936889648438,94502.828125,30.63,0.0,71544,0.0,28.02182960510254,1,94502.828125
1778782188.35956907,71544704,1,0.0628662109375,584.15283203125,94500.890625,30.63,0.0,71544,0.0,28.02182960510254,1,94500.890625
1778782188.45952916,71644664,0,0.00372314453125,584.0936889648438,94502.828125,30.63,0.0,71644,0.0,28.02182960510254,1,94502.828125
1778782188.45952916,71644664,1,0.06866455078125,584.1586303710938,94500.828125,30.63,0.0,71644,0.0,28.02182960510254,1,94500.828125
1778782188.55948901,71744624,0,0.00372314453125,584.0936889648438,94502.828125,30.64,0.0,71744,0.0,28.02182960510254,1,94502.828125
1778782188.55948901,71744624,1,-0.11688232421875,583.9730834960938,94502.921875,30.64,0.0,71744,0.0,28.02182960510254,1,94502.921875
1778782188.65944910,71844584,0,0.00372314453125,584.0936889648438,94502.828125,30.64,0.0,71844,0.0,28.02182960510254,1,94502.828125
1778782188.65944910,71844584,1,-0.26678466796875,583.8231811523438,94504.625,30.64,0.0,71844,0.0,28.02182960510254,1,94504.625
1778782188.75940919,71944544,0,0.00372314453125,584.0936889648438,94502.828125,30.64,0.0,71944,0.0,28.02182960510254,1,94502.828125
1778782188.75940919,71944544,1,0.06866455078125,584.1586303710938,94500.828125,30.64,0.0,71944,0.0,28.02182960510254,1,94500.828125
1778782188.85936904,72044504,0,0.00372314453125,584.0936889648438,94502.828125,30.64,0.0,72044,0.0,28.02182960510254,1,94502.828125
1778782188.85936904,72044504,1,-0.11102294921875,583.9789428710938,94502.859375,30.64,0.0,72044,0.0,28.02182960510254,1,94502.859375
1778782188.95932913,72144464,0,0.00372314453125,584.0936889648438,94502.828125,30.64,0.0,72144,0.0,28.02182960510254,1,94502.828125
1778782188.95932913,72144464,1,-0.28143310546875,583.8085327148438,94504.796875,30.64,0.0,72144,0.0,28.02182960510254,1,94504.796875
1778782189.05928922,72244424,0,0.00372314453125,584.0936889648438,94502.828125,30.65,0.0,72244,0.0,28.02182960510254,1,94502.828125
1778782189.05928922,72244424,1,-0.11688232421875,583.9730834960938,94502.921875,30.65,0.0,72244,0.0,28.02182960510254,1,94502.921875
1778782189.15924907,72344384,0,0.00372314453125,584.0936889648438,94502.828125,30.65,0.0,72344,0.0,28.02182960510254,1,94502.828125
1778782189.15924907,72344384,1,-0.10809326171875,583.9818725585938,94502.828125,30.65,0.0,72344,0.0,28.02182960510254,1,94502.828125
1778782189.26004219,72445177,0,0.00372314453125,584.0936889648438,94502.828125,30.65,0.0,72445,0.0,28.02182960510254,1,94502.828125
1778782189.26004219,72445177,1,-0.19891357421875,583.8910522460938,94503.8515625,30.65,0.0,72445,0.0,28.02182960510254,1,94503.8515625
1778782189.36000204,72545137,0,0.00372314453125,584.0936889648438,94502.828125,30.65,0.0,72545,0.0,28.02182960510254,1,94502.828125
1778782189.36000204,72545137,1,-0.07830810546875,584.0116577148438,94502.4921875,30.65,0.0,72545,0.0,28.02182960510254,1,94502.4921875
1778782189.45996213,72645097,0,0.00372314453125,584.0936889648438,94502.828125,30.65,0.0,72645,0.0,28.02182960510254,1,94502.828125
1778782189.45996213,72645097,1,-0.12567138671875,583.9642944335938,94503.03125,30.65,0.0,72645,0.0,28.02182960510254,1,94503.03125
1778782189.55992222,72745057,0,0.00372314453125,584.0936889648438,94502.828125,30.65,0.0,72745,0.0,28.02182960510254,1,94502.828125
1778782189.55992222,72745057,1,-0.07830810546875,584.0116577148438,94502.4921875,30.65,0.0,72745,0.0,28.02182960510254,1,94502.4921875
1778782189.65988207,72845017,0,0.00372314453125,584.0936889648438,94502.828125,30.66,0.0,72845,0.0,28.02182960510254,1,94502.828125
1778782189.65988207,72845017,1,-0.06072998046875,584.0292358398438,94502.2890625,30.66,0.0,72845,0.0,28.02182960510254,1,94502.2890625
1778782189.75984216,72944977,0,0.00372314453125,584.0936889648438,94502.828125,30.66,0.0,72944,0.0,28.02182960510254,1,94502.828125
1778782189.75984216,72944977,1,-0.29315185546875,583.7968139648438,94504.921875,30.66,0.0,72944,0.0,28.02182960510254,1,94504.921875
1778782189.85980201,73044937,0,0.00372314453125,584.0936889648438,94502.828125,30.66,0.0,73044,0.0,28.02182960510254,1,94502.828125
1778782189.85980201,73044937,1,-0.23748779296875,583.8524780273438,94504.2890625,30.66,0.0,73044,0.0,28.02182960510254,1,94504.2890625
1778782189.95976210,73144897,0,0.00372314453125,584.0936889648438,94502.828125,30.66,0.0,73144,0.0,28.02182960510254,1,94502.828125
1778782189.95976210,73144897,1,-0.12567138671875,583.9642944335938,94503.03125,30.66,0.0,73144,0.0,28.02182960510254,1,94503.03125
1778782190.05972219,73244857,0,0.00372314453125,584.0936889648438,94502.828125,30.66,0.0,73244,0.0,28.02182960510254,1,94502.828125
1778782190.05972219,73244857,1,-0.06072998046875,584.0292358398438,94502.2890625,30.66,0.0,73244,0.0,28.02182960510254,1,94502.2890625
1778782190.15968204,73344817,0,0.00372314453125,584.0936889648438,94502.828125,30.67,0.0,73344,0.0,28.02182960510254,1,94502.828125
1778782190.15968204,73344817,1,-0.13446044921875,583.9555053710938,94503.125,30.67,0.0,73344,0.0,28.02182960510254,1,94503.125
1778782190.25964212,73444777,0,0.00372314453125,584.0936889648438,94502.828125,30.67,0.0,73444,0.0,28.02182960510254,1,94502.828125
1778782190.25964212,73444777,1,-0.13446044921875,583.9555053710938,94503.125,30.67,0.0,73444,0.0,28.02182960510254,1,94503.125
1778782190.35960221,73544737,0,0.00372314453125,584.0936889648438,94502.828125,30.67,0.0,73544,0.0,28.02182960510254,1,94502.828125
1778782190.35960221,73544737,1,-0.07830810546875,584.0116577148438,94502.4921875,30.67,0.0,73544,0.0,28.02182960510254,1,94502.4921875
1778782190.45956206,73644697,0,0.00372314453125,584.0936889648438,94502.828125,30.67,0.0,73644,0.0,28.02182960510254,1,94502.828125
1778782190.45956206,73644697,1,-0.05487060546875,584.0350952148438,94502.2265625,30.67,0.0,73644,0.0,28.02182960510254,1,94502.2265625
1778782190.55952215,73744657,0,0.00372314453125,584.0936889648438,94502.828125,30.67,0.0,73744,0.0,28.02182960510254,1,94502.828125
1778782190.55952215,73744657,1,-0.03729248046875,584.0526733398438,94502.0234375,30.67,0.0,73744,0.0,28.02182960510254,1,94502.0234375
1778782190.65948200,73844617,0,0.00372314453125,584.0936889648438,94502.828125,30.67,0.0,73844,0.0,28.02182960510254,1,94502.828125
1778782190.65948200,73844617,1,0.02423095703125,584.1141967773438,94501.3203125,30.67,0.0,73844,0.0,28.02182960510254,1,94501.3203125
1778782190.75944209,73944577,0,0.00372314453125,584.0936889648438,94502.828125,30.68,0.0,73944,0.0,28.02182960510254,1,94502.828125
1778782190.75944209,73944577,1,0.07745361328125,584.1674194335938,94500.71875,30.68,0.0,73944,0.0,28.02182960510254,1,94500.71875
1778782190.85940218,74044537,0,0.00372314453125,584.0936889648438,94502.828125,30.68,0.0,74044,0.0,28.02182960510254,1,94502.828125
1778782190.85940218,74044537,1,-0.00213623046875,584.0878295898438,94501.6171875,30.68,0.0,74044,0.0,28.02182960510254,1,94501.6171875
1778782190.95936203,74144497,0,0.00372314453125,584.0936889648438,94502.828125,30.68,0.0,74144,0.0,28.02182960510254,1,94502.828125
1778782190.95936203,74144497,1,-0.02557373046875,584.0643920898438,94501.8828125,30.68,0.0,74144,0.0,28.02182960510254,1,94501.8828125
1778782191.05932212,74244457,0,0.01544189453125,584.1054077148438,94502.6875,30.68,0.003662109375,74244,0.0,28.02182960510254,1,94502.6875
1778782191.05932212,74244457,1,0.09503173828125,584.1849975585938,94500.515625,30.68,0.003662109375,74244,0.0,28.02182960510254,1,94500.515625
1778782191.15928221,74344417,0,0.01544189453125,584.1054077148438,94502.6875,30.68,0.01831054501235485,74344,0.0,28.02182960510254,1,94502.6875
1778782191.15928221,74344417,1,-0.09637451171875,583.9935913085938,94502.6875,30.68,0.01831054501235485,74344,0.0,28.02182960510254,1,94502.6875
1778782191.25924206,74444377,0,0.02423095703125,584.1141967773438,94502.59375,30.68,0.0393676795065403,74444,0.0,28.02182960510254,1,94502.59375
1778782191.25924206,74444377,1,0.03302001953125,584.1229858398438,94501.21875,30.68,0.0393676795065403,74444,0.0,28.02182960510254,1,94501.21875
1778782191.36003518,74545170,0,0.03350830078125,584.1234741210938,94502.4921875,30.69,0.053237687796354294,74545,0.0,28.02182960510254,1,94502.4921875
1778782191.36003518,74545170,1,-0.13446044921875,583.9555053710938,94503.125,30.69,0.053237687796354294,74545,0.0,28.02182960510254,1,94503.125
1778782191.45999503,74645130,0,0.06573486328125,584.1557006835938,94502.125,30.69,0.07021792232990265,74645,0.0,28.02182960510254,1,94502.125
1778782191.45999503,74645130,1,0.10089111328125,584.1908569335938,94500.453125,30.69,0.07021792232990265,74645,0.0,28.02182960510254,1,94500.453125
1778782191.55995512,74745090,0,0.08624267578125,584.1762084960938,94501.8828125,30.69,0.11654219776391983,74745,0.0,28.02182960510254,1,94501.8828125
1778782191.55995512,74745090,1,-0.10809326171875,583.9818725585938,94502.828125,30.69,0.11654219776391983,74745,0.0,28.02182960510254,1,94502.828125
1778782191.65991521,74845050,0,0.11846923828125,584.2084350585938,94501.5234375,30.69,0.18494996428489685,74845,0.0,28.02182960510254,1,94501.5234375
1778782191.65991521,74845050,1,0.1097412109375,584.19970703125,94500.3515625,30.69,0.18494996428489685,74845,0.0,28.02182960510254,1,94500.3515625
1778782191.75987506,74945010,0,0.1658935546875,584.255859375,94500.984375,30.69,0.2468394786119461,74945,0.0,28.02182960510254,1,94500.984375
1778782191.75987506,74945010,1,0.18011474609375,584.2700805664062,94499.5546875,30.69,0.2468394786119461,74945,0.0,28.02182960510254,1,94499.5546875
1778782191.85983515,75044970,0,0.2537841796875,584.34375,94499.9921875,30.69,0.3196144104003906,75044,0.0,28.02182960510254,1,94499.9921875
1778782191.85983515,75044970,1,0.09210205078125,584.1820678710938,94500.546875,30.69,0.3196144104003906,75044,0.0,28.02182960510254,1,94500.546875
1778782191.95979500,75144930,0,0.3773193359375,584.46728515625,94498.578125,30.69,0.46772560477256775,75144,0.0,28.02182960510254,1,94498.578125
1778782191.95979500,75144930,1,0.1478271484375,584.23779296875,94499.9140625,30.7,0.46772560477256775,75144,0.0,28.02182960510254,1,94499.9140625
1778782192.05975509,75244890,0,0.4949951171875,584.5849609375,94497.2421875,30.7,0.7116175889968872,75244,0.0,28.02182960510254,1,94497.2421875
1778782192.05975509,75244890,1,0.46575927734375,584.5557250976562,94496.3125,30.7,0.7116175889968872,75244,0.0,28.02182960510254,1,94496.3125
1778782192.15971518,75344850,0,0.61566162109375,584.7056274414062,94495.8828125,30.7,0.9695694446563721,75344,0.0,28.02182960510254,1,94495.8828125
1778782192.15971518,75344850,1,0.42718505859375,584.5171508789062,94496.75,30.7,0.9695694446563721,75344,0.0,28.02182960510254,1,94496.75
1778782192.25967503,75444810,0,0.7392578125,584.8292236328125,94494.484375,30.7,1.1348315477371216,75444,0.0,28.02182960510254,1,94494.484375
1778782192.25967503,75444810,1,0.58929443359375,584.6792602539062,94494.9140625,30.7,1.1348315477371216,75444,0.0,28.02182960510254,1,94494.9140625
1778782192.35963511,75544770,0,0.84521484375,584.9351806640625,94493.2734375,30.7,1.191894292831421,75544,0.0,28.02182960510254,1,94493.2734375
1778782192.35963511,75544770,1,0.7861328125,584.8760986328125,94492.6796875,30.7,1.191894292831421,75544,0.0,28.02182960510254,1,94492.6796875
1778782192.45959520,75644730,0,0.9775390625,585.0675048828125,94491.7734375,30.7,1.1927032470703125,75644,0.0,28.02182960510254,1,94491.7734375
1778782192.45959520,75644730,1,0.8564453125,584.9464111328125,94491.875,30.7,1.1927032470703125,75644,0.0,28.02182960510254,1,94491.875
1778782192.55955505,75744690,0,1.11279296875,585.2027587890625,94490.234375,30.7,1.1916923522949219,75744,0.0,28.02182960510254,1,94490.234375
1778782192.55955505,75744690,1,0.841796875,584.9317626953125,94492.046875,30.7,1.1916923522949219,75744,0.0,28.02182960510254,1,94492.046875
1778782192.65951514,75844650,0,1.25396728515625,585.3439331054688,94488.6328125,30.7,1.2309074401855469,75844,0.0,28.02182960510254,1,94488.6328125
1778782192.65951514,75844650,1,1.13922119140625,585.2291870117188,94488.6640625,30.7,1.2309074401855469,75844,0.0,28.02182960510254,1,94488.6640625
1778782192.75947523,75944610,0,1.4127197265625,585.502685546875,94486.8359375,30.7,1.3105583190917969,75944,0.0,28.02182960510254,1,94486.8359375
1778782192.75947523,75944610,1,1.4537353515625,585.543701171875,94485.1015625,30.7,1.3105583190917969,75944,0.0,28.02182960510254,1,94485.1015625
1778782192.85943508,76044570,0,1.5743408203125,585.664306640625,94485.0,30.7,1.4022636413574219,76044,0.0,28.02182960510254,1,94485.0
1778782192.85943508,76044570,1,1.5123291015625,585.602294921875,94484.4296875,30.7,1.4022636413574219,76044,0.0,28.02182960510254,1,94484.4296875
1778782192.95939517,76144530,0,1.75653076171875,585.8464965820312,94482.9296875,30.7,1.4994239807128906,76144,0.0,28.02182960510254,1,94482.9296875
1778782192.95939517,76144530,1,1.76239013671875,585.8523559570312,94481.59375,30.7,1.4994239807128906,76144,0.0,28.02182960510254,1,94481.59375
1778782193.05935502,76244490,0,1.94500732421875,586.0349731445312,94480.7890625,30.7,1.6075897216796875,76244,0.0,28.02182960510254,1,94480.7890625
1778782193.05935502,76244490,1,1.99774169921875,586.0877075195312,94478.921875,30.7,1.6075897216796875,76244,0.0,28.02182960510254,1,94478.921875
1778782193.15931511,76344450,0,2.13592529296875,586.2258911132812,94478.625,30.7,1.7207337617874146,76344,0.0,28.02182960510254,1,94478.625
1778782193.15931511,76344450,1,1.89764404296875,585.9876098632812,94480.0546875,30.7,1.7207337617874146,76344,0.0,28.02182960510254,1,94480.0546875
1778782193.25927520,76444410,0,2.344970703125,586.4349365234375,94476.2578125,30.7,1.8241119384765625,76444,0.0,28.02182960510254,1,94476.2578125
1778782193.25927520,76444410,1,2.05926513671875,586.1492309570312,94478.2265625,30.71,1.8241119384765625,76444,0.0,28.02182960510254,1,94478.2265625
1778782193.35923505,76544370,0,2.56524658203125,586.6552124023438,94473.7578125,30.7,1.9162559509277344,76544,0.0,28.02182960510254,1,94473.7578125
1778782193.35923505,76544370,1,2.280029296875,586.3699951171875,94475.7109375,30.71,1.9162559509277344,76544,0.0,28.02182960510254,1,94475.7109375
1778782193.46002817,76645163,0,2.7947998046875,586.884765625,94471.1484375,30.7,2.016596555709839,76645,0.0,28.02182960510254,1,94471.1484375
1778782193.46002817,76645163,1,2.6829833984375,586.77294921875,94471.1484375,30.7,2.016596555709839,76645,0.0,28.02182960510254,1,94471.1484375
1778782193.55998802,76745123,0,3.02435302734375,587.1143188476562,94468.546875,30.71,2.125941514968872,76745,0.0,28.02182960510254,1,94468.546875
1778782193.55998802,76745123,1,2.9095458984375,586.99951171875,94468.578125,30.71,2.125941514968872,76745,0.0,28.02182960510254,1,94468.578125
1778782193.65994811,76845083,0,3.27435302734375,587.3643188476562,94465.703125,30.71,2.221855878829956,76845,0.0,28.02182960510254,1,94465.703125
1778782193.65994811,76845083,1,3.0120849609375,587.10205078125,94467.4140625,30.71,2.221855878829956,76845,0.0,28.02182960510254,1,94467.4140625
1778782193.75990820,76945043,0,3.52685546875,587.6168212890625,94462.8359375,30.71,2.306558132171631,76945,0.0,28.02182960510254,1,94462.8359375
1778782193.75990820,76945043,1,3.3125,587.4024658203125,94464.0,30.71,2.306558132171631,76945,0.0,28.02182960510254,1,94464.0
1778782193.85986805,77045003,0,3.77691650390625,587.8668823242188,94460.0,30.71,2.3950538635253906,77045,0.0,28.02182960510254,1,94460.0
1778782193.85986805,77045003,1,3.75347900390625,587.8434448242188,94459.0,30.7,2.3950538635253906,77045,0.0,28.02182960510254,1,94459.0
1778782193.95982814,77144963,0,4.0240478515625,588.114013671875,94457.203125,30.71,2.4686813354492188,77144,0.0,28.02182960510254,1,94457.203125
1778782193.95982814,77144963,1,3.79156494140625,587.8815307617188,94458.5703125,30.71,2.4686813354492188,77144,0.0,28.02182960510254,1,94458.5703125
1778782194.05978823,77244923,0,4.2886962890625,588.378662109375,94454.1953125,30.71,2.5056276321411133,77244,0.0,28.02182960510254,1,94454.1953125
1778782194.05978823,77244923,1,4.1768798828125,588.266845703125,94454.1953125,30.71,2.5056276321411133,77244,0.0,28.02182960510254,1,94454.1953125
1778782194.15974808,77344883,0,4.53582763671875,588.6257934570312,94451.390625,30.71,2.524998188018799,77344,0.0,28.02182960510254,1,94451.390625
1778782194.15974808,77344883,1,4.3267822265625,588.416748046875,94452.4921875,30.71,2.524998188018799,77344,0.0,28.02182960510254,1,94452.4921875
1778782194.25970817,77444843,0,4.785888671875,588.8758544921875,94448.5625,30.71,2.541193962097168,77444,0.0,28.02182960510254,1,94448.5625
1778782194.25970817,77444843,1,4.48553466796875,588.5755004882812,94450.6875,30.71,2.541193962097168,77444,0.0,28.02182960510254,1,94450.6875
1778782194.35966802,77544803,0,5.03594970703125,589.1259155273438,94445.71875,30.71,2.5364110469818115,77544,0.0,28.02182960510254,1,94445.71875
1778782194.35966802,77544803,1,5.106201171875,589.1961669921875,94443.6484375,30.7,2.5364110469818115,77544,0.0,28.02182960510254,1,94443.6484375
1778782194.45962811,77644763,0,5.2830810546875,589.373046875,94442.9140625,30.71,2.513202667236328,77644,0.0,28.02182960510254,1,94442.9140625
1778782194.45962811,77644763,1,5.00616455078125,589.0961303710938,94444.78125,30.71,2.513202667236328,77644,0.0,28.02182960510254,1,94444.78125
1778782194.55958819,77744723,0,5.5355224609375,589.62548828125,94440.046875,30.71,2.4967575073242188,77744,0.0,28.02182960510254,1,94440.046875
1778782194.55958819,77744723,1,5.3328857421875,589.4228515625,94441.0859375,30.71,2.4967575073242188,77744,0.0,28.02182960510254,1,94441.0859375
1778782194.65954804,77844683,0,5.78558349609375,589.8755493164062,94437.203125,30.71,2.4942588806152344,77844,0.0,28.02182960510254,1,94437.203125
1778782194.65954804,77844683,1,5.5560302734375,589.64599609375,94438.5390625,30.71,2.4942588806152344,77844,0.0,28.02182960510254,1,94438.5390625
1778782194.75950813,77944643,0,6.03564453125,590.1256103515625,94434.375,30.71,2.4988934993743896,77944,0.0,28.02182960510254,1,94434.375
1778782194.75950813,77944643,1,6.02685546875,590.1168212890625,94433.203125,30.71,2.4988934993743896,77944,0.0,28.02182960510254,1,94433.203125
1778782194.85946822,78044603,0,6.28857421875,590.3785400390625,94431.5078125,30.71,2.5043675899505615,78044,0.0,28.02182960510254,1,94431.5078125
1778782194.85946822,78044603,1,6.33258056640625,590.4225463867188,94429.7421875,30.7,2.5043675899505615,78044,0.0,28.02182960510254,1,94429.7421875
1778782194.95942807,78144563,0,6.52398681640625,590.6139526367188,94428.8359375,30.71,2.503319025039673,78144,0.0,28.02182960510254,1,94428.8359375
1778782194.95942807,78144563,1,6.55621337890625,590.6461791992188,94427.1953125,30.71,2.503319025039673,78144,0.0,28.02182960510254,1,94427.1953125
1778782195.05938816,78244523,0,6.7769775390625,590.866943359375,94425.96875,30.71,2.4883460998535156,78244,0.0,28.02182960510254,1,94425.96875
1778782195.05938816,78244523,1,6.6119384765625,590.701904296875,94426.5625,30.71,2.4883460998535156,78244,0.0,28.02182960510254,1,94426.5625
1778782195.15934801,78344483,0,7.0147705078125,591.104736328125,94423.265625,30.71,2.4645423889160156,78344,0.0,28.02182960510254,1,94423.265625
1778782195.15934801,78344483,1,6.8853759765625,590.975341796875,94423.4609375,30.71,2.4645423889160156,78344,0.0,28.02182960510254,1,94423.4609375
1778782195.25930810,78444443,0,7.26483154296875,591.3547973632812,94420.4296875,30.71,2.4493026733398438,78444,0.0,28.02182960510254,1,94420.4296875
1778782195.25930810,78444443,1,6.97381591796875,591.0637817382812,94422.4609375,30.71,2.4493026733398438,78444,0.0,28.02182960510254,1,94422.4609375
1778782195.35926819,78544403,0,7.503173828125,591.5931396484375,94417.7265625,30.71,2.4457740783691406,78544,0.0,28.02182960510254,1,94417.7265625
1778782195.35926819,78544403,1,7.350341796875,591.4403076171875,94418.1953125,30.71,2.4457740783691406,78544,0.0,28.02182960510254,1,94418.1953125
1778782195.45922804,78644363,0,7.75323486328125,591.8432006835938,94414.890625,30.71,2.4439620971679688,78644,0.0,28.02182960510254,1,94414.890625
1778782195.45922804,78644363,1,7.538330078125,591.6282958984375,94416.0546875,30.71,2.4439620971679688,78644,0.0,28.02182960510254,1,94416.0546875
1778782195.56002116,78745156,0,7.99737548828125,592.0873413085938,94412.125,30.71,2.443119764328003,78745,0.0,28.02182960510254,1,94412.125
1778782195.56002116,78745156,1,7.82940673828125,591.9193725585938,94412.75,30.71,2.443119764328003,78745,0.0,28.02182960510254,1,94412.75
1778782195.65998101,78845116,0,8.24700927734375,592.3369750976562,94409.2890625,30.71,2.446943998336792,78845,0.0,28.02182960510254,1,94409.2890625
1778782195.65998101,78845116,1,8.05889892578125,592.1488647460938,94410.15625,30.71,2.446943998336792,78845,0.0,28.02182960510254,1,94410.15625
1778782195.75994110,78945076,0,8.48529052734375,592.5752563476562,94406.5859375,30.71,2.451781749725342,78945,0.0,28.02182960510254,1,94406.5859375
1778782195.75994110,78945076,1,8.52337646484375,592.6133422851562,94404.8828125,30.71,2.451781749725342,78945,0.0,28.02182960510254,1,94404.8828125
1778782195.85990119,79045036,0,8.7353515625,592.8253173828125,94403.75,30.71,2.4510412216186523,79045,0.0,28.02182960510254,1,94403.75
1778782195.85990119,79045036,1,8.7177734375,592.8077392578125,94402.6796875,30.71,2.4510412216186523,79045,0.0,28.02182960510254,1,94402.6796875
1778782195.95986104,79144996,0,8.982421875,593.0723876953125,94400.9453125,30.71,2.449216604232788,79144,0.0,28.02182960510254,1,94400.9453125
1778782195.95986104,79144996,1,9.0,593.0899658203125,94399.484375,30.71,2.449216604232788,79144,0.0,28.02182960510254,1,94399.484375
1778782196.05982113,79244956,0,9.2266845703125,593.316650390625,94398.1796875,30.71,2.4578819274902344,79244,0.0,28.02182960510254,1,94398.1796875
1778782196.05982113,79244956,1,8.96484375,593.0548095703125,94399.8828125,30.71,2.4578819274902344,79244,0.0,28.02182960510254,1,94399.8828125
1778782196.15978122,79344916,0,9.4766845703125,593.566650390625,94395.3359375,30.71,2.4713902473449707,79344,0.0,28.02182960510254,1,94395.3359375
1778782196.15978122,79344916,1,9.4913330078125,593.581298828125,94393.90625,30.71,2.4713902473449707,79344,0.0,28.02182960510254,1,94393.90625
1778782196.25974107,79444876,0,9.7174072265625,593.807373046875,94392.609375,30.71,2.4741804599761963,79444,0.0,28.02182960510254,1,94392.609375
1778782196.25974107,79444876,1,9.4351806640625,593.525146484375,94394.546875,30.71,2.4741804599761963,79444,0.0,28.02182960510254,1,94394.546875
1778782196.35970116,79544836,0,9.964599609375,594.0545654296875,94389.8125,30.71,2.4659876823425293,79544,0.0,28.02182960510254,1,94389.8125
1778782196.35970116,79544836,1,9.71160888671875,593.8015747070312,94391.4140625,30.71,2.4659876823425293,79544,0.0,28.02182960510254,1,94391.4140625
1778782196.45966101,79644796,0,10.214599609375,594.3045654296875,94386.9765625,30.71,2.4575130939483643,79644,0.0,28.02182960510254,1,94386.9765625
1778782196.45966101,79644796,1,10.11163330078125,594.2015991210938,94386.8671875,30.71,2.4575130939483643,79644,0.0,28.02182960510254,1,94386.8671875
1778782196.55962110,79744756,0,10.46759033203125,594.5575561523438,94384.1015625,30.71,2.461376190185547,79744,0.0,28.02182960510254,1,94384.1015625
1778782196.55962110,79744756,1,10.31768798828125,594.4076538085938,94384.5390625,30.71,2.461376190185547,79744,0.0,28.02182960510254,1,94384.5390625
1778782196.65958118,79844716,0,10.70587158203125,594.7958374023438,94381.3984375,30.71,2.477741003036499,79844,0.0,28.02182960510254,1,94381.3984375
1778782196.65958118,79844716,1,10.6234130859375,594.71337890625,94381.0703125,30.71,2.477741003036499,79844,0.0,28.02182960510254,1,94381.0703125
1778782196.75954103,79944676,0,10.95599365234375,595.0459594726562,94378.5625,30.71,2.4837875366210938,79944,0.0,28.02182960510254,1,94378.5625
1778782196.75954103,79944676,1,10.7410888671875,594.8310546875,94379.7421875,30.71,2.4837875366210938,79944,0.0,28.02182960510254,1,94379.7421875
1778782196.85950112,80044636,0,11.20550537109375,595.2954711914062,94375.734375,30.71,2.4718856811523438,80044,0.0,28.02182960510254,1,94375.734375
1778782196.85950112,80044636,1,11.04095458984375,595.1309204101562,94376.328125,30.71,2.4718856811523438,80044,0.0,28.02182960510254,1,94376.328125
1778782196.95946121,80144596,0,11.44384765625,595.5338134765625,94373.03125,30.71,2.4640274047851562,80144,0.0,28.02182960510254,1,94373.03125
1778782196.95946121,80144596,1,11.2763671875,595.3663330078125,94373.671875,30.71,2.4640274047851562,80144,0.0,28.02182960510254,1,94373.671875
1778782197.05942106,80244556,0,11.69683837890625,595.7868041992188,94370.1640625,30.71,2.4641990661621094,80244,0.0,28.02182960510254,1,94370.1640625
1778782197.05942106,80244556,1,11.39990234375,595.4898681640625,94372.265625,30.71,2.4641990661621094,80244,0.0,28.02182960510254,1,94372.265625
1778782197.15938115,80344516,0,11.94683837890625,596.0368041992188,94367.328125,30.71,2.463245391845703,80344,0.0,28.02182960510254,1,94367.328125
1778782197.15938115,80344516,1,11.83502197265625,595.9249877929688,94367.328125,30.71,2.463245391845703,80344,0.0,28.02182960510254,1,94367.328125
1778782197.25934100,80444476,0,12.1968994140625,596.286865234375,94364.5,30.71,2.472209930419922,80444,0.0,28.02182960510254,1,94364.5
1778782197.25934100,80444476,1,12.11151123046875,596.2014770507812,94364.1953125,30.71,2.472209930419922,80444,0.0,28.02182960510254,1,94364.1953125
1778782197.35930109,80544436,0,12.44403076171875,596.5339965820312,94361.6953125,30.71,2.4901773929595947,80544,0.0,28.02182960510254,1,94361.6953125
1778782197.35930109,80544436,1,12.34100341796875,596.4309692382812,94361.59375,30.71,2.4901773929595947,80544,0.0,28.02182960510254,1,94361.59375
1778782197.45926118,80644396,0,12.684814453125,596.7747802734375,94358.9609375,30.71,2.4938583374023438,80644,0.0,28.02182960510254,1,94358.9609375
1778782197.45926118,80644396,1,12.684814453125,596.7747802734375,94357.6875,30.7,2.4938583374023438,80644,0.0,28.02182960510254,1,94357.6875
1778782197.56005406,80745189,0,12.937744140625,597.0277099609375,94356.0859375,30.7,2.4778990745544434,80745,0.0,28.02182960510254,1,94356.0859375
1778782197.56005406,80745189,1,12.834716796875,596.9246826171875,94355.9921875,30.7,2.4778990745544434,80745,0.0,28.02182960510254,1,94355.9921875
1778782197.66001415,80845149,0,13.18780517578125,597.2777709960938,94353.265625,30.7,2.4630625247955322,80845,0.0,28.02182960510254,1,94353.265625
1778782197.66001415,80845149,1,13.2586669921875,597.3486328125,94351.1953125,30.7,2.4630625247955322,80845,0.0,28.02182960510254,1,94351.1953125
1778782197.75997400,80945109,0,13.4349365234375,597.52490234375,94350.453125,30.7,2.4673893451690674,80945,0.0,28.02182960510254,1,94350.453125
1778782197.75997400,80945109,1,13.1497802734375,597.23974609375,94352.421875,30.71,2.4673893451690674,80945,0.0,28.02182960510254,1,94352.421875
1778782197.85993409,81045069,0,13.68499755859375,597.7749633789062,94347.625,30.7,2.4818131923675537,81045,0.0,28.02182960510254,1,94347.625
1778782197.85993409,81045069,1,13.62884521484375,597.7188110351562,94346.9921875,30.7,2.4818131923675537,81045,0.0,28.02182960510254,1,94346.9921875
1778782197.95989418,81145029,0,13.93212890625,598.0220947265625,94344.8203125,30.7,2.4882309436798096,81145,0.0,28.02182960510254,1,94344.8203125
1778782197.95989418,81145029,1,13.74072265625,597.8306884765625,94345.71875,30.7,2.4882309436798096,81145,0.0,28.02182960510254,1,94345.71875
1778782198.05985403,81244989,0,14.18798828125,598.2779541015625,94341.921875,30.7,2.4895858764648438,81244,0.0,28.02182960510254,1,94341.921875
1778782198.05985403,81244989,1,14.03173828125,598.1217041015625,94342.4296875,30.7,2.4895858764648438,81244,0.0,28.02182960510254,1,94342.4296875
1778782198.15981412,81344949,0,14.43463134765625,598.5245971679688,94339.125,30.7,2.498783588409424,81344,0.0,28.02182960510254,1,94339.125
1778782198.15981412,81344949,1,14.13189697265625,598.2218627929688,94341.296875,30.71,2.498783588409424,81344,0.0,28.02182960510254,1,94341.296875
1778782198.25977421,81444909,0,14.6846923828125,598.774658203125,94336.28125,30.7,2.511180877685547,81444,0.0,28.02182960510254,1,94336.28125
1778782198.25977421,81444909,1,14.40826416015625,598.4982299804688,94338.15625,30.7,2.511180877685547,81444,0.0,28.02182960510254,1,94338.15625
1778782198.35973406,81544869,0,14.93475341796875,599.0247192382812,94333.453125,30.7,2.51133131980896,81544,0.0,28.02182960510254,1,94333.453125
1778782198.35973406,81544869,1,14.98455810546875,599.0745239257812,94331.625,30.7,2.51133131980896,81544,0.0,28.02182960510254,1,94331.625
1778782198.45969415,81644829,0,15.18768310546875,599.2776489257812,94330.5859375,30.7,2.502894878387451,81644,0.0,28.02182960510254,1,94330.5859375
1778782198.45969415,81644829,1,15.149658203125,599.2396240234375,94329.7578125,30.7,2.502894878387451,81644,0.0,28.02182960510254,1,94329.7578125
1778782198.55965400,81744789,0,15.434814453125,599.5247802734375,94327.7890625,30.7,2.501432418823242,81744,0.0,28.02182960510254,1,94327.7890625
1778782198.55965400,81744789,1,15.275634765625,599.3656005859375,94328.3203125,30.7,2.501432418823242,81744,0.0,28.02182960510254,1,94328.3203125
1778782198.65961409,81844749,0,15.68487548828125,599.7748413085938,94324.953125,30.7,2.5039291381835938,81844,0.0,28.02182960510254,1,94324.953125
1778782198.65961409,81844749,1,15.393310546875,599.4832763671875,94326.984375,30.7,2.5039291381835938,81844,0.0,28.02182960510254,1,94326.984375
1778782198.75957417,81944709,0,15.9349365234375,600.02490234375,94322.125,30.7,2.5004196166992188,81944,0.0,28.02182960510254,1,94322.125
1778782198.75957417,81944709,1,15.7523193359375,599.84228515625,94322.921875,30.7,2.5004196166992188,81944,0.0,28.02182960510254,1,94322.921875
1778782198.85953403,82044669,0,16.1873779296875,600.27734375,94319.2578125,30.7,2.4966812133789062,82044,0.0,28.02182960510254,1,94319.2578125
1778782198.85953403,82044669,1,15.9730224609375,600.06298828125,94320.421875,30.7,2.4966812133789062,82044,0.0,28.02182960510254,1,94320.421875
1778782198.95949411,82144629,0,16.4375,600.5274658203125,94316.4296875,30.7,2.5006675720214844,82144,0.0,28.02182960510254,1,94316.4296875
1778782198.95949411,82144629,1,16.3994140625,600.4893798828125,94315.5859375,30.7,2.5006675720214844,82144,0.0,28.02182960510254,1,94315.5859375
1778782199.05945420,82244589,0,16.6845703125,600.7745361328125,94313.6171875,30.7,2.5062942504882812,82244,0.0,28.02182960510254,1,94313.6171875
1778782199.05945420,82244589,1,16.3759765625,600.4659423828125,94315.8515625,30.7,2.5062942504882812,82244,0.0,28.02182960510254,1,94315.8515625
1778782199.15941405,82344549,0,16.93463134765625,601.0245971679688,94310.7890625,30.7,2.5035667419433594,82344,0.0,28.02182960510254,1,94310.7890625
1778782199.15941405,82344549,1,16.94927978515625,601.0392456054688,94309.3515625,30.7,2.5035667419433594,82344,0.0,28.02182960510254,1,94309.3515625
1778782199.25937414,82444509,0,17.1817626953125,601.271728515625,94307.984375,30.7,2.4942588806152344,82444,0.0,28.02182960510254,1,94307.984375
1778782199.25937414,82444509,1,17.21112060546875,601.3010864257812,94306.3828125,30.7,2.4942588806152344,82444,0.0,28.02182960510254,1,94306.3828125
1778782199.35933423,82544469,0,17.43768310546875,601.5276489257812,94305.09375,30.7,2.489356756210327,82544,0.0,28.02182960510254,1,94305.09375
1778782199.35933423,82544469,1,17.37274169921875,601.4627075195312,94304.5546875,30.7,2.489356756210327,82544,0.0,28.02182960510254,1,94304.5546875
1778782199.45929408,82644429,0,17.68475341796875,601.7747192382812,94302.2890625,30.7,2.4950218200683594,82644,0.0,28.02182960510254,1,94302.2890625
1778782199.45929408,82644429,1,17.58172607421875,601.6716918945312,94302.1953125,30.7,2.4950218200683594,82644,0.0,28.02182960510254,1,94302.1953125
1778782199.55925417,82744389,0,17.934326171875,602.0242919921875,94299.4609375,30.7,2.5040054321289062,82744,0.0,28.02182960510254,1,94299.4609375
1778782199.55925417,82744389,1,17.919677734375,602.0096435546875,94298.359375,30.7,2.5040054321289062,82744,0.0,28.02182960510254,1,94298.359375
1778782199.66004705,82845182,0,18.187255859375,602.2772216796875,94296.5859375,30.7,2.5043492317199707,82845,0.0,28.02182960510254,1,94296.5859375
1778782199.66004705,82845182,1,18.1990966796875,602.2890625,94295.1953125,30.7,2.5043492317199707,82845,0.0,28.02182960510254,1,94295.1953125
1778782199.76000714,82945142,0,18.4373779296875,602.52734375,94293.7578125,30.7,2.498563766479492,82945,0.0,28.02182960510254,1,94293.7578125
1778782199.76000714,82945142,1,18.36651611328125,602.4564819335938,94293.296875,30.7,2.498563766479492,82945,0.0,28.02182960510254,1,94293.296875
1778782199.85996699,83045102,0,18.6844482421875,602.7744140625,94290.953125,30.7,2.4965639114379883,83045,0.0,28.02182960510254,1,94290.953125
1778782199.85996699,83045102,1,18.3963623046875,602.486328125,94292.953125,30.7,2.4965639114379883,83045,0.0,28.02182960510254,1,94292.953125
1778782199.95992708,83145062,0,18.93450927734375,603.0244750976562,94288.125,30.7,2.4955899715423584,83145,0.0,28.02182960510254,1,94288.125
1778782199.95992708,83145062,1,18.65814208984375,602.7481079101562,94289.9921875,30.7,2.4955899715423584,83145,0.0,28.02182960510254,1,94289.9921875
1778782200.05988717,83245022,0,19.1962890625,603.2862548828125,94285.1640625,30.7,2.4955430030822754,83245,0.0,28.02182960510254,1,94285.1640625
1778782200.05988717,83245022,1,19.25787353515625,603.3478393554688,94283.1953125,30.7,2.4955430030822754,83245,0.0,28.02182960510254,1,94283.1953125
1778782200.15984702,83344982,0,19.44635009765625,603.5363159179688,94282.3359375,30.7,2.5105667114257812,83344,0.0,28.02182960510254,1,94282.3359375
1778782200.15984702,83344982,1,19.23150634765625,603.3214721679688,94283.5,30.7,2.5105667114257812,83344,0.0,28.02182960510254,1,94283.5
1778782200.25980711,83444942,0,19.69586181640625,603.7858276367188,94279.4921875,30.7,2.536353826522827,83444,0.0,28.02182960510254,1,94279.4921875
1778782200.25980711,83444942,1,19.6490478515625,603.739013671875,94278.765625,30.7,2.536353826522827,83444,0.0,28.02182960510254,1,94278.765625
1778782200.35976720,83544902,0,19.9429931640625,604.032958984375,94276.703125,30.7,2.5424959659576416,83544,0.0,28.02182960510254,1,94276.703125
1778782200.35976720,83544902,1,20.01971435546875,604.1096801757812,94274.5703125,30.7,2.5424959659576416,83544,0.0,28.02182960510254,1,94274.5703125
1778782200.45972705,83644862,0,20.19891357421875,604.2888793945312,94273.796875,30.7,2.522329568862915,83644,0.0,28.02182960510254,1,94273.796875
1778782200.45972705,83644862,1,20.04315185546875,604.1331176757812,94274.296875,30.7,2.522329568862915,83644,0.0,28.02182960510254,1,94274.296875
1778782200.55968714,83744822,0,20.446044921875,604.5360107421875,94271.0,30.7,2.5055699348449707,83744,0.0,28.02182960510254,1,94271.0
1778782200.55968714,83744822,1,20.239990234375,604.3299560546875,94272.0703125,30.7,2.5055699348449707,83744,0.0,28.02182960510254,1,94272.0703125
1778782200.65964723,83844782,0,20.696044921875,604.7860107421875,94268.171875,30.7,2.5050930976867676,83844,0.0,28.02182960510254,1,94268.171875
1778782200.65964723,83844782,1,20.528076171875,604.6180419921875,94268.796875,30.7,2.5050930976867676,83844,0.0,28.02182960510254,1,94268.796875
1778782200.75960708,83944742,0,20.94317626953125,605.0331420898438,94265.3671875,30.7,2.5040054321289062,83944,0.0,28.02182960510254,1,94265.3671875
1778782200.75960708,83944742,1,20.8695068359375,604.95947265625,94264.9296875,30.7,2.5040054321289062,83944,0.0,28.02182960510254,1,94264.9296875
1778782200.85956717,84044702,0,21.1932373046875,605.283203125,94262.5390625,30.7,2.4949262142181396,84044,0.0,28.02182960510254,1,94262.5390625
1778782200.85956717,84044702,1,20.9251708984375,605.01513671875,94264.3046875,30.7,2.4949262142181396,84044,0.0,28.02182960510254,1,94264.3046875
1778782200.95952702,84144662,0,21.44573974609375,605.5357055664062,94259.671875,30.7,2.4892807006835938,84144,0.0,28.02182960510254,1,94259.671875
1778782200.95952702,84144662,1,21.32513427734375,605.4151000976562,94259.7734375,30.7,2.4892807006835938,84144,0.0,28.02182960510254,1,94259.7734375
1778782201.05948710,84244622,0,21.69573974609375,605.7857055664062,94256.84375,30.7,2.4942398071289062,84244,0.0,28.02182960510254,1,94256.84375
1778782201.05948710,84244622,1,21.40179443359375,605.4917602539062,94258.90625,30.7,2.4942398071289062,84244,0.0,28.02182960510254,1,94258.90625
1778782201.15944719,84344582,0,21.94586181640625,606.0358276367188,94254.015625,30.7,2.5035667419433594,84344,0.0,28.02182960510254,1,94254.015625
1778782201.15944719,84344582,1,21.66357421875,605.7535400390625,94255.9375,30.7,2.5035667419433594,84344,0.0,28.02182960510254,1,94255.9375
1778782201.25940704,84444542,0,22.18414306640625,606.2741088867188,94251.3125,30.7,2.5035479068756104,84444,0.0,28.02182960510254,1,94251.3125
1778782201.25940704,84444542,1,21.91656494140625,606.0065307617188,94253.078125,30.7,2.5035479068756104,84444,0.0,28.02182960510254,1,94253.078125
1778782201.35936713,84544502,0,22.4136962890625,606.503662109375,94248.71875,30.7,2.4796104431152344,84544,0.0,28.02182960510254,1,94248.71875
1778782201.35936713,84544502,1,22.1607666015625,606.250732421875,94250.3046875,30.7,2.4796104431152344,84544,0.0,28.02182960510254,1,94250.3046875
1778782201.45932722,84644462,0,22.6339111328125,606.723876953125,94246.21875,30.7,2.4232864379882812,84644,0.0,28.02182960510254,1,94246.21875
1778782201.45932722,84644462,1,22.710693359375,606.8006591796875,94244.078125,30.7,2.4232864379882812,84644,0.0,28.02182960510254,1,94244.078125
1778782201.55928707,84744422,0,22.854736328125,606.9447021484375,94243.71875,30.7,2.344017267227173,84744,0.0,28.02182960510254,1,94243.71875
1778782201.55928707,84744422,1,22.66912841796875,606.7590942382812,94244.546875,30.7,2.344017267227173,84744,0.0,28.02182960510254,1,94244.546875
1778782201.65924716,84844382,0,23.057373046875,607.1473388671875,94241.421875,30.7,2.2643661499023438,84844,0.0,28.02182960510254,1,94241.421875
1778782201.65924716,84844382,1,22.845947265625,606.9359130859375,94242.5546875,30.7,2.2643661499023438,84844,0.0,28.02182960510254,1,94242.5546875
1778782201.76004004,84945175,0,23.25469970703125,607.3446655273438,94239.1875,30.7,2.1889939308166504,84945,0.0,28.02182960510254,1,94239.1875
1778782201.76004004,84945175,1,23.025146484375,607.1151123046875,94240.5234375,30.7,2.1889939308166504,84945,0.0,28.02182960510254,1,94240.5234375
1778782201.86000013,85045135,0,23.43682861328125,607.5267944335938,94237.125,30.7,2.101104736328125,85045,0.0,28.02182960510254,1,94237.125
1778782201.86000013,85045135,1,23.16632080078125,607.2562866210938,94238.921875,30.7,2.101104736328125,85045,0.0,28.02182960510254,1,94238.921875
1778782201.95996022,85145095,0,23.6072998046875,607.697265625,94235.1953125,30.7,1.995357871055603,85145,0.0,28.02182960510254,1,94235.1953125
1778782201.95996022,85145095,1,23.34552001953125,607.4354858398438,94236.890625,30.7,1.995357871055603,85145,0.0,28.02182960510254,1,94236.890625
1778782202.05992007,85245055,0,23.7664794921875,607.8564453125,94233.390625,30.7,1.8816466331481934,85245,0.0,28.02182960510254,1,94233.390625
1778782202.05992007,85245055,1,23.73089599609375,607.8208618164062,94232.5234375,30.7,1.8816466331481934,85245,0.0,28.02182960510254,1,94232.5234375
1778782202.15988016,85345015,0,23.91644287109375,608.0064086914062,94231.6875,30.7,1.7663415670394897,85345,0.0,28.02182960510254,1,94231.6875
1778782202.15988016,85345015,1,23.95452880859375,608.0444946289062,94229.9921875,30.7,1.7663415670394897,85345,0.0,28.02182960510254,1,94229.9921875
1778782202.25984001,85444975,0,24.05755615234375,608.1475219726562,94230.0859375,30.7,1.654815673828125,85444,0.0,28.02182960510254,1,94230.0859375
1778782202.25984001,85444975,1,24.1162109375,608.2061767578125,94228.1640625,30.7,1.654815673828125,85444,0.0,28.02182960510254,1,94228.1640625
1778782202.35980010,85544935,0,24.18402099609375,608.2739868164062,94228.65625,30.7,1.5517878532409668,85544,0.0,28.02182960510254,1,94228.65625
1778782202.35980010,85544935,1,24.17529296875,608.2652587890625,94227.4921875,30.7,1.5517878532409668,85544,0.0,28.02182960510254,1,94227.4921875
1778782202.45976019,85644895,0,24.2958984375,608.3858642578125,94227.3984375,30.7,1.448708415031433,85644,0.0,28.02182960510254,1,94227.3984375
1778782202.45976019,85644895,1,24.02484130859375,608.1148071289062,94229.1953125,30.7,1.448708415031433,85644,0.0,28.02182960510254,1,94229.1953125
1778782202.55972004,85744855,0,24.404296875,608.4942626953125,94226.15625,30.7,1.3331013917922974,85744,0.0,28.02182960510254,1,94226.15625
1778782202.55972004,85744855,1,24.42486572265625,608.5148315429688,94224.6640625,30.7,1.3331013917922974,85744,0.0,28.02182960510254,1,94224.6640625
1778782202.65968013,85844815,0,24.49560546875,608.5855712890625,94225.1328125,30.7,1.2119879722595215,85844,0.0,28.02182960510254,1,94225.1328125
1778782202.65968013,85844815,1,24.3369140625,608.4268798828125,94225.6640625,30.7,1.2119879722595215,85844,0.0,28.02182960510254,1,94225.6640625
1778782202.75964022,85944775,0,24.58404541015625,608.6740112304688,94224.1328125,30.7,1.1007167100906372,85944,0.0,28.02182960510254,1,94224.1328125
1778782202.75964022,85944775,1,24.3603515625,608.4503173828125,94225.3984375,30.7,1.1007167100906372,85944,0.0,28.02182960510254,1,94225.3984375
1778782202.85960007,86044735,0,24.65435791015625,608.7443237304688,94223.328125,30.7,0.998573362827301,86044,0.0,28.02182960510254,1,94223.328125
1778782202.85960007,86044735,1,24.53668212890625,608.6266479492188,94223.3984375,30.7,0.998573362827301,86044,0.0,28.02182960510254,1,94223.3984375
1778782202.95956016,86144695,0,24.7252197265625,608.815185546875,94222.5390625,30.7,0.8980559706687927,86144,0.0,28.02182960510254,1,94222.5390625
1778782202.95956016,86144695,1,24.56890869140625,608.6588745117188,94223.0390625,30.7,0.8980559706687927,86144,0.0,28.02182960510254,1,94223.0390625
1778782203.05952001,86244655,0,24.7750244140625,608.864990234375,94221.96875,30.7,0.7989311218261719,86244,0.0,28.02182960510254,1,94221.96875
1778782203.05952001,86244655,1,24.47515869140625,608.5651245117188,94224.09375,30.7,0.7989311218261719,86244,0.0,28.02182960510254,1,94224.09375
1778782203.15948009,86344615,0,24.8282470703125,608.918212890625,94221.375,30.7,0.7023429274559021,86344,0.0,28.02182960510254,1,94221.375
1778782203.15948009,86344615,1,24.53375244140625,608.6237182617188,94223.4375,30.7,0.7023429274559021,86344,0.0,28.02182960510254,1,94223.4375
1778782203.25944018,86444575,0,24.8663330078125,608.956298828125,94220.9375,30.7,0.6096457839012146,86444,0.0,28.02182960510254,1,94220.9375
1778782203.25944018,86444575,1,24.9044189453125,608.994384765625,94219.234375,30.7,0.6096457839012146,86444,0.0,28.02182960510254,1,94219.234375
1778782203.35940003,86544535,0,24.8839111328125,608.973876953125,94220.734375,30.7,0.5196571350097656,86544,0.0,28.02182960510254,1,94220.734375
1778782203.35940003,86544535,1,24.6690673828125,608.759033203125,94221.8984375,30.71,0.5196571350097656,86544,0.0,28.02182960510254,1,94221.8984375
1778782203.45936012,86644495,0,24.9073486328125,608.997314453125,94220.46875,30.71,0.4200935363769531,86644,0.0,28.02182960510254,1,94220.46875
1778782203.45936012,86644495,1,24.7222900390625,608.812255859375,94221.296875,30.71,0.4200935363769531,86644,0.0,28.02182960510254,1,94221.296875
1778782203.55932021,86744455,0,24.9161376953125,609.006103515625,94220.3671875,30.71,0.312042236328125,86744,0.0,28.02182960510254,1,94220.3671875
1778782203.55932021,86744455,1,24.9132080078125,609.003173828125,94219.140625,30.71,0.312042236328125,86744,0.0,28.02182960510254,1,94219.140625
1778782203.65928006,86844415,0,24.9161376953125,609.006103515625,94220.3671875,30.71,0.218048095703125,86844,0.0,28.02182960510254,1,94220.3671875
1778782203.65928006,86844415,1,24.7252197265625,608.815185546875,94221.265625,30.71,0.218048095703125,86844,0.0,28.02182960510254,1,94221.265625
1778782203.75924015,86944375,0,24.9161376953125,609.006103515625,94220.3671875,30.71,0.14007568359375,86944,0.0,28.02182960510254,1,94220.3671875
1778782203.75924015,86944375,1,24.9986572265625,609.088623046875,94218.171875,30.71,0.14007568359375,86944,0.0,28.02182960510254,1,94218.171875
1778782203.86003304,87045168,0,24.9073486328125,608.997314453125,94220.46875,30.71,0.06681216508150101,87045,0.0,28.02182960510254,1,94220.46875
1778782203.86003304,87045168,1,24.6925048828125,608.782470703125,94221.640625,30.71,0.06681216508150101,87045,0.0,28.02182960510254,1,94221.640625
1778782203.95999312,87145128,0,24.9073486328125,608.997314453125,94220.46875,30.71,0.007312031928449869,87145,0.0,28.02182960510254,1,94220.46875
1778782203.95999312,87145128,1,24.6778564453125,608.767822265625,94221.796875,30.71,0.007312031928449869,87145,0.0,28.02182960510254,1,94221.796875
1778782204.05995321,87245088,0,24.8927001953125,608.982666015625,94220.6328125,30.71,-0.029193537309765816,87245,0.0,28.02182960510254,1,94220.6328125
1778782204.05995321,87245088,1,24.9747314453125,609.064697265625,94218.4375,30.71,-0.029193537309765816,87245,0.0,28.02182960510254,1,94218.4375
1778782204.15991306,87345048,0,24.8927001953125,608.982666015625,94220.6328125,30.71,-0.050200432538986206,87345,0.0,28.02182960510254,1,94220.6328125
1778782204.15991306,87345048,1,24.7633056640625,608.853271484375,94220.8359375,30.71,-0.050200432538986206,87345,0.0,28.02182960510254,1,94220.8359375
1778782204.25987315,87445008,0,24.8839111328125,608.973876953125,94220.734375,30.71,-0.06216604262590408,87445,0.0,28.02182960510254,1,94220.734375
1778782204.25987315,87445008,1,24.9219970703125,609.011962890625,94219.03125,30.71,-0.06216604262590408,87445,0.0,28.02182960510254,1,94219.03125
1778782204.35983300,87544968,0,24.8839111328125,608.973876953125,94220.734375,30.72,-0.062255859375,87544,0.0,28.02182960510254,1,94220.734375
1778782204.35983300,87544968,1,24.7310791015625,608.821044921875,94221.203125,30.72,-0.062255859375,87544,0.0,28.02182960510254,1,94221.203125
1778782204.45979309,87644928,0,24.8839111328125,608.973876953125,94220.734375,30.72,-0.050439655780792236,87644,0.0,28.02182960510254,1,94220.734375
1778782204.45979309,87644928,1,24.9454345703125,609.035400390625,94218.765625,30.72,-0.050439655780792236,87644,0.0,28.02182960510254,1,94218.765625
1778782204.55975318,87744888,0,24.8839111328125,608.973876953125,94220.734375,30.72,-0.03215222805738449,87744,0.0,28.02182960510254,1,94220.734375
1778782204.55975318,87744888,1,24.7164306640625,608.806396484375,94221.375,30.72,-0.03215222805738449,87744,0.0,28.02182960510254,1,94221.375
1778782204.65971303,87844848,0,24.8839111328125,608.973876953125,94220.734375,30.72,-0.013765029609203339,87844,0.0,28.02182960510254,1,94220.734375
1778782204.65971303,87844848,1,24.6221923828125,608.712158203125,94222.4296875,30.72,-0.013765029609203339,87844,0.0,28.02182960510254,1,94222.4296875
1778782204.75967312,87944808,0,24.8839111328125,608.973876953125,94220.734375,30.72,-0.0027511673979461193,87944,0.0,28.02182960510254,1,94220.734375
1778782204.75967312,87944808,1,24.6514892578125,608.741455078125,94222.1015625,30.72,-0.0027511673979461193,87944,0.0,28.02182960510254,1,94222.1015625
1778782204.85963321,88044768,0,24.8927001953125,608.982666015625,94220.6328125,30.72,0.0027511673979461193,88044,0.0,28.02182960510254,1,94220.6328125
1778782204.85963321,88044768,1,24.9747314453125,609.064697265625,94218.4375,30.72,0.0027511673979461193,88044,0.0,28.02182960510254,1,94218.4375
1778782204.95959306,88144728,0,24.8927001953125,608.982666015625,94220.6328125,30.72,0.013732911087572575,88144,0.0,28.02182960510254,1,94220.6328125
1778782204.95959306,88144728,1,24.7662353515625,608.856201171875,94220.796875,30.72,0.013732911087572575,88144,0.0,28.02182960510254,1,94220.796875
1778782205.05955315,88244688,0,24.8927001953125,608.982666015625,94220.6328125,30.72,0.0274658203125,88244,0.0,28.02182960510254,1,94220.6328125
1778782205.05955315,88244688,1,24.9366455078125,609.026611328125,94218.875,30.72,0.0274658203125,88244,0.0,28.02182960510254,1,94218.875
1778782205.15951300,88344648,0,24.9073486328125,608.997314453125,94220.46875,30.72,0.03204345703125,88344,0.0,28.02182960510254,1,94220.46875
1778782205.15951300,88344648,1,24.6514892578125,608.741455078125,94222.1015625,30.72,0.03204345703125,88344,0.0,28.02182960510254,1,94222.1015625
1778782205.25947309,88444608,0,24.9073486328125,608.997314453125,94220.46875,30.73,0.0366210900247097,88444,0.0,28.02182960510254,1,94220.46875
1778782205.25947309,88444608,1,24.9688720703125,609.058837890625,94218.5,30.72,0.0366210900247097,88444,0.0,28.02182960510254,1,94218.5
1778782205.35943317,88544568,0,24.9161376953125,609.006103515625,94220.3671875,30.73,0.0512695349752903,88544,0.0,28.02182960510254,1,94220.3671875
1778782205.35943317,88544568,1,24.8424072265625,608.932373046875,94219.9296875,30.73,0.0512695349752903,88544,0.0,28.02182960510254,1,94219.9296875
1778782205.45939302,88644528,0,24.9161376953125,609.006103515625,94220.3671875,30.73,0.05950927734375,88644,0.0,28.02182960510254,1,94220.3671875
1778782205.45939302,88644528,1,24.7222900390625,608.812255859375,94221.296875,30.73,0.05950927734375,88644,0.0,28.02182960510254,1,94221.296875
1778782205.55935311,88744488,0,24.9249267578125,609.014892578125,94220.2734375,30.73,0.0531005859375,88744,0.0,28.02182960510254,1,94220.2734375
1778782205.55935311,88744488,1,24.9132080078125,609.003173828125,94219.140625,30.73,0.0531005859375,88744,0.0,28.02182960510254,1,94219.140625
1778782205.65931320,88844448,0,24.9249267578125,609.014892578125,94220.2734375,30.73,0.0457763709127903,88844,0.0,28.02182960510254,1,94220.2734375
1778782205.65931320,88844448,1,24.9986572265625,609.088623046875,94218.171875,30.73,0.0457763709127903,88844,0.0,28.02182960510254,1,94218.171875
1778782205.75927305,88944408,0,24.9249267578125,609.014892578125,94220.2734375,30.73,0.0411987341940403,88944,0.0,28.02182960510254,1,94220.2734375
1778782205.75927305,88944408,1,24.7720947265625,608.862060546875,94220.734375,30.73,0.0411987341940403,88944,0.0,28.02182960510254,1,94220.734375
1778782205.85923314,89044368,0,24.9366455078125,609.026611328125,94220.1328125,30.73,0.03387451171875,89044,0.0,28.02182960510254,1,94220.1328125
1778782205.85923314,89044368,1,24.9425048828125,609.032470703125,94218.796875,30.73,0.03387451171875,89044,0.0,28.02182960510254,1,94218.796875
1778782205.96002603,89145161,0,24.9366455078125,609.026611328125,94220.1328125,30.73,0.032032791525125504,89145,0.0,28.02182960510254,1,94220.1328125
1778782205.96002603,89145161,1,24.7222900390625,608.812255859375,94221.296875,30.73,0.032032791525125504,89145,0.0,28.02182960510254,1,94221.296875
1778782206.05998611,89245121,0,24.9366455078125,609.026611328125,94220.1328125,30.73,0.039320483803749084,89245,0.0,28.02182960510254,1,94220.1328125
1778782206.05998611,89245121,1,24.9688720703125,609.058837890625,94218.5,30.73,0.039320483803749084,89245,0.0,28.02182960510254,1,94218.5
1778782206.15994620,89345081,0,24.9454345703125,609.035400390625,94220.0390625,30.73,0.0392293818295002,89345,0.0,28.02182960510254,1,94220.0390625
