timestamp,TimeUS,C,Roll,Pitch,Yaw,VN,VE,VD,dPD,PN,PE,PD,GX,GY,GZ,OH
1778782973.16001606,52344054,0,0.06,0.05,354.92,-0.013048488646745682,0.015438089147210121,1.146147678809939e-05,3.4326803870499134e-05,-0.009727494791150093,0.01137517485767603,-0.003764905035495758,0.02,0.02,-0.11,584.09
1778782973.16001606,52344054,1,0.06,0.04,354.92,-0.0125331562012434,0.01550361979752779,-0.0002432559704175219,1.2967817610842758e-06,-0.009630349464714527,0.01152404211461544,0.005845255684107542,0.02,0.02,-0.1,584.08
1778782973.26080918,52444847,0,0.06,0.05,354.92,-0.012921558693051338,0.015331277623772621,2.419791962893214e-05,2.6276997232344e-05,-0.009663637727499008,0.0113220801576972,-0.003761418629437685,0.02,0.02,-0.1,584.09
1778782973.26080918,52444847,1,0.06,0.04,354.92,-0.01233462430536747,0.015244605019688606,-0.00015500940207857639,6.698945799143985e-05,-0.009440938010811806,0.011338397860527039,0.005847725551575422,0.02,0.02,-0.1,584.08
1778782973.36076903,52544807,0,0.06,0.05,354.91,-0.012873928993940353,0.015308946371078491,6.447083433158696e-05,5.319456977304071e-05,-0.009735026396811008,0.011427472345530987,-0.00375539087690413,0.02,0.02,-0.1,584.09
1778782973.36076903,52544807,1,0.06,0.04,354.91,-0.012242194265127182,0.015178580768406391,-4.845735020353459e-05,0.00017890652816276997,-0.009501601569354534,0.011447364464402199,0.005859069526195526,0.02,0.02,-0.1,584.08
1778782973.46072912,52644767,0,0.06,0.05,354.91,-0.012541132979094982,0.014939920045435429,7.620717224199325e-05,5.3124676924198866e-05,-0.009649991057813168,0.011351849883794785,-0.0037510015536099672,0.02,0.02,-0.1,584.09
1778782973.46072912,52644767,1,0.06,0.04,354.91,-0.011846572160720825,0.014667377807199955,6.535773718496785e-05,0.00023488343867938966,-0.00940385926514864,0.011363268829882145,0.005874818190932274,0.02,0.02,-0.1,584.08
1778782973.56068897,52744727,0,0.06,0.05,354.91,-0.012221294455230236,0.014583057723939419,4.1232375224353746e-05,8.779978998063598e-06,-0.00966600514948368,0.01139290351420641,-0.003748009679839015,0.02,0.02,-0.1,584.09
1778782973.56068897,52744727,1,0.06,0.04,354.91,-0.011439939960837364,0.014306514523923397,7.096030003594933e-06,0.00013195730571169406,-0.009389516897499561,0.01137299183756113,0.005891694687306881,0.02,0.02,-0.1,584.08
1778782973.66064906,52844687,0,0.06,0.05,354.9,-0.011550670489668846,0.013849960640072823,2.679998397070449e-05,-1.0871478480112273e-05,-0.009501117281615734,0.011219424195587635,-0.0037494238931685686,0.02,0.02,-0.1,584.09
1778782973.66064906,52844687,1,0.06,0.04,354.91,-0.010833886452019215,0.013547955080866814,5.6500721257179976e-05,0.000129742591525428,-0.009199252352118492,0.011176015250384808,0.005901891738176346,0.02,0.02,-0.1,584.08
1778782973.76060915,52944647,0,0.06,0.05,354.9,-0.010873240418732166,0.013074604794383049,8.50067226565443e-05,4.324236942920834e-05,-0.009385853074491024,0.011108131147921085,-0.0037456487771123648,0.02,0.02,-0.1,584.09
1778782973.76060915,52944647,1,0.06,0.04,354.9,-0.01018952950835228,0.012663023546338081,0.00011223371257074177,0.0001412119745509699,-0.009062603116035461,0.011032450012862682,0.005918871611356735,0.02,0.02,-0.1,584.08
1778782973.86056900,53044607,0,0.06,0.05,354.9,-0.009898405522108078,0.011898445896804333,7.461151835741475e-05,2.863535519281868e-05,-0.009073914028704166,0.010756541974842548,-0.00374328694306314,0.02,0.02,-0.1,584.09
1778782973.86056900,53044607,1,0.06,0.04,354.9,-0.009155482053756714,0.011590206995606422,5.812518793391064e-05,5.160048385732807e-05,-0.008733801543712616,0.01065994892269373,0.005928926635533571,0.02,0.02,-0.1,584.08
1778782973.96052909,53144567,0,0.06,0.05,354.9,-0.008922171778976917,0.010708563961088657,9.831889474298805e-05,4.635277946363203e-05,-0.008784051053225994,0.0104235103353858,-0.003737000050023198,0.02,0.02,-0.1,584.09
1778782973.96052909,53144567,1,0.06,0.04,354.9,-0.008140268735587597,0.01053081825375557,3.49573019775562e-06,-3.2180581911234185e-05,-0.008421149104833603,0.01031818799674511,0.005930230021476746,0.02,0.02,-0.1,584.08
1778782974.06048918,53244527,0,0.06,0.05,354.89,-0.007813293486833572,0.009314046241343021,0.00013160720118321478,7.179362000897527e-05,-0.0083986297249794,0.009970465674996376,-0.003731817239895463,0.02,0.02,-0.1,584.09
1778782974.06048918,53244527,1,0.06,0.05,354.89,-0.006762429140508175,0.008891330100595951,3.50105001416523e-05,4.153986537858145e-06,-0.007778976112604141,0.00957730133086443,0.0059311059303581715,0.02,0.02,-0.1,584.08
1778782974.16044903,53344487,0,0.06,0.05,354.89,-0.006613998208194971,0.007947124540805817,9.186183888232335e-05,1.6647285519866273e-05,-0.007917397655546665,0.009401392191648483,-0.003728071693331003,0.02,0.02,-0.1,584.09
1778782974.16044903,53344487,1,0.06,0.05,354.89,-0.0058403220027685165,0.007688678801059723,-7.985057891346514e-05,-9.859936108114198e-05,-0.007374369073659182,0.009117992594838142,0.00592914130538702,0.02,0.02,-0.1,584.08
1778782974.26040912,53444447,0,0.06,0.05,354.89,-0.005416962783783674,0.006602775305509567,6.478610885096714e-05,-6.815261713200016e-06,-0.007366284262388945,0.00875785667449236,-0.0037264772690832615,0.02,0.02,-0.1,584.09
1778782974.26040912,53444447,1,0.06,0.05,354.89,-0.004783536307513714,0.006362400483340025,0.0001252280198968947,0.00011708039528457448,-0.0068345204927027225,0.008480222895741463,0.0059324223548173904,0.02,0.02,-0.1,584.08
1778782974.36036897,53544407,0,0.07,0.05,354.88,-0.004288386553525925,0.005269147455692291,5.025239443057217e-05,-2.1422138161142357e-05,-0.006762431003153324,0.008052419871091843,-0.0037268665619194508,0.02,0.02,-0.1,584.09
1778782974.36036897,53544407,1,0.07,0.05,354.88,-0.0037772038485854864,0.005153326317667961,0.0002057513629551977,0.00020588880579452962,-0.0063194953836500645,0.007862798869609833,0.0059527503326535225,0.02,0.02,-0.1,584.08
1778782974.46032906,53644367,0,0.07,0.05,354.88,-0.0032342432532459497,0.00399738410487771,8.473298657918349e-05,2.168520586565137e-05,-0.006138438358902931,0.007321228738874197,-0.0037258255761116743,0.02,0.02,-0.1,584.09
1778782974.46032906,53644367,1,0.07,0.05,354.88,-0.0028462321497499943,0.003949174657464027,0.00023200525902211666,0.00019682248239405453,-0.0057171364314854145,0.0071325949393212795,0.005969336722046137,0.02,0.02,-0.1,584.08
1778782974.56028914,53744327,0,0.07,0.06,354.88,-0.002313965931534767,0.0028610380832105875,4.232651190250181e-05,-1.600787254574243e-05,-0.005508934147655964,0.006575635634362698,-0.003724193898960948,0.02,0.02,-0.1,584.09
1778782974.56028914,53744327,1,0.07,0.05,354.88,-0.001936284708790481,0.002893132623285055,0.00031280083931051195,0.0002276915911352262,-0.005162692163139582,0.006464096251875162,0.00598923210054636,0.02,0.02,-0.1,584.08
1778782974.66024899,53844287,0,0.07,0.06,354.87,-0.0014771115966141224,0.0018157974118366838,3.435853432165459e-05,-1.861346754594706e-05,-0.0048979162238538265,0.00584705313667655,-0.0037261811085045338,0.02,0.02,-0.1,584.09
1778782974.66024899,53844287,1,0.07,0.05,354.88,-0.0012233253801241517,0.0018666422693058848,0.00030575113487429917,0.00019016963778994977,-0.004566090647131205,0.005734138656407595,0.006010903511196375,0.02,0.02,-0.1,584.08
1778782974.76020908,53944247,0,0.07,0.06,354.87,-0.0007668804028071463,0.0009463590104132891,5.0859420298365876e-05,-3.850823759421473e-06,-0.004312233999371529,0.005147244781255722,-0.00372837926261127,0.02,0.02,-0.1,584.09
1778782974.76020908,53944247,1,0.07,0.05,354.87,-0.000563286361284554,0.0010158492950722575,0.000334672600729391,0.00018245236424263567,-0.0040006316266953945,0.005032034125179052,0.006034357938915491,0.02,0.02,-0.1,584.08
1778782974.86016917,54044207,0,0.07,0.06,354.87,-0.0001509905414422974,0.00021423352882266045,3.824934537988156e-05,-4.482167696551187e-06,-0.0037651939783245325,0.004491306375712156,-0.003728737821802497,0.02,0.02,-0.1,584.09
1778782974.86016917,54044207,1,0.07,0.06,354.87,-7.772622484480962e-05,0.00036629725946113467,0.00037119511398486793,0.0001906679681269452,-0.003512454451993108,0.0044161477126181126,0.006052669603377581,0.02,0.02,-0.1,584.08
1778782974.96012902,54144167,0,0.07,0.06,354.86,0.00037475465796887875,-0.00035670577199198306,-3.324493081890978e-05,-6.428513734135777e-05,-0.003256725613027811,0.003887446131557226,-0.0037316966336220503,0.02,0.02,-0.09,584.09
1778782974.96012902,54144167,1,0.07,0.06,354.87,0.0004260087152943015,-0.00013484795636031777,0.0003822777362074703,0.00015518488362431526,-0.0030903059523552656,0.00388665241189301,0.006069906987249851,0.02,0.02,-0.09,584.08
1778782975.06008911,54244127,0,0.08,0.06,354.86,0.000773513107560575,-0.0008327760733664036,-2.910489092755597e-05,-5.1936822274001315e-05,-0.0027955255936831236,0.0033416368532925844,-0.003736702259629965,0.02,0.02,-0.09,584.09
1778782975.06008911,54244127,1,0.07,0.06,354.87,0.0007382387411780655,-0.0006526249926537275,0.0003261819656472653,9.516952559351921e-05,-0.002658361801877618,0.003352651372551918,0.006082779727876186,0.02,0.02,-0.09,584.08
1778782975.16004896,54344087,0,0.08,0.06,354.86,0.0010553488973528147,-0.0012308363802731037,-9.430424142919946e-06,-2.6943887860397808e-05,-0.0023837299086153507,0.0028504393994808197,-0.0037418606225401163,0.02,0.02,-0.09,584.09
1778782975.16004896,54344087,1,0.08,0.06,354.86,0.001029866747558117,-0.0011031214380636811,0.0004478219780139625,0.00019874214194715023,-0.0022989939898252487,0.0028952823486179113,0.006099761929363012,0.02,0.02,-0.09,584.08
1778782975.26000905,54444047,0,0.08,0.07,354.85,0.0012711441377177835,-0.0015794702339917421,3.096885120612569e-05,2.5698234821902588e-05,-0.002019392093643546,0.002408973639830947,-0.003741601714864373,0.02,0.02,-0.09,584.09
1778782975.26000905,54444047,1,0.08,0.06,354.86,0.001283935853280127,-0.0013803965412080288,0.0004715191898867488,0.00022275249648373574,-0.0019421986071392894,0.0024463895242661238,0.006120921112596989,0.02,0.02,-0.09,584.08
1778782975.36080217,54544840,0,0.08,0.07,354.85,0.0014051123289391398,-0.0017489491729065776,6.015340841258876e-05,6.877827399875969e-05,-0.0016929289558902383,0.0020092662889510393,-0.0037351027131080627,0.02,0.02,-0.09,584.09
1778782975.36080217,54544840,1,0.08,0.06,354.86,0.001519654644653201,-0.0016193157061934471,0.00043346299207769334,0.00015200927737168968,-0.0016480113845318556,0.0020826009567826986,0.006138429511338472,0.02,0.02,-0.09,584.08
1778782975.46076202,54644800,0,0.08,0.07,354.85,0.0014809155836701393,-0.001862361328676343,4.6105549699859694e-05,4.0619197534397244e-05,-0.0014191685477271676,0.0016690981574356556,-0.0037309119943529367,0.02,0.02,-0.09,584.09
1778782975.46076202,54644800,1,0.08,0.07,354.85,0.001540066092275083,-0.0016966599505394697,0.0004243621660862118,0.0001363437040708959,-0.0013684796867892146,0.0017374767921864986,0.0061523811891674995,0.02,0.02,-0.09,584.08
1778782975.56072211,54744760,0,0.08,0.07,354.85,0.001504464540630579,-0.0018988961819559336,1.4525706319545861e-05,-1.337078538199421e-05,-0.001210004324093461,0.0014080378459766507,-0.003729729214683175,0.02,0.02,-0.09,584.09
1778782975.56072211,54744760,1,0.08,0.07,354.85,0.0016473802970722318,-0.0017064661951735616,0.00037754999357275665,9.07411813386716e-05,-0.0011447194265201688,0.0014711078256368637,0.006167997140437365,0.02,0.02,-0.09,584.08
1778782975.66068196,54844720,0,0.08,0.07,354.84,0.0015087651554495096,-0.001945326803252101,6.391754141077399e-05,3.189409108017571e-05,-0.0010067473631352186,0.0011582066072151065,-0.00372753432020545,0.02,0.02,-0.09,584.09
1778782975.66068196,54844720,1,0.08,0.07,354.85,0.0016505124513059855,-0.001806419575586915,0.0003774489741772413,8.355924364877865e-05,-0.0009321365505456924,0.0012140973703935742,0.006173096131533384,0.02,0.02,-0.09,584.08
1778782975.76064205,54944680,0,0.09,0.07,354.84,0.0014793646987527609,-0.0018665952375158668,0.00013252109056338668,0.00010017627937486395,-0.0008588478085584939,0.0009720503003336489,-0.0037204567342996597,0.02,0.02,-0.09,584.09
1778782975.76064205,54944680,1,0.08,0.07,354.84,0.0014210074441507459,-0.0017726916121318936,0.0004042874206788838,0.00010066553659271449,-0.0007797381258569658,0.0010161513928323984,0.006183164194226265,0.02,0.02,-0.09,584.08
1778782975.86060214,55044640,0,0.09,0.08,354.84,0.0014378856867551804,-0.0017397705232724547,0.00018286668637301773,0.00014364931848831475,-0.0007093573804013431,0.0007997166248969734,-0.003707371884956956,0.02,0.02,-0.09,584.09
1778782975.86060214,55044640,1,0.09,0.07,354.84,0.0012535543646663427,-0.001691634301096201,0.0002822088426910341,-2.0625249817385338e-05,-0.0006734820199199021,0.0008516394882462919,0.006184746976941824,0.02,0.02,-0.09,584.08
1778782975.96056199,55144600,0,0.09,0.08,354.83,0.0013316030381247401,-0.0015256748301908374,0.00019084861560259014,0.00013994492474012077,-0.0006058864528313279,0.0006900273729115725,-0.0036927913315594196,0.02,0.02,-0.09,584.09
1778782975.96056199,55144600,1,0.09,0.07,354.83,0.0011671340325847268,-0.0015448001213371754,0.00034457139554433525,6.392468640115112e-05,-0.0006012047524563968,0.0007297262782230973,0.006188007537275553,0.02,0.02,-0.09,584.08
1778782976.06052208,55244560,0,0.09,0.08,354.83,0.0011965015437453985,-0.0013327650958672166,0.0002276949817314744,0.000154472203576006,-0.0005049548344686627,0.0005856116767972708,-0.0036800887901335955,0.02,0.02,-0.09,584.09
1778782976.06052208,55244560,1,0.09,0.08,354.83,0.0011243901681154966,-0.0013643685961142182,0.0003698587534017861,0.00012619032349903136,-0.0005117387627251446,0.0006100983591750264,0.006201057694852352,0.02,0.02,-0.09,584.08
1778782976.16048217,55344520,0,0.09,0.08,354.83,0.0009931960375979543,-0.001117433188483119,0.00023753097048029304,0.0001331903040409088,-0.0004488132835831493,0.0005333939916454256,-0.0036659403704106808,0.02,0.02,-0.09,584.09
1778782976.16048217,55344520,1,0.09,0.08,354.83,0.0009750620811246336,-0.0011822438100352883,0.0003429217904340476,0.00011971242929575965,-0.0004556294879876077,0.0005418843356892467,0.006217211950570345,0.02,0.02,-0.09,584.08
1778782976.26044202,55444480,0,0.09,0.08,354.82,0.0007936024921946228,-0.0009233382879756391,0.00022728912881575525,0.000101377627288457,-0.00039550664951093495,0.0004762779572047293,-0.003656098386272788,0.02,0.02,-0.09,584.09
1778782976.26044202,55444480,1,0.09,0.08,354.83,0.0007363340118899941,-0.0010405826615169644,0.00022066089150030166,-1.3563200809585396e-05,-0.00040091489790938795,0.0004682213475462049,0.006216416601091623,0.02,0.02,-0.09,584.08
1778782976.36040211,55544440,0,0.1,0.08,354.82,0.0005951459752395749,-0.0006720699602738023,0.0002637426368892193,0.00010782604658743367,-0.0003833852824755013,0.00046387355541810393,-0.003645306220278144,0.02,0.02,-0.09,584.09
1778782976.36040211,55544440,1,0.09,0.08,354.82,0.0005995144601911306,-0.0006763021228834987,0.00025116364122368395,-9.394923836225644e-06,-0.00038530537858605385,0.00044419459300115705,0.006214034743607044,0.02,0.02,-0.09,584.08
1778782976.46036196,55644400,0,0.1,0.09,354.82,0.00038688851054757833,-0.00032199424458667636,0.0003133486898150295,0.00014797398762311786,-0.0003637106856331229,0.00044448341941460967,-0.0036338146310299635,0.02,0.02,-0.09,584.09
1778782976.46036196,55644400,1,0.1,0.08,354.82,0.00031320194830186665,-0.000405625905841589,0.0002772498410195112,3.425668546697125e-05,-0.00036486066528595984,0.0004265891038812697,0.006211447529494762,0.02,0.02,-0.09,584.08
1778782976.56032205,55744360,0,0.1,0.09,354.81,0.0001557272917125374,1.607058038644027e-05,0.00029023908427916467,0.00010597013897495344,-0.0003815937670879066,0.0004769741208292544,-0.0036199206952005625,0.02,0.02,-0.09,584.09
1778782976.56032205,55744360,1,0.1,0.08,354.82,-1.2222285477037076e-05,-8.096127567114308e-05,0.00023627876362297684,2.5687120796646923e-05,-0.0004018170293420553,0.0004642509447876364,0.006222530733793974,0.02,0.02,-0.09,584.08
1778782976.66028214,55844320,0,0.1,0.09,354.81,-6.430114444810897e-05,0.00032513769110664725,0.00028696743538603187,8.999517740448937e-05,-0.00038737579598091543,0.0004991585738025606,-0.0036125462502241135,0.02,0.02,-0.09,584.09
1778782976.66028214,55844320,1,0.1,0.09,354.81,-0.0003311204200144857,0.0002643561747390777,0.00013510193093679845,-5.5589429393876344e-05,-0.00042271189158782363,0.00048445293214172125,0.006222416181117296,0.02,0.02,-0.09,584.08
1778782976.76024199,55944280,0,0.1,0.09,354.8,-0.00031203858088701963,0.0006827128236182034,0.00026842477382160723,4.0886749047786e-05,-0.0004297908744774759,0.0005655031418427825,-0.003602950368076563,0.02,0.02,-0.09,584.09
1778782976.76024199,55944280,1,0.1,0.09,354.81,-0.0005149903590790927,0.0005488063325174153,8.344711386598647e-05,-0.00012384788715280592,-0.00047838391037657857,0.00054582254961133,0.00621222797781229,0.02,0.02,-0.09,584.08
1778782976.86020207,56044240,0,0.1,0.09,354.8,-0.0006629259441979229,0.0010251279454678297,0.0002210918173659593,-1.2234442692715675e-05,-0.0004604415444191545,0.0006151481647975743,-0.0036006425507366657,0.02,0.02,-0.08,584.09
1778782976.86020207,56044240,1,0.1,0.09,354.81,-0.0007527346606366336,0.0008830666192807257,0.00010317136184312403,-6.218314229045063e-05,-0.0005122484872117639,0.0005864148261025548,0.006205114535987377,0.02,0.02,-0.08,584.08
1778782976.96016216,56144200,0,0.11,0.09,354.8,-0.000986974686384201,0.0014284357894212008,0.00023143275757320225,-2.5110695787589066e-05,-0.0005365689285099506,0.000713102228473872,-0.003600504482164979,0.02,0.02,-0.08,584.09
1778782976.96016216,56144200,1,0.1,0.09,354.8,-0.0010359545703977346,0.0012359515530988574,0.00014683570771012455,2.2561913283425383e-05,-0.000582222652155906,0.0006733270711265504,0.0062031373381614685,0.02,0.02,-0.08,584.08
1778782977.06012201,56244160,0,0.11,0.1,354.79,-0.0012972347903996706,0.0017689499072730541,0.00027385971043258905,3.989762262790464e-05,-0.0005957421381026506,0.0007871348061598837,-0.0035995696671307087,0.02,0.02,-0.08,584.09
1778782977.06012201,56244160,1,0.11,0.09,354.8,-0.001414813450537622,0.0014757008757442236,0.0001057900590240024,9.801378837437369e-06,-0.0006338390521705151,0.0007319263531826437,0.006201698910444975,0.02,0.02,-0.08,584.08
1778782977.16008210,56344120,0,0.11,0.1,354.79,-0.00166069355327636,0.00216083787381649,0.00024019689590204507,1.655246342124883e-05,-0.0006974666612222791,0.0009089643135666847,-0.003593898145481944,0.02,0.02,-0.08,584.09
1778782977.16008210,56344120,1,0.11,0.09,354.8,-0.0015946750063449144,0.0016938853077590466,0.00014814097085036337,5.618706200039014e-05,-0.0007231184863485396,0.0008281580521725118,0.006204426288604736,0.02,0.02,-0.08,584.08
1778782977.26004219,56444080,0,0.11,0.1,354.79,-0.001956335036084056,0.002514063846319914,0.00020089167810510844,-1.3080644748697523e-05,-0.0007759410655125976,0.001002760138362646,-0.003594048321247101,0.02,0.02,-0.08,584.09
1778782977.26004219,56444080,1,0.11,0.1,354.79,-0.001798687968403101,0.0020216379780322313,0.00017663228209130466,9.71672052401118e-05,-0.000789402227383107,0.0009023234015330672,0.006208600476384163,0.02,0.02,-0.08,584.08
1778782977.36000204,56544040,0,0.11,0.1,354.78,-0.0023410371504724026,0.002892943099141121,0.0002550588978920132,2.1167310478631407e-05,-0.0009013237431645393,0.0011471998877823353,-0.0035915591288357973,0.02,0.02,-0.08,584.09
1778782977.36000204,56544040,1,0.11,0.1,354.79,-0.0020991764031350613,0.0023230062797665596,0.00013340181612875313,5.8249657740816474e-05,-0.0008875945350155234,0.0010137095814570785,0.006217360962182283,0.02,0.02,-0.08,584.08
1778782977.46079516,56644833,0,0.11,0.1,354.78,-0.002636547898873687,0.0033086813054978848,0.00023052995675243437,4.41468546341639e-06,-0.0010001752525568008,0.0012615553569048643,-0.003590526757761836,0.02,0.02,-0.08,584.09
1778782977.46079516,56644833,1,0.11,0.1,354.78,-0.0024592888075858355,0.0026519347447901964,7.070331048453227e-05,-1.9341972802067176e-05,-0.000966601655818522,0.0011005604173988104,0.006220577750355005,0.02,0.02,-0.08,584.08
1778782977.56075501,56744793,0,0.12,0.1,354.77,-0.002958326367661357,0.0037246965803205967,0.00025307785836048424,3.496236968203448e-05,-0.0011393161257728934,0.0014312713174149394,-0.003587190294638276,0.02,0.02,-0.08,584.09
1778782977.56075501,56744793,1,0.11,0.1,354.78,-0.002823041519150138,0.0030302549712359905,8.766807150095701e-05,-2.2113068553153425e-05,-0.001097333268262446,0.0012350891483947635,0.006221902556717396,0.02,0.02,-0.08,584.08
1778782977.66071510,56844753,0,0.12,0.11,354.77,-0.0033046214375644922,0.004141650162637234,0.00026746586081571877,5.89448754908517e-05,-0.0012455320684239268,0.0015611066482961178,-0.003584155347198248,0.02,0.02,-0.08,584.09
1778782977.66071510,56844753,1,0.12,0.1,354.78,-0.003188082482665777,0.0034993612207472324,3.9862105040811e-05,-5.6423177738906816e-05,-0.0011990974890068173,0.0013367615174502134,0.006218240596354008,0.02,0.02,-0.08,584.08
1778782977.76067519,56944713,0,0.12,0.11,354.77,-0.003663810668513179,0.004579888191074133,0.00019726261962205172,-1.1615734365477692e-05,-0.0014023160329088569,0.001751458621583879,-0.003580692457035184,0.02,0.02,-0.08,584.09
1778782977.76067519,56944713,1,0.12,0.1,354.77,-0.003454737365245819,0.003996953833848238,7.405411452054977e-05,-9.311483154306188e-06,-0.0013430583057925105,0.0015116683207452297,0.006215172819793224,0.02,0.02,-0.08,584.08
1778782977.86063504,57044673,0,0.12,0.11,354.76,-0.003989048767834902,0.004999422002583742,0.00021021082648076117,5.516587407328188e-06,-0.0015218837652355433,0.0019003080669790506,-0.003582591423764825,0.02,0.02,-0.08,584.09
1778782977.86063504,57044673,1,0.12,0.11,354.77,-0.003877528477460146,0.0044555021449923515,0.0001204340805998072,5.4478401580126956e-05,-0.0014529209583997726,0.00165091163944453,0.006217590998858213,0.02,0.02,-0.08,584.08
1778782977.96059513,57144633,0,0.12,0.11,354.76,-0.004400024190545082,0.005496003199368715,0.00017093546921387315,-3.525929423631169e-05,-0.0016968233976513147,0.002117140218615532,-0.0035829455591738224,0.02,0.02,-0.08,584.09
1778782977.96059513,57144633,1,0.12,0.11,354.77,-0.004248139914125204,0.004857183899730444,0.00014390572323463857,9.037349809659645e-05,-0.0016257934039458632,0.001858945470303297,0.0062280273996293545,0.02,0.02,-0.08,584.08
1778782978.06055498,57244593,0,0.12,0.11,354.76,-0.004720809403806925,0.005819246638566256,0.0001229550689458847,-6.830667553003877e-05,-0.0018318408401682973,0.002279645763337612,-0.0035877623595297337,0.02,0.02,-0.08,584.09
1778782978.06055498,57244593,1,0.12,0.11,354.76,-0.004747088998556137,0.005300039891153574,3.768735041376203e-05,-3.6804663977818564e-05,-0.0017662743339315057,0.002014728495851159,0.006227288395166397,0.02,0.02,-0.08,584.08
1778782978.16051507,57344553,0,0.13,0.11,354.75,-0.005132109392434359,0.006318552885204554,0.00010283681331202388,-8.148277993313968e-05,-0.002026522997766733,0.002511765109375119,-0.0035941353999078274,0.02,0.02,-0.08,584.09
1778782978.16051507,57344553,1,0.12,0.11,354.76,-0.0051509360782802105,0.005821781698614359,5.5476972192991525e-05,-4.348261791164987e-05,-0.0019715314265340567,0.0022418417502194643,0.006221017800271511,0.02,0.02,-0.08,584.08
1778782978.26047516,57444513,0,0.13,0.12,354.75,-0.005471106618642807,0.006711248308420181,5.219266313361004e-05,-0.00010318688146071509,-0.002174793742597103,0.002688188571482897,-0.0036017228849232197,0.02,0.02,-0.08,584.09
1778782978.26047516,57444513,1,0.13,0.11,354.75,-0.005476972088217735,0.006218926981091499,-3.0020966732990928e-05,-0.00011176395491929725,-0.0021160608157515526,0.0024079817812889814,0.0062125627882778645,0.02,0.02,-0.08,584.08
1778782978.36043501,57544473,0,0.13,0.12,354.74,-0.005907504819333553,0.007205999922007322,2.5246241420973092e-05,-0.00010464658407727256,-0.002389436587691307,0.0029437809716910124,-0.0036112102679908276,0.02,0.02,-0.08,584.09
1778782978.36043501,57544473,1,0.13,0.12,354.75,-0.005894746631383896,0.00658442685380578,-2.9024849936831743e-05,-8.213416003854945e-05,-0.002345095854252577,0.00266248662956059,0.0062063816003501415,0.02,0.02,-0.08,584.08
1778782978.46039510,57644433,0,0.13,0.12,354.74,-0.006228376179933548,0.007513122633099556,5.3123363613849506e-05,-4.4372573029249907e-05,-0.0025508939288556576,0.003130177268758416,-0.0036184329073876143,0.02,0.02,-0.08,584.09
1778782978.46039510,57644433,1,0.13,0.12,354.75,-0.006220017559826374,0.007054799236357212,-6.173778820084408e-05,-8.491503831464797e-05,-0.0025183716788887978,0.002849541138857603,0.006196253001689911,0.02,0.02,-0.08,584.08
1778782978.56035519,57744393,0,0.13,0.12,354.74,-0.006642123218625784,0.00796275120228529,4.831769547308795e-05,-2.4604998543509282e-05,-0.002781548071652651,0.0033947164192795753,-0.003621598705649376,0.02,0.02,-0.08,584.09
1778782978.56035519,57744393,1,0.13,0.12,354.74,-0.006504318211227655,0.007536686025559902,-0.0001245481544174254,-0.0001303694152738899,-0.002745195757597685,0.0031188842840492725,0.006186609156429768,0.02,0.02,-0.08,584.08
1778782978.66031504,57844353,0,0.13,0.12,354.73,-0.006999396253377199,0.008342799730598927,2.3914775738376193e-05,-3.265741906943731e-05,-0.0029538150411099195,0.003587063867598772,-0.0036253316793590784,0.02,0.02,-0.08,584.09
1778782978.66031504,57844353,1,0.13,0.12,354.74,-0.006967928726226091,0.00809949915856123,-0.00016281171701848507,-0.00013002035848330706,-0.0029135074000805616,0.003327459329739213,0.006175826769322157,0.02,0.02,-0.08,584.08
1778782978.76027513,57944313,0,0.14,0.12,354.73,-0.007398958317935467,0.008799167349934578,6.409549678210169e-05,1.6447102098027244e-05,-0.003201922168955207,0.003867916064336896,-0.003626124933362007,0.02,0.02,-0.08,584.09
1778782978.76027513,57944313,1,0.13,0.12,354.73,-0.00741597032174468,0.00863119401037693,2.6117888410226442e-05,9.015110117616132e-05,-0.003162719076499343,0.0036318160127848387,0.006173800677061081,0.02,0.02,-0.07,584.08
1778782978.86023498,58044273,0,0.14,0.13,354.72,-0.007761253509670496,0.009186328388750553,5.680033427779563e-05,1.2716365745291114e-05,-0.0033841398544609547,0.0040701148100197315,-0.0036278292536735535,0.02,0.02,-0.07,584.09
1778782978.86023498,58044273,1,0.14,0.12,354.73,-0.0078021325170993805,0.009045682847499847,2.953970579255838e-05,0.00011023884871974587,-0.003351864404976368,0.0038598941173404455,0.006184742785990238,0.02,0.02,-0.07,584.08
1778782978.96019506,58144233,0,0.14,0.13,354.72,-0.00809081457555294,0.009677255526185036,5.5586511734873056e-05,1.1818455277534667e-05,-0.003636416979134083,0.004361377097666264,-0.003626900492236018,0.02,0.02,-0.07,584.09
1778782978.96019506,58144233,1,0.14,0.13,354.72,-0.008159463293850422,0.009515747427940369,-0.00014067803567741066,-4.859831096837297e-05,-0.003566068597137928,0.0041158488020300865,0.0061888378113508224,0.02,0.02,-0.07,584.08
1778782979.06015515,58244193,0,0.14,0.13,354.72,-0.008429018780589104,0.009991512633860111,6.1810489569325e-05,1.4154086784401443e-05,-0.0038206654135137796,0.004574213642627001,-0.003625390585511923,0.02,0.02,-0.07,584.09
1778782979.06015515,58244193,1,0.14,0.13,354.72,-0.00854481104761362,0.009982195682823658,-0.00018120255845133215,-0.00010291783110005781,-0.003782277926802635,0.0043751853518188,0.006178761832416058,0.02,0.02,-0.07,584.08
1778782979.16011500,58344153,0,0.14,0.13,354.71,-0.00883510522544384,0.010463874787092209,3.264055703766644e-05,-1.7738964743330143e-05,-0.004090665839612484,0.0048850467428565025,-0.0036265014205127954,0.02,0.02,-0.07,584.09
1778782979.16011500,58344153,1,0.14,0.13,354.72,-0.009016516618430614,0.010330433957278728,-0.00020884579862467945,-0.00013997773930896074,-0.004079591948539019,0.004717233590781689,0.006162249483168125,0.02,0.02,-0.07,584.08
1778782979.26007509,58444113,0,0.14,0.13,354.71,-0.009176737628877163,0.010859714820981026,9.326720828539692e-06,-3.9166814531199634e-05,-0.004283555317670107,0.005105399992316961,-0.003629387356340885,0.02,0.02,-0.07,584.09
1778782979.26007509,58444113,1,0.14,0.13,354.71,-0.009556696750223637,0.010607976466417313,-0.0003106597869191319,-0.00020138255786150694,-0.004302590154111385,0.004948758520185947,0.006151292473077774,0.02,0.02,-0.07,584.08
1778782979.36003518,58544073,0,0.15,0.13,354.7,-0.009564172476530075,0.01134409848600626,-1.4912204278516583e-05,-6.155174924060702e-05,-0.004566785413771868,0.005435425788164139,-0.0036337366327643394,0.02,0.02,-0.07,584.09
1778782979.36003518,58544073,1,0.14,0.13,354.71,-0.009920352138578892,0.01102602668106556,-0.0004419416654855013,-0.0002800805668812245,-0.00461882958188653,0.005273330491036177,0.006127800326794386,0.02,0.02,-0.07,584.08
1778782979.45999503,58644033,0,0.15,0.13,354.7,-0.009866621345281601,0.011744420044124126,-3.837042186205508e-07,-3.2092717447085306e-05,-0.004769459366798401,0.005674309097230434,-0.003638094523921609,0.02,0.02,-0.07,584.09
1778782979.45999503,58644033,1,0.14,0.13,354.7,-0.010311533696949482,0.011478766798973083,-0.0005380885559134185,-0.0003233661991544068,-0.004846797324717045,0.005495773628354073,0.0061012981459498405,0.02,0.02,-0.07,584.08
1778782979.56078815,58744826,0,0.15,0.14,354.7,-0.010317455977201462,0.012232040986418724,-3.167957402183674e-05,-5.0606151489773765e-05,-0.0050722029991447926,0.0060347625985741615,-0.003641970921307802,0.02,0.02,-0.07,584.09
1778782979.56078815,58744826,1,0.14,0.13,354.7,-0.01080996636301279,0.011885225772857666,-0.0005718504544347525,-0.0002944065781775862,-0.005192914512008429,0.005851692985743284,0.006067095324397087,0.02,0.02,-0.07,584.08
1778782979.66074800,58844786,0,0.15,0.14,354.69,-0.010682734660804272,0.012684850953519344,-1.0703740372264292e-05,-2.1565409042523243e-05,-0.005338678602129221,0.006348705384880304,-0.003644759999588132,0.02,0.02,-0.07,584.09
1778782979.66074800,58844786,1,0.14,0.13,354.7,-0.011131334118545055,0.01224595122039318,-0.0003825594612862915,-6.806626333855093e-05,-0.00548537215217948,0.006153598893433809,0.006047570146620274,0.02,0.02,-0.07,584.08
1778782979.76070809,58944746,0,0.15,0.14,354.69,-0.011052311398088932,0.013187911361455917,4.913933662464842e-05,4.4585616706172004e-05,-0.005620464216917753,0.006686019245535135,-0.0036448051687330008,0.02,0.02,-0.07,584.09
1778782979.76070809,58944746,1,0.15,0.14,354.69,-0.011419587768614292,0.012592162005603313,-0.00034392045927233994,5.8340319810668007e-05,-0.005778598599135876,0.006468247156590223,0.0060472311452031136,0.02,0.02,-0.07,584.08
1778782979.86066818,59044706,0,0.15,0.14,354.68,-0.011428815312683582,0.013623781502246857,4.884678855887614e-05,4.427394742378965e-05,-0.005874986294656992,0.006996140815317631,-0.0036403166595846415,0.02,0.02,-0.07,584.09
1778782979.86066818,59044706,1,0.15,0.14,354.69,-0.01171049103140831,0.012970929965376854,-0.00043380915303714573,-4.518159767030738e-05,-0.0060393004678189754,0.006744080688804388,0.006041667889803648,0.02,0.02,-0.07,584.08
1778782979.96062803,59144666,0,0.15,0.14,354.68,-0.01184825785458088,0.014015446417033672,6.718301301589236e-05,5.878896263311617e-05,-0.006157096475362778,0.007329175714403391,-0.003634953871369362,0.02,0.02,-0.07,584.09
1778782979.96062803,59144666,1,0.15,0.14,354.69,-0.012097353115677834,0.013246160931885242,-0.00048054775106720626,-9.332728222943842e-05,-0.006228857673704624,0.00694313645362854,0.00603113416582346,0.02,0.02,-0.07,584.08
1778782980.06058812,59244626,0,0.15,0.14,354.68,-0.01219379436224699,0.01447295118123293,7.695607928326353e-05,5.447168950922787e-05,-0.006416477728635073,0.007631227839738131,-0.0036307924892753363,0.02,0.02,-0.07,584.09
1778782980.06058812,59244626,1,0.15,0.14,354.68,-0.012515908107161522,0.013687863945960999,-0.0004195233341306448,-1.3628785382024944e-05,-0.006458627060055733,0.00717286579310894,0.0060250479727983475,0.02,0.02,-0.07,584.08
1778782980.16054797,59344586,0,0.16,0.14,354.67,-0.012525574304163456,0.014887981116771698,4.314165926189162e-05,1.9571402845031116e-06,-0.006696845404803753,0.007963504642248154,-0.003628572216257453,0.02,0.02,-0.07,584.09
1778782980.16054797,59344586,1,0.15,0.14,354.68,-0.012928193435072899,0.01419147476553917,-0.0003356400702614337,6.943922198843211e-05,-0.006801455747336149,0.007541924249380827,0.0060241008177399635,0.02,0.02,-0.07,584.08
1778782980.26050806,59444546,0,0.16,0.14,354.67,-0.012802950106561184,0.015290825627744198,5.623027846013429e-06,-4.427486419444904e-05,-0.006947520654648542,0.008266163058578968,-0.003631643718108535,0.02,0.02,-0.07,584.09
1778782980.26050806,59444546,1,0.15,0.14,354.67,-0.013274988159537315,0.014531494118273258,-0.00029372962308116257,9.296510688727722e-05,-0.0070321992971003056,0.007781429216265678,0.006028612144291401,0.02,0.02,-0.07,584.08
1778782980.36046815,59544506,0,0.16,0.15,354.66,-0.013105696067214012,0.015665780752897263,8.00264097051695e-05,1.751862328092102e-05,-0.007218349725008011,0.00860018189996481,-0.003632275154814124,0.02,0.02,-0.07,584.09
1778782980.36046815,59544506,1,0.15,0.14,354.67,-0.01353943720459938,0.014974690042436123,-0.0002215837885159999,0.00014560013369191438,-0.007374525535851717,0.008156577125191689,0.006040228996425867,0.02,0.02,-0.07,584.08
1778782980.46042800,59644466,0,0.16,0.15,354.66,-0.013422675430774689,0.016079168766736984,4.480023562791757e-05,-1.0293940249539446e-05,-0.007461312226951122,0.008899734355509281,-0.0036317582707852125,0.02,0.02,-0.07,584.09
1778782980.46042800,59644466,1,0.15,0.14,354.67,-0.013836297206580639,0.015359357930719852,-0.000221910813706927,0.00010115466284332797,-0.0075871990993618965,0.008399148471653461,0.006054283585399389,0.02,0.02,-0.07,584.08
1778782980.56038809,59744426,0,0.16,0.15,354.66,-0.013718984089791775,0.01646355539560318,-2.4380853574257344e-05,-7.333177927648649e-05,-0.007731971330940723,0.009232991375029087,-0.0036355305928736925,0.02,0.02,-0.07,584.09
1778782980.56038809,59744426,1,0.16,0.14,354.66,-0.014308148995041847,0.01580706238746643,-0.0002015673671849072,8.021428220672533e-05,-0.007931025698781013,0.00878666341304779,0.006063820794224739,0.02,0.02,-0.07,584.08
1778782980.66034818,59844386,0,0.16,0.15,354.65,-0.014012286439538002,0.016827283427119255,1.0365757589170244e-05,-2.396856143604964e-05,-0.00797354057431221,0.009531077928841114,-0.0036382260732352734,0.02,0.02,-0.07,584.09
1778782980.66034818,59844386,1,0.16,0.15,354.66,-0.014421017840504646,0.01602524146437645,-0.0002218630979768932,2.252598096674774e-05,-0.008072806522250175,0.00894694309681654,0.00607161084190011,0.02,0.02,-0.07,584.08
1778782980.76030803,59944346,0,0.16,0.15,354.65,-0.014308896847069263,0.017172351479530334,3.705474591697566e-05,1.6744150343583897e-05,-0.00824224017560482,0.00986137893050909,-0.003636381821706891,0.02,0.02,-0.07,584.09
1778782980.76030803,59944346,1,0.16,0.15,354.65,-0.014717691577970982,0.01644749939441681,-0.00023502988915424794,-3.173213917762041e-05,-0.008431579917669296,0.00936269760131836,0.006071378942579031,0.02,0.02,-0.07,584.08
1778782980.86026812,60044306,0,0.16,0.15,354.64,-0.014569850638508797,0.017497431486845016,3.6828205338679254e-05,1.2799992873624433e-05,-0.008479558862745762,0.010154040530323982,-0.003636793466284871,0.02,0.02,-0.07,584.09
1778782980.86026812,60044306,1,0.16,0.15,354.65,-0.015028432942926884,0.01662464812397957,-0.00012810621410608292,6.093508272897452e-05,-0.00864881556481123,0.009605667553842068,0.00607560109347105,0.02,0.02,-0.07,584.08
1778782980.96022797,60144266,0,0.16,0.15,354.64,-0.01487828977406025,0.017873425036668777,6.633344310102984e-05,2.8968956030439585e-05,-0.008747314102947712,0.010480411350727081,-0.003635846544057131,0.02,0.02,-0.07,584.09
1778782980.96022797,60144266,1,0.16,0.15,354.65,-0.015278204344213009,0.017033778131008148,-0.00028545886743813753,-8.825265103951097e-05,-0.008989752270281315,0.009991059079766273,0.006075210403650999,0.02,0.02,-0.07,584.08
1778782981.06018806,60244226,0,0.16,0.15,354.64,-0.01517266035079956,0.01814255677163601,5.640764720737934e-05,1.70385064848233e-05,-0.008974681608378887,0.010752646252512932,-0.0036335992626845837,0.02,0.02,-0.06,584.09
1778782981.06018806,60244226,1,0.16,0.15,354.64,-0.015374129638075829,0.017391666769981384,-0.0003641833027359098,-0.0001756249985191971,-0.009162567555904388,0.010199308395385742,0.00606554327532649,0.02,0.02,-0.06,584.08
1778782981.16014814,60344186,0,0.16,0.15,354.63,-0.01544932834804058,0.018486572429537773,9.488050523032143e-07,-4.028760304208845e-05,-0.009242728352546692,0.011074730195105076,-0.0036345322150737047,0.02,0.02,-0.06,584.09
1778782981.16014814,60344186,1,0.16,0.15,354.64,-0.015693215653300285,0.017864687368273735,-0.00042204491910524666,-0.00024370374740101397,-0.00948008056730032,0.01059024129062891,0.006044256035238504,0.02,0.02,-0.06,584.08
1778782981.26010799,60444146,0,0.16,0.15,354.63,-0.015657197684049606,0.018799256533384323,2.173159600715735e-06,-3.2101026590680704e-05,-0.009474890306591988,0.011355821043252945,-0.003637980669736862,0.02,0.02,-0.06,584.09
1778782981.26010799,60444146,1,0.16,0.15,354.64,-0.016035350039601326,0.018156545236706734,-0.00038666254840791225,-0.0001621036499273032,-0.009657005779445171,0.010813808999955654,0.006027589552104473,0.02,0.02,-0.06,584.08
1778782981.36006808,60544106,0,0.17,0.15,354.62,-0.01586003229022026,0.019151529297232628,-6.272629434533883e-06,-3.5142540582455695e-05,-0.009732730686664581,0.01167228538542986,-0.0036421199329197407,0.02,0.02,-0.06,584.09
1778782981.36006808,60544106,1,0.16,0.15,354.63,-0.01627933420240879,0.018321871757507324,-0.0004239754343871027,-0.00014426725101657212,-0.009873125702142715,0.011071773245930672,0.00601185904815793,0.02,0.02,-0.06,584.08
1778782981.46002817,60644066,0,0.17,0.15,354.62,-0.016002262011170387,0.019272349774837494,1.2329653031883936e-07,-1.8567125152912922e-05,-0.009770169854164124,0.011727575212717056,-0.0036451967898756266,0.02,0.02,-0.06,584.09
1778782981.46002817,60644066,1,0.16,0.15,354.63,-0.016519155353307724,0.018502019345760345,-0.0004175865324214101,-0.00012325281568337232,-0.0100993812084198,0.011329442262649536,0.005998620763421059,0.02,0.02,-0.06,584.08
1778782981.55998802,60744026,0,0.17,0.15,354.62,-0.01627739705145359,0.01961052231490612,-6.246282282518223e-06,-1.6235990187851712e-05,-0.010082753375172615,0.01210920512676239,-0.0036447900347411633,0.02,0.02,-0.06,584.09
1778782981.55998802,60744026,1,0.16,0.15,354.62,-0.01667339727282524,0.01889127306640148,-0.00040849705692380667,-7.421906047966331e-05,-0.010451971553266048,0.011731978505849838,0.005988601129502058,0.02,0.02,-0.06,584.08
1778782981.66078115,60844819,0,0.17,0.15,354.61,-0.016573399305343628,0.019943827763199806,-0.04822260141372681,-0.04843434691429138,-0.010255242697894573,0.012323056347668171,-0.005640965420752764,0.02,0.02,-0.06,584.09
1778782981.66078115,60844819,1,0.16,0.15,354.62,-0.01685946434736252,0.019341889768838882,-0.04860138148069382,-0.048534490168094635,-0.010652909055352211,0.011990169994533062,0.003985741175711155,0.02,0.02,-0.06,584.08
1778782981.76074100,60944779,0,0.17,0.15,354.61,-0.01696718856692314,0.020447444170713425,-0.10511399060487747,-0.10612834990024567,-0.01058091688901186,0.01271896343678236,-0.013438591733574867,0.02,0.02,-0.06,584.09
1778782981.76074100,60944779,1,0.16,0.15,354.62,-0.01719869114458561,0.019834203645586967,-0.10543103516101837,-0.1060352623462677,-0.010980875231325626,0.012398917227983475,-0.003804184263572097,0.02,0.02,-0.06,584.08
1778782981.86070108,61044739,0,0.17,0.16,354.6,-0.017208509147167206,0.02077595703303814,-0.16011829674243927,-0.15941402316093445,-0.01074640080332756,0.01292787678539753,-0.02663140743970871,0.02,0.02,-0.06,584.09
1778782981.86070108,61044739,1,0.16,0.15,354.61,-0.017456429079174995,0.020322198048233986,-0.16029976308345795,-0.15885953605175018,-0.011244194582104683,0.012749532237648964,-0.01696684956550598,0.02,0.02,-0.06,584.08
1778782981.96066117,61144699,0,0.17,0.16,354.6,-0.017545346170663834,0.021180616691708565,-0.21295353770256042,-0.21013516187667847,-0.011077812872827053,0.013337835669517517,-0.04512634500861168,0.02,0.02,-0.06,584.09
1778782981.96066117,61144699,1,0.16,0.15,354.61,-0.017781026661396027,0.020739542320370674,-0.21265414357185364,-0.20816300809383392,-0.011520599015057087,0.013120163232088089,-0.03528391942381859,0.02,0.02,-0.06,584.08
1778782982.06062102,61244659,0,0.17,0.16,354.6,-0.01774250902235508,0.021407481282949448,-0.2680254578590393,-0.2650519609451294,-0.011235798709094524,0.013535219244658947,-0.06894925236701965,0.02,0.02,-0.06,584.09
1778782982.06062102,61244659,1,0.16,0.15,354.6,-0.017920343205332756,0.021151211112737656,-0.2673962414264679,-0.26257452368736267,-0.01173511240631342,0.013430888764560223,-0.05889340117573738,0.02,0.02,-0.06,584.08
1778782982.16058111,61344619,0,0.17,0.16,354.59,-0.018045801669359207,0.021836407482624054,-0.32701024413108826,-0.32422155141830444,-0.011560561135411263,0.013936168514192104,-0.09853963553905487,0.02,0.02,-0.06,584.09
1778782982.16058111,61344619,1,0.16,0.15,354.6,-0.018103091046214104,0.021460620686411858,-0.32594308257102966,-0.3208425045013428,-0.011966555379331112,0.013768628239631653,-0.08817628026008606,0.02,0.02,-0.06,584.08
1778782982.26054096,61444579,0,0.12,0.11,354.59,-0.018292484804987907,0.02210206165909767,-0.46554115414619446,-0.46312740445137024,-0.01170789822936058,0.014120858162641525,-0.1352158486843109,0.02,0.02,-0.06,584.09
1778782982.26054096,61444579,1,0.11,0.1,354.6,-0.01843913085758686,0.021852554753422737,-0.4648163616657257,-0.4602949619293213,-0.012157853692770004,0.01404496654868126,-0.12454557418823242,0.02,0.02,-0.06,584.08
1778782982.36050105,61544539,0,-0.05,-0.06,354.59,-0.01733742468059063,0.020926717668771744,-0.9579259157180786,-0.9516344666481018,-0.011992822401225567,0.014470241032540798,-0.206898033618927,0.02,0.02,-0.06,584.09
1778782982.36050105,61544539,1,-0.06,-0.06,354.6,-0.017196016386151314,0.02040703222155571,-0.9581923484802246,-0.9497221112251282,-0.012174129486083984,0.014114676974713802,-0.19598090648651123,0.02,0.02,-0.06,584.08
1778782982.46046114,61644499,0,-0.18,-0.19,354.59,-0.0142713887616992,0.017114738002419472,-1.2184964418411255,-1.2207199335098267,-0.011839942075312138,0.014263171702623367,-0.3190747797489166,0.02,0.02,-0.06,584.09
1778782982.46046114,61644499,1,-0.19,-0.19,354.6,-0.014200187288224697,0.016620146110653877,-1.2182812690734863,-1.2098238468170166,-0.012001522816717625,0.013920140452682972,-0.30682021379470825,0.02,0.02,-0.06,584.08
1778782982.56042099,61744459,0,-0.23,-0.24,354.6,-0.00978180579841137,0.011574783362448215,-1.2408844232559204,-1.2553499937057495,-0.011451064608991146,0.013754033483564854,-0.44466444849967957,0.02,0.02,-0.06,584.09
1778782982.56042099,61744459,1,-0.23,-0.24,354.61,-0.009768894873559475,0.011076190508902073,-1.2397621870040894,-1.2347536087036133,-0.011599775403738022,0.013405398465692997,-0.43074047565460205,0.02,0.02,-0.06,584.08
1778782982.66038108,61844419,0,-0.22,-0.22,354.6,-0.0040877931751310825,0.004500965122133493,-1.1806221008300781,-1.1749160289764404,-0.01033614482730627,0.012325385585427284,-0.5639172196388245,0.02,0.03,-0.06,584.09
1778782982.66038108,61844419,1,-0.22,-0.23,354.61,-0.004021879285573959,0.004045157693326473,-1.178892731666565,-1.157849669456482,-0.010473240166902542,0.011984054930508137,-0.5488659143447876,0.02,0.03,-0.06,584.08
1778782982.76034117,61944379,0,-0.16,-0.16,354.61,0.0013157681096345186,-0.0022810851223766804,-1.1539217233657837,-1.128641128540039,-0.008818472735583782,0.010379696264863014,-0.6782787442207336,0.02,0.03,-0.06,584.09
1778782982.76034117,61944379,1,-0.16,-0.16,354.62,0.0014599909773096442,-0.002768868114799261,-1.1519241333007812,-1.1205390691757202,-0.008929111063480377,0.010031979531049728,-0.6625208258628845,0.02,0.02,-0.06,584.08
1778782982.86030102,62044339,0,-0.06,-0.07,354.61,0.005486789625138044,-0.007470398675650358,-1.1922006607055664,-1.191654086112976,-0.006682815030217171,0.007671372499316931,-0.796116054058075,0.02,0.03,-0.06,584.09
1778782982.86030102,62044339,1,-0.07,-0.07,354.62,0.00577373243868351,-0.00799535121768713,-1.190114140510559,-1.1897751092910767,-0.006760255433619022,0.007318904157727957,-0.7799875140190125,0.02,0.03,-0.06,584.08
1778782982.96026111,62144299,0,0.04,0.03,354.61,0.007513225544244051,-0.010063969530165195,-1.2757928371429443,-1.301842212677002,-0.004431017208844423,0.004809459205716848,-0.9216814041137695,0.02,0.03,-0.06,584.09
1778782982.96026111,62144299,1,0.03,0.02,354.62,0.007837684825062752,-0.010644776746630669,-1.2737605571746826,-1.3027418851852417,-0.00446508452296257,0.0044356598518788815,-0.9054213762283325,0.02,0.03,-0.06,584.08
1778782983.06022120,62244259,0,0.13,0.11,354.61,0.007897747680544853,-0.010609343647956848,-1.3758881092071533,-1.4127709865570068,-0.0020084180869162083,0.0015264434041455388,-1.0572888851165771,0.02,0.03,-0.06,584.09
1778782983.06022120,62244259,1,0.12,0.11,354.62,0.008256587199866772,-0.01120670698583126,-1.3738669157028198,-1.416142463684082,-0.0019188380101695657,0.0010336283594369888,-1.0412399768829346,0.02,0.03,-0.06,584.08
1778782983.16018105,62344219,0,0.19,0.17,354.61,0.006948619149625301,-0.0093965083360672,-1.4769349098205566,-1.518249273300171,0.00016945974493864924,-0.0015068097272887826,-1.2022520303726196,0.02,0.03,-0.06,584.09
1778782983.16018105,62344219,1,0.19,0.16,354.62,0.0073294988833367825,-0.009927927516400814,-1.4748802185058594,-1.5202373266220093,0.00022845868079457432,-0.0019301708089187741,-1.1861637830734253,0.02,0.03,-0.06,584.08
1778782983.26014113,62444179,0,0.24,0.22,354.61,0.005256876815110445,-0.007244850508868694,-1.5760250091552734,-1.61453378200531,0.0025067240931093693,-0.004736887291073799,-1.3581621646881104,0.02,0.03,-0.06,584.09
1778782983.26014113,62444179,1,0.24,0.21,354.62,0.005692706909030676,-0.0076966313645243645,-1.574090838432312,-1.6148208379745483,0.002548942109569907,-0.005097832065075636,-1.3420279026031494,0.02,0.03,-0.06,584.08
1778782983.36010098,62544139,0,0.28,0.26,354.61,0.0027071903459727764,-0.004020497668534517,-1.6754462718963623,-1.7097792625427246,0.004502188879996538,-0.007504623848944902,-1.5239423513412476,0.02,0.03,-0.06,584.09
1778782983.36010098,62544139,1,0.28,0.25,354.62,0.0031624736730009317,-0.004528053570538759,-1.6734827756881714,-1.710391879081726,0.004554539918899536,-0.007839781232178211,-1.5078473091125488,0.02,0.03,-0.06,584.08
1778782983.46006107,62644099,0,0.31,0.28,354.61,-0.0001640284899622202,-0.0004332908720243722,-1.776551365852356,-1.8093336820602417,0.006366397719830275,-0.010312001220881939,-1.6997076272964478,0.02,0.03,-0.06,584.09
1778782983.46006107,62644099,1,0.31,0.27,354.62,0.00014789841952733696,-0.000814427447039634,-1.7745158672332764,-1.810585618019104,0.0064181555062532425,-0.010619862005114555,-1.6837210655212402,0.02,0.03,-0.05,584.08
1778782983.56002116,62744059,0,0.33,0.29,354.61,-0.003494241274893284,0.0037657981738448143,-1.881259560585022,-1.9139045476913452,0.007735281717032194,-0.012520868331193924,-1.8874067068099976,0.02,0.03,-0.05,584.09
1778782983.56002116,62744059,1,0.32,0.29,354.62,-0.003257135860621929,0.0033928193151950836,-1.8784997463226318,-1.9150687456130981,0.0077850837260484695,-0.012815835885703564,-1.8699895143508911,0.02,0.03,-0.05,584.08
1778782983.66081405,62844852,0,0.33,0.29,354.61,-0.006562008522450924,0.007913043722510338,-1.9871538877487183,-2.020037889480591,0.009159154258668423,-0.014722462743520737,-2.0856332778930664,0.02,0.03,-0.05,584.09
1778782983.66081405,62844852,1,0.33,0.29,354.62,-0.0065376367419958115,0.00772881181910634,-1.9853485822677612,-2.0221002101898193,0.009186506271362305,-0.014986658468842506,-2.0699548721313477,0.02,0.03,-0.05,584.08
1778782983.76077414,62944812,0,0.34,0.29,354.61,-0.009698012843728065,0.012160941027104855,-2.0924267768859863,-2.1246368885040283,0.010156105272471905,-0.016285311430692673,-2.2928225994110107,0.02,0.03,-0.05,584.09
1778782983.76077414,62944812,1,0.34,0.29,354.62,-0.009453140199184418,0.011908692307770252,-2.090735912322998,-2.1278769969940186,0.010342475026845932,-0.01675863191485405,-2.2777414321899414,0.02,0.03,-0.05,584.08
1778782983.86073399,63044772,0,0.33,0.29,354.61,-0.012587063945829868,0.016129352152347565,-2.1977226734161377,-2.2293829917907715,0.011089527048170567,-0.01769654080271721,-2.510476589202881,0.02,0.03,-0.05,584.09
1778782983.86073399,63044772,1,0.33,0.29,354.62,-0.012532109394669533,0.015951531007885933,-2.1959311962127686,-2.2315001487731934,0.011202946305274963,-0.018062010407447815,-2.4955568313598633,0.02,0.03,-0.05,584.08
1778782983.96069407,63144732,0,0.32,0.28,354.61,-0.015322388149797916,0.0200908612459898,-2.3015291690826416,-2.33341121673584,0.011551887728273869,-0.018424779176712036,-2.7386906147003174,0.02,0.03,-0.05,584.09
1778782983.96069407,63144732,1,0.32,0.27,354.62,-0.01537827868014574,0.019835365936160088,-2.2998099327087402,-2.334768772125244,0.011613440699875355,-0.01872854307293892,-2.723973274230957,0.02,0.03,-0.05,584.08
1778782984.06065416,63244692,0,0.31,0.27,352.67,-0.017533279955387115,0.023507699370384216,-2.38889479637146,-2.420412302017212,0.011943178251385689,-0.01900043524801731,-2.976489543914795,0.02,0.03,-0.05,584.09
1778782984.06065416,63244692,1,0.31,0.26,352.68,-0.017547762021422386,0.023210952058434486,-2.3872292041778564,-2.4224438667297363,0.011979524046182632,-0.019279183819890022,-2.961968183517456,0.02,0.03,-0.05,584.08
1778782984.16061401,63344652,0,0.3,0.27,352.67,-0.019570430740714073,0.026802757754921913,-2.4515511989593506,-2.4796152114868164,0.011918192729353905,-0.018936796113848686,-3.2214646339416504,0.02,0.03,-0.05,584.09
1778782984.16061401,63344652,1,0.3,0.26,352.68,-0.01955281011760235,0.026630835607647896,-2.4499571323394775,-2.4880177974700928,0.011933634988963604,-0.01919105276465416,-3.207548141479492,0.02,0.03,-0.05,584.08
1778782984.26057410,63444612,0,0.28,0.26,352.67,-0.021441958844661713,0.029496360570192337,-2.4935083389282227,-2.5167319774627686,0.011747358366847038,-0.018598468974232674,-3.471064805984497,0.02,0.03,-0.05,584.09
1778782984.26057410,63444612,1,0.27,0.26,352.68,-0.021546626463532448,0.029303839430212975,-2.4921212196350098,-2.528998374938965,0.0117317670956254,-0.018822230398654938,-3.4581849575042725,0.02,0.03,-0.05,584.08
1778782984.36053419,63544572,0,0.25,0.25,352.68,-0.023146213963627815,0.03168193995952606,-2.5192816257476807,-2.5361602306365967,0.011364012025296688,-0.01794198714196682,-3.7236108779907227,0.02,0.03,-0.05,584.09
1778782984.36053419,63544572,1,0.25,0.24,352.69,-0.02332201413810253,0.031616877764463425,-2.5179336071014404,-2.5455963611602783,0.01132434606552124,-0.018147043883800507,-3.711453676223755,0.02,0.03,-0.05,584.08
1778782984.46049404,63644532,0,0.23,0.23,352.69,-0.02449510060250759,0.03324589878320694,-2.5326616764068604,-2.5477893352508545,0.010850483551621437,-0.017158063128590584,-3.977905511856079,0.02,0.03,-0.05,584.09
1778782984.46049404,63644532,1,0.23,0.23,352.7,-0.024717794731259346,0.033332303166389465,-2.531520366668701,-2.554378032684326,0.010789536871016026,-0.017335478216409683,-3.966355085372925,0.02,0.03,-0.05,584.08
1778782984.56045413,63744492,0,0.22,0.22,352.7,-0.025565622374415398,0.03439844027161598,-2.5370407104492188,-2.5513195991516113,0.010167472064495087,-0.01619148999452591,-4.233006954193115,0.02,0.03,-0.05,584.09
1778782984.56045413,63744492,1,0.22,0.21,352.71,-0.02583359368145466,0.0344584584236145,-2.5359866619110107,-2.556330680847168,0.010087224654853344,-0.01634107530117035,-4.221981048583984,0.02,0.03,-0.05,584.08
1778782984.66041398,63844452,0,0.21,0.21,352.71,-0.026360198855400085,0.035151444375514984,-2.535299062728882,-2.551093101501465,0.00944450218230486,-0.015181846916675568,-4.4882283210754395,0.02,0.03,-0.05,584.09
1778782984.66041398,63844452,1,0.2,0.2,352.72,-0.0266499575227499,0.03524041175842285,-2.5343360900878906,-2.554971933364868,0.009343426674604416,-0.015311794355511665,-4.477645397186279,0.02,0.03,-0.05,584.08
1778782984.76037407,63944412,0,0.2,0.2,352.72,-0.02697022631764412,0.035724371671676636,-2.529555320739746,-2.545184373855591,0.00862538069486618,-0.014061241410672665,-4.7430033683776855,0.02,0.03,-0.05,584.09
1778782984.76037407,63944412,1,0.2,0.19,352.72,-0.02715693973004818,0.035739436745643616,-2.5288195610046387,-2.5486347675323486,0.008691336959600449,-0.014406109228730202,-4.733067035675049,0.02,0.03,-0.05,584.08
1778782984.86033416,64044372,0,0.18,0.17,352.72,-0.027258021757006645,0.03587576374411583,-2.5214855670928955,-2.537665605545044,0.0077979182824492455,-0.01297615747898817,-4.9970927238464355,0.03,0.03,-0.05,584.09
1778782984.86033416,64044372,1,0.18,0.17,352.73,-0.02745768055319786,0.03593239188194275,-2.5209574699401855,-2.546132802963257,0.007774924859404564,-0.013202267698943615,-4.987888336181641,0.02,0.03,-0.05,584.08
1778782984.96029401,64144332,0,0.17,0.15,352.72,-0.02699490636587143,0.035707905888557434,-2.5124857425689697,-2.529062271118164,0.006941998843103647,-0.011864430271089077,-5.2503557205200195,0.03,0.03,-0.05,584.09
1778782984.96029401,64144332,1,0.17,0.14,352.73,-0.027248689904808998,0.035757627338171005,-2.5122158527374268,-2.540661096572876,0.006864587310701609,-0.012012981809675694,-5.242227554321289,0.02,0.03,-0.05,584.08
1778782985.06025410,64244292,0,0.16,0.14,352.72,-0.026346834376454353,0.03513547405600548,-2.5028953552246094,-2.5197641849517822,0.006196563597768545,-0.010884041897952557,-5.502660274505615,0.03,0.03,-0.05,584.09
1778782985.06025410,64244292,1,0.15,0.13,352.73,-0.02676386572420597,0.03513077273964882,-2.5027050971984863,-2.5289177894592285,0.006066400557756424,-0.010982914827764034,-5.49525785446167,0.02,0.03,-0.05,584.08
1778782985.16021419,64344252,0,0.15,0.14,352.72,-0.025691114366054535,0.034318748861551285,-2.49446964263916,-2.510568857192993,0.005501601379364729,-0.00995972566306591,-5.753992557525635,0.03,0.03,-0.05,584.09
1778782985.16021419,64344252,1,0.14,0.13,352.72,-0.026055896654725075,0.03425440192222595,-2.4943044185638428,-2.5156893730163574,0.005332780070602894,-0.010032246820628643,-5.747062683105469,0.02,0.03,-0.05,584.08
1778782985.26017404,64444212,0,0.14,0.14,352.71,-0.024945063516497612,0.03321024402976036,-2.4871678352355957,-2.502671480178833,0.004958696197718382,-0.00927331019192934,-6.002408027648926,0.03,0.03,-0.05,584.09
1778782985.26017404,64444212,1,0.14,0.13,352.72,-0.025229427963495255,0.03322211652994156,-2.487018346786499,-2.505007028579712,0.004768433514982462,-0.00933303777128458,-5.995768070220947,0.02,0.03,-0.05,584.08
1778782985.36013412,64544172,0,0.15,0.13,352.71,-0.024102002382278442,0.03207852691411972,-2.481062173843384,-2.4959781169891357,0.004461351782083511,-0.008668717928230762,-6.2522149085998535,0.03,0.03,-0.05,584.09
1778782985.36013412,64544172,1,0.15,0.13,352.72,-0.024317558854818344,0.03221942484378815,-2.480933427810669,-2.4965884685516357,0.004261945374310017,-0.008715872652828693,-6.245731830596924,0.02,0.03,-0.05,584.08
1778782985.46009398,64644132,0,0.16,0.14,352.72,-0.023048236966133118,0.031011691316962242,-2.4758453369140625,-2.4900317192077637,0.004127586260437965,-0.008253248408436775,-6.501338481903076,0.03,0.03,-0.05,584.09
1778782985.46009398,64644132,1,0.15,0.13,352.72,-0.02301747351884842,0.030927378684282303,-2.4758267402648926,-2.490454912185669,0.0042145345360040665,-0.008651215583086014,-6.495077610015869,0.02,0.03,-0.05,584.08
1778782985.56005406,64744092,0,0.16,0.15,352.72,-0.0222455020993948,0.03003338910639286,-2.472787380218506,-2.485287666320801,0.00388077343814075,-0.00791166815906763,-6.7499308586120605,0.03,0.03,-0.05,584.09
1778782985.56005406,64744092,1,0.16,0.15,352.73,-0.02220260538160801,0.030203135684132576,-2.4729151725769043,-2.487821340560913,0.003875614143908024,-0.00813994463533163,-6.7439656257629395,0.02,0.03,-0.05,584.08
1778782985.66001415,64844052,0,0.17,0.17,352.72,-0.02162155695259571,0.02922375500202179,-2.470381259918213,-2.481874942779541,0.0037234399933367968,-0.00768446596339345,-7.000196933746338,0.03,0.03,-0.05,584.09
1778782985.66001415,64844052,1,0.17,0.16,352.72,-0.021605387330055237,0.029428057372570038,-2.470581531524658,-2.4835729598999023,0.0036734456662088633,-0.007807782851159573,-6.992310523986816,0.02,0.03,-0.05,584.08
1778782985.76080704,64944845,0,0.17,0.18,352.72,-0.02107802778482437,0.02822214365005493,-2.4683728218078613,-2.479111433029175,0.0037881715688854456,-0.007759667932987213,-7.250346660614014,0.03,0.03,-0.05,584.09
1778782985.76080704,64944845,1,0.17,0.17,352.73,-0.02120055817067623,0.02873547375202179,-2.468467950820923,-2.4787020683288574,0.0034873292315751314,-0.007495358120650053,-7.244369983673096,0.02,0.03,-0.05,584.08
1778782985.86076713,65044805,0,0.18,0.18,352.72,-0.020879147574305534,0.027588915079832077,-2.467832088470459,-2.4810354709625244,0.0036475122906267643,-0.0076232473365962505,-7.4984450340271,0.03,0.03,-0.05,584.09
1778782985.86076713,65044805,1,0.18,0.18,352.73,-0.02079581655561924,0.02772972360253334,-2.467876672744751,-2.4766650199890137,0.003659255336970091,-0.007743369322270155,-7.492079257965088,0.02,0.03,-0.05,584.08
1778782985.96072698,65144765,0,0.19,0.19,352.71,-0.0207685437053442,0.02714812383055687,-2.4685139656066895,-2.4845502376556396,0.0034977097529917955,-0.007518243510276079,-7.74678897857666,0.03,0.03,-0.05,584.09
1778782985.96072698,65144765,1,0.19,0.19,352.72,-0.0207260362803936,0.027462204918265343,-2.468358039855957,-2.4780361652374268,0.0034489899408072233,-0.00752674276009202,-7.739965438842773,0.02,0.03,-0.05,584.08
1778782986.06068707,65244725,0,0.2,0.2,352.71,-0.020704714581370354,0.02693229354918003,-2.469374895095825,-2.487586736679077,0.0033807738218456507,-0.007483292371034622,-7.995272159576416,0.03,0.03,-0.05,584.09
1778782986.06068707,65244725,1,0.2,0.19,352.72,-0.020730940625071526,0.02720164693892002,-2.469182014465332,-2.4824306964874268,0.0032894990872591734,-0.007410132326185703,-7.988093376159668,0.02,0.03,-0.05,584.08
1778782986.16064715,65344685,0,0.21,0.2,352.7,-0.02073885127902031,0.026910757645964622,-2.4706852436065674,-2.488762378692627,0.003221496706828475,-0.00739730428904295,-8.24389362335205,0.03,0.03,-0.05,584.09
1778782986.16064715,65344685,1,0.21,0.19,352.71,-0.020712275058031082,0.027236612513661385,-2.4704787731170654,-2.4853739738464355,0.0031090201810002327,-0.007270818576216698,-8.236441612243652,0.02,0.03,-0.05,584.08
1778782986.26060700,65444645,0,0.22,0.2,352.7,-0.020743612200021744,0.027092058211565018,-2.4718644618988037,-2.4903228282928467,0.003055756678804755,-0.007134560961276293,-8.492677688598633,0.03,0.03,-0.05,584.09
1778782986.26060700,65444645,1,0.22,0.2,352.71,-0.02070082537829876,0.02757076919078827,-2.4717304706573486,-2.488090991973877,0.0029376966413110495,-0.006970831658691168,-8.484994888305664,0.02,0.03,-0.05,584.08
1778782986.36056709,65544605,0,0.23,0.2,352.7,-0.020765528082847595,0.02754148095846176,-2.4730355739593506,-2.4908885955810547,0.002822715090587735,-0.00664841802790761,-8.74156665802002,0.03,0.03,-0.05,584.09
1778782986.36056709,65544605,1,0.23,0.2,352.71,-0.02081376686692238,0.027966808527708054,-2.472805976867676,-2.4890284538269043,0.002704768441617489,-0.006459568627178669,-8.733677864074707,0.02,0.03,-0.05,584.08
1778782986.46052718,65644565,0,0.23,0.21,352.71,-0.020821603015065193,0.02813296765089035,-2.4740965366363525,-2.491976261138916,0.00257158768363297,-0.0058708833530545235,-8.990519523620605,0.03,0.03,-0.05,584.09
1778782986.46052718,65644565,1,0.23,0.2,352.71,-0.0208544060587883,0.02869398333132267,-2.473828077316284,-2.4900565147399902,0.0024552622344344854,-0.005663391202688217,-8.982441902160645,0.02,0.03,-0.05,584.08
1778782986.56048703,65744525,0,0.23,0.21,352.71,-0.020897729322314262,0.02886064723134041,-2.4750123023986816,-2.491912603378296,0.00223583378829062,-0.0047990428283810616,-9.239533424377441,0.03,0.03,-0.05,584.09
1778782986.56048703,65744525,1,0.22,0.2,352.72,-0.021056439727544785,0.029499897733330727,-2.4746875762939453,-2.490943193435669,0.0021106661297380924,-0.004561890382319689,-9.231266975402832,0.02,0.03,-0.05,584.08
