timestamp,TimeUS,I,Alt,AltAMSL,Press,Temp,CRt,SMS,Offset,GndTemp,H,CPress
1778627314.43998408,54645633,0,0.00372314453125,584.0936889648438,94502.828125,30.2,0.0,54645,0.0,28.02182960510254,1,94502.828125
1778627314.43998408,54645633,1,0.0540771484375,584.14404296875,94500.984375,30.2,0.0,54645,0.0,28.02182960510254,1,94500.984375
1778627314.53994417,54745593,0,0.00372314453125,584.0936889648438,94502.828125,30.2,0.0,54745,0.0,28.02182960510254,1,94502.828125
1778627314.53994417,54745593,1,-0.29022216796875,583.7997436523438,94504.890625,30.2,0.0,54745,0.0,28.02182960510254,1,94504.890625
1778627314.63990402,54845553,0,0.00372314453125,584.0936889648438,94502.828125,30.21,0.0,54845,0.0,28.02182960510254,1,94502.828125
1778627314.63990402,54845553,1,0.02130126953125,584.1112670898438,94501.3515625,30.21,0.0,54845,0.0,28.02182960510254,1,94501.3515625
1778627314.73986411,54945513,0,0.00372314453125,584.0936889648438,94502.828125,30.21,0.0,54945,0.0,28.02182960510254,1,94502.828125
1778627314.73986411,54945513,1,0.05694580078125,584.1469116210938,94500.953125,30.21,0.0,54945,0.0,28.02182960510254,1,94500.953125
1778627314.83982420,55045473,0,0.00372314453125,584.0936889648438,94502.828125,30.21,0.0,55045,0.0,28.02182960510254,1,94502.828125
1778627314.83982420,55045473,1,-0.11102294921875,583.9789428710938,94502.859375,30.21,0.0,55045,0.0,28.02182960510254,1,94502.859375
1778627314.93978405,55145433,0,0.00372314453125,584.0936889648438,94502.828125,30.22,0.0,55145,0.0,28.02182960510254,1,94502.828125
1778627314.93978405,55145433,1,-0.08758544921875,584.0023803710938,94502.59375,30.22,0.0,55145,0.0,28.02182960510254,1,94502.59375
1778627315.03974414,55245393,0,0.00372314453125,584.0936889648438,94502.828125,30.22,0.0,55245,0.0,28.02182960510254,1,94502.828125
1778627315.03974414,55245393,1,-0.22283935546875,583.8671264648438,94504.1328125,30.22,0.0,55245,0.0,28.02182960510254,1,94504.1328125
1778627315.13970399,55345353,0,0.00372314453125,584.0936889648438,94502.828125,30.22,0.0,55345,0.0,28.02182960510254,1,94502.828125
1778627315.13970399,55345353,1,-0.25213623046875,583.8378295898438,94504.4609375,30.22,0.0,55345,0.0,28.02182960510254,1,94504.4609375
1778627315.23966408,55445313,0,0.00372314453125,584.0936889648438,94502.828125,30.23,0.0,55445,0.0,28.02182960510254,1,94502.828125
1778627315.23966408,55445313,1,-0.10809326171875,583.9818725585938,94502.828125,30.23,0.0,55445,0.0,28.02182960510254,1,94502.828125
1778627315.33962417,55545273,0,0.00372314453125,584.0936889648438,94502.828125,30.23,0.0,55545,0.0,28.02182960510254,1,94502.828125
1778627315.33962417,55545273,1,0.0628662109375,584.15283203125,94500.890625,30.23,0.0,55545,0.0,28.02182960510254,1,94500.890625
1778627315.43958402,55645233,0,0.00372314453125,584.0936889648438,94502.828125,30.23,0.0,55645,0.0,28.02182960510254,1,94502.828125
1778627315.43958402,55645233,1,-0.21356201171875,583.8764038085938,94504.0234375,30.23,0.0,55645,0.0,28.02182960510254,1,94504.0234375
1778627315.53954411,55745193,0,0.00372314453125,584.0936889648438,94502.828125,30.24,0.0,55745,0.0,28.02182960510254,1,94502.828125
1778627315.53954411,55745193,1,-0.28143310546875,583.8085327148438,94504.796875,30.24,0.0,55745,0.0,28.02182960510254,1,94504.796875
1778627315.63950419,55845153,0,0.00372314453125,584.0936889648438,94502.828125,30.24,0.0,55845,0.0,28.02182960510254,1,94502.828125
1778627315.63950419,55845153,1,0.04766845703125,584.1376342773438,94501.0625,30.24,0.0,55845,0.0,28.02182960510254,1,94501.0625
1778627315.73946404,55945113,0,0.00372314453125,584.0936889648438,94502.828125,30.24,0.0,55945,0.0,28.02182960510254,1,94502.828125
1778627315.73946404,55945113,1,-0.02264404296875,584.0673217773438,94501.8515625,30.24,0.0,55945,0.0,28.02182960510254,1,94501.8515625
1778627315.83942413,56045073,0,0.00372314453125,584.0936889648438,94502.828125,30.25,0.0,56045,0.0,28.02182960510254,1,94502.828125
1778627315.83942413,56045073,1,-0.04608154296875,584.0438842773438,94502.125,30.25,0.0,56045,0.0,28.02182960510254,1,94502.125
1778627315.93938398,56145033,0,0.00372314453125,584.0936889648438,94502.828125,30.25,0.0,56145,0.0,28.02182960510254,1,94502.828125
1778627315.93938398,56145033,1,-0.03143310546875,584.0585327148438,94501.9609375,30.25,0.0,56145,0.0,28.02182960510254,1,94501.9609375
1778627316.03934407,56244993,0,0.00372314453125,584.0936889648438,94502.828125,30.25,0.0,56244,0.0,28.02182960510254,1,94502.828125
1778627316.03934407,56244993,1,0.0628662109375,584.15283203125,94500.890625,30.25,0.0,56244,0.0,28.02182960510254,1,94500.890625
1778627316.13930416,56344953,0,0.00372314453125,584.0936889648438,94502.828125,30.26,0.0,56344,0.0,28.02182960510254,1,94502.828125
1778627316.13930416,56344953,1,0.0155029296875,584.10546875,94501.421875,30.25,0.0,56344,0.0,28.02182960510254,1,94501.421875
1778627316.23926401,56444913,0,0.00372314453125,584.0936889648438,94502.828125,30.26,0.0,56444,0.0,28.02182960510254,1,94502.828125
1778627316.23926401,56444913,1,-0.22283935546875,583.8671264648438,94504.1328125,30.26,0.0,56444,0.0,28.02182960510254,1,94504.1328125
1778627316.33922410,56544873,0,0.00372314453125,584.0936889648438,94502.828125,30.26,0.0,56544,0.0,28.02182960510254,1,94502.828125
1778627316.33922410,56544873,1,0.0389404296875,584.12890625,94501.15625,30.26,0.0,56544,0.0,28.02182960510254,1,94501.15625
1778627316.43918419,56644833,0,0.00372314453125,584.0936889648438,94502.828125,30.26,0.0,56644,0.0,28.02182960510254,1,94502.828125
1778627316.43918419,56644833,1,-0.23455810546875,583.8554077148438,94504.2578125,30.27,0.0,56644,0.0,28.02182960510254,1,94504.2578125
1778627316.53997707,56745626,0,0.00372314453125,584.0936889648438,94502.828125,30.27,0.0,56745,0.0,28.02182960510254,1,94502.828125
1778627316.53997707,56745626,1,0.02130126953125,584.1112670898438,94501.3515625,30.27,0.0,56745,0.0,28.02182960510254,1,94501.3515625
1778627316.63993716,56845586,0,0.00372314453125,584.0936889648438,94502.828125,30.27,0.0,56845,0.0,28.02182960510254,1,94502.828125
1778627316.63993716,56845586,1,-0.02264404296875,584.0673217773438,94501.8515625,30.27,0.0,56845,0.0,28.02182960510254,1,94501.8515625
1778627316.73989701,56945546,0,0.00372314453125,584.0936889648438,94502.828125,30.27,0.0,56945,0.0,28.02182960510254,1,94502.828125
1778627316.73989701,56945546,1,-0.21063232421875,583.8793334960938,94503.9921875,30.27,0.0,56945,0.0,28.02182960510254,1,94503.9921875
1778627316.83985710,57045506,0,0.00372314453125,584.0936889648438,94502.828125,30.28,0.0,57045,0.0,28.02182960510254,1,94502.828125
1778627316.83985710,57045506,1,-0.28436279296875,583.8056030273438,94504.828125,30.28,0.0,57045,0.0,28.02182960510254,1,94504.828125
1778627316.93981719,57145466,0,0.00372314453125,584.0936889648438,94502.828125,30.28,0.0,57145,0.0,28.02182960510254,1,94502.828125
1778627316.93981719,57145466,1,-0.21063232421875,583.8793334960938,94503.9921875,30.28,0.0,57145,0.0,28.02182960510254,1,94503.9921875
1778627317.03977704,57245426,0,0.00372314453125,584.0936889648438,94502.828125,30.28,0.0,57245,0.0,28.02182960510254,1,94502.828125
1778627317.03977704,57245426,1,-0.00213623046875,584.0878295898438,94501.6171875,30.28,0.0,57245,0.0,28.02182960510254,1,94501.6171875
1778627317.13973713,57345386,0,0.00372314453125,584.0936889648438,94502.828125,30.29,0.0,57345,0.0,28.02182960510254,1,94502.828125
1778627317.13973713,57345386,1,0.07159423828125,584.1615600585938,94500.78125,30.29,0.0,57345,0.0,28.02182960510254,1,94500.78125
1778627317.23969722,57445346,0,0.00372314453125,584.0936889648438,94502.828125,30.29,0.0,57445,0.0,28.02182960510254,1,94502.828125
1778627317.23969722,57445346,1,-0.25213623046875,583.8378295898438,94504.4609375,30.29,0.0,57445,0.0,28.02182960510254,1,94504.4609375
1778627317.33965707,57545306,0,0.00372314453125,584.0936889648438,94502.828125,30.29,0.0,57545,0.0,28.02182960510254,1,94502.828125
1778627317.33965707,57545306,1,0.07159423828125,584.1615600585938,94500.78125,30.29,0.0,57545,0.0,28.02182960510254,1,94500.78125
1778627317.43961716,57645266,0,0.00372314453125,584.0936889648438,94502.828125,30.3,0.0,57645,0.0,28.02182960510254,1,94502.828125
1778627317.43961716,57645266,1,-0.14324951171875,583.9467163085938,94503.2265625,30.3,0.0,57645,0.0,28.02182960510254,1,94503.2265625
1778627317.53957701,57745226,0,0.00372314453125,584.0936889648438,94502.828125,30.3,0.0,57745,0.0,28.02182960510254,1,94502.828125
1778627317.53957701,57745226,1,0.00665283203125,584.0966186523438,94501.5234375,30.3,0.0,57745,0.0,28.02182960510254,1,94501.5234375
1778627317.63953710,57845186,0,0.00372314453125,584.0936889648438,94502.828125,30.3,0.0,57845,0.0,28.02182960510254,1,94502.828125
1778627317.63953710,57845186,1,-0.21356201171875,583.8764038085938,94504.0234375,30.3,0.0,57845,0.0,28.02182960510254,1,94504.0234375
1778627317.73949718,57945146,0,0.00372314453125,584.0936889648438,94502.828125,30.3,0.0,57945,0.0,28.02182960510254,1,94502.828125
1778627317.73949718,57945146,1,-0.04608154296875,584.0438842773438,94502.125,30.3,0.0,57945,0.0,28.02182960510254,1,94502.125
1778627317.83945704,58045106,0,0.00372314453125,584.0936889648438,94502.828125,30.31,0.0,58045,0.0,28.02182960510254,1,94502.828125
1778627317.83945704,58045106,1,-0.14910888671875,583.9408569335938,94503.296875,30.31,0.0,58045,0.0,28.02182960510254,1,94503.296875
1778627317.93941712,58145066,0,0.00372314453125,584.0936889648438,94502.828125,30.31,0.0,58145,0.0,28.02182960510254,1,94502.828125
1778627317.93941712,58145066,1,0.07745361328125,584.1674194335938,94500.71875,30.31,0.0,58145,0.0,28.02182960510254,1,94500.71875
1778627318.03937721,58245026,0,0.00372314453125,584.0936889648438,94502.828125,30.31,0.0,58245,0.0,28.02182960510254,1,94502.828125
1778627318.03937721,58245026,1,-0.21063232421875,583.8793334960938,94503.9921875,30.31,0.0,58245,0.0,28.02182960510254,1,94503.9921875
1778627318.13933706,58344986,0,0.00372314453125,584.0936889648438,94502.828125,30.32,0.0,58344,0.0,28.02182960510254,1,94502.828125
1778627318.13933706,58344986,1,-0.06365966796875,584.0263061523438,94502.3203125,30.32,0.0,58344,0.0,28.02182960510254,1,94502.3203125
1778627318.23929715,58444946,0,0.00372314453125,584.0936889648438,94502.828125,30.32,0.0,58444,0.0,28.02182960510254,1,94502.828125
1778627318.23929715,58444946,1,-0.27557373046875,583.8143920898438,94504.7265625,30.32,0.0,58444,0.0,28.02182960510254,1,94504.7265625
1778627318.33925700,58544906,0,0.00372314453125,584.0936889648438,94502.828125,30.32,0.0,58544,0.0,28.02182960510254,1,94502.828125
1778627318.33925700,58544906,1,-0.16375732421875,583.9262084960938,94503.4609375,30.32,0.0,58544,0.0,28.02182960510254,1,94503.4609375
1778627318.43921709,58644866,0,0.00372314453125,584.0936889648438,94502.828125,30.33,0.0,58644,0.0,28.02182960510254,1,94502.828125
1778627318.43921709,58644866,1,0.09210205078125,584.1820678710938,94500.546875,30.32,0.0,58644,0.0,28.02182960510254,1,94500.546875
1778627318.53917718,58744826,0,0.00372314453125,584.0936889648438,94502.828125,30.33,0.0,58744,0.0,28.02182960510254,1,94502.828125
1778627318.53917718,58744826,1,-0.06072998046875,584.0292358398438,94502.2890625,30.33,0.0,58744,0.0,28.02182960510254,1,94502.2890625
1778627318.63997006,58845619,0,0.00372314453125,584.0936889648438,94502.828125,30.33,0.0,58845,0.0,28.02182960510254,1,94502.828125
1778627318.63997006,58845619,1,0.05694580078125,584.1469116210938,94500.953125,30.33,0.0,58845,0.0,28.02182960510254,1,94500.953125
1778627318.73993015,58945579,0,0.00372314453125,584.0936889648438,94502.828125,30.33,0.0,58945,0.0,28.02182960510254,1,94502.828125
1778627318.73993015,58945579,1,-0.03729248046875,584.0526733398438,94502.0234375,30.33,0.0,58945,0.0,28.02182960510254,1,94502.0234375
1778627318.83989000,59045539,0,0.00372314453125,584.0936889648438,94502.828125,30.34,0.0,59045,0.0,28.02182960510254,1,94502.828125
1778627318.83989000,59045539,1,-0.22283935546875,583.8671264648438,94504.1328125,30.34,0.0,59045,0.0,28.02182960510254,1,94504.1328125
1778627318.93985009,59145499,0,0.00372314453125,584.0936889648438,94502.828125,30.34,0.0,59145,0.0,28.02182960510254,1,94502.828125
1778627318.93985009,59145499,1,-0.26678466796875,583.8231811523438,94504.625,30.34,0.0,59145,0.0,28.02182960510254,1,94504.625
1778627319.03981018,59245459,0,0.00372314453125,584.0936889648438,94502.828125,30.34,0.0,59245,0.0,28.02182960510254,1,94502.828125
1778627319.03981018,59245459,1,-0.18719482421875,583.9027709960938,94503.7265625,30.34,0.0,59245,0.0,28.02182960510254,1,94503.7265625
1778627319.13977003,59345419,0,0.00372314453125,584.0936889648438,94502.828125,30.35,0.0,59345,0.0,28.02182960510254,1,94502.828125
1778627319.13977003,59345419,1,0.09210205078125,584.1820678710938,94500.546875,30.34,0.0,59345,0.0,28.02182960510254,1,94500.546875
1778627319.23973012,59445379,0,0.00372314453125,584.0936889648438,94502.828125,30.35,0.0,59445,0.0,28.02182960510254,1,94502.828125
1778627319.23973012,59445379,1,0.00958251953125,584.0995483398438,94501.4921875,30.35,0.0,59445,0.0,28.02182960510254,1,94501.4921875
1778627319.33969021,59545339,0,0.00372314453125,584.0936889648438,94502.828125,30.35,0.0,59545,0.0,28.02182960510254,1,94502.828125
1778627319.33969021,59545339,1,-0.19891357421875,583.8910522460938,94503.8515625,30.35,0.0,59545,0.0,28.02182960510254,1,94503.8515625
1778627319.43965006,59645299,0,0.00372314453125,584.0936889648438,94502.828125,30.35,0.0,59645,0.0,28.02182960510254,1,94502.828125
1778627319.43965006,59645299,1,-0.22283935546875,583.8671264648438,94504.1328125,30.35,0.0,59645,0.0,28.02182960510254,1,94504.1328125
1778627319.53961015,59745259,0,0.00372314453125,584.0936889648438,94502.828125,30.36,0.0,59745,0.0,28.02182960510254,1,94502.828125
1778627319.53961015,59745259,1,-0.18719482421875,583.9027709960938,94503.7265625,30.36,0.0,59745,0.0,28.02182960510254,1,94503.7265625
1778627319.63957000,59845219,0,0.00372314453125,584.0936889648438,94502.828125,30.36,0.0,59845,0.0,28.02182960510254,1,94502.828125
1778627319.63957000,59845219,1,-0.07830810546875,584.0116577148438,94502.4921875,30.36,0.0,59845,0.0,28.02182960510254,1,94502.4921875
1778627319.73953009,59945179,0,0.00372314453125,584.0936889648438,94502.828125,30.36,0.0,59945,0.0,28.02182960510254,1,94502.828125
1778627319.73953009,59945179,1,-0.28436279296875,583.8056030273438,94504.828125,30.36,0.0,59945,0.0,28.02182960510254,1,94504.828125
1778627319.83949018,60045139,0,0.00372314453125,584.0936889648438,94502.828125,30.37,0.0,60045,0.0,28.02182960510254,1,94502.828125
1778627319.83949018,60045139,1,-0.28143310546875,583.8085327148438,94504.796875,30.37,0.0,60045,0.0,28.02182960510254,1,94504.796875
1778627319.93945003,60145099,0,0.00372314453125,584.0936889648438,94502.828125,30.37,0.0,60145,0.0,28.02182960510254,1,94502.828125
1778627319.93945003,60145099,1,-0.03143310546875,584.0585327148438,94501.9609375,30.37,0.0,60145,0.0,28.02182960510254,1,94501.9609375
1778627320.03941011,60245059,0,0.00372314453125,584.0936889648438,94502.828125,30.37,0.0,60245,0.0,28.02182960510254,1,94502.828125
1778627320.03941011,60245059,1,-0.00213623046875,584.0878295898438,94501.6171875,30.37,0.0,60245,0.0,28.02182960510254,1,94501.6171875
1778627320.13937020,60345019,0,0.00372314453125,584.0936889648438,94502.828125,30.37,0.0,60345,0.0,28.02182960510254,1,94502.828125
1778627320.13937020,60345019,1,-0.03143310546875,584.0585327148438,94501.9609375,30.37,0.0,60345,0.0,28.02182960510254,1,94501.9609375
1778627320.23933005,60444979,0,0.00372314453125,584.0936889648438,94502.828125,30.38,0.0,60444,0.0,28.02182960510254,1,94502.828125
1778627320.23933005,60444979,1,0.0863037109375,584.17626953125,94500.625,30.38,0.0,60444,0.0,28.02182960510254,1,94500.625
1778627320.33929014,60544939,0,0.00372314453125,584.0936889648438,94502.828125,30.38,0.0,60544,0.0,28.02182960510254,1,94502.828125
1778627320.33929014,60544939,1,-0.12567138671875,583.9642944335938,94503.03125,30.38,0.0,60544,0.0,28.02182960510254,1,94503.03125
1778627320.43924999,60644899,0,0.00372314453125,584.0936889648438,94502.828125,30.38,0.0,60644,0.0,28.02182960510254,1,94502.828125
1778627320.43924999,60644899,1,0.03302001953125,584.1229858398438,94501.21875,30.38,0.0,60644,0.0,28.02182960510254,1,94501.21875
1778627320.53921008,60744859,0,0.00372314453125,584.0936889648438,94502.828125,30.38,0.0,60744,0.0,28.02182960510254,1,94502.828125
1778627320.53921008,60744859,1,-0.17547607421875,583.9144897460938,94503.59375,30.39,0.0,60744,0.0,28.02182960510254,1,94503.59375
1778627320.64000320,60845652,0,0.00372314453125,584.0936889648438,94502.828125,30.39,0.0,60845,0.0,28.02182960510254,1,94502.828125
1778627320.64000320,60845652,1,0.02423095703125,584.1141967773438,94501.3203125,30.39,0.0,60845,0.0,28.02182960510254,1,94501.3203125
1778627320.73996305,60945612,0,0.00372314453125,584.0936889648438,94502.828125,30.39,0.0,60945,0.0,28.02182960510254,1,94502.828125
1778627320.73996305,60945612,1,-0.26678466796875,583.8231811523438,94504.625,30.39,0.0,60945,0.0,28.02182960510254,1,94504.625
1778627320.83992314,61045572,0,0.00372314453125,584.0936889648438,94502.828125,30.39,0.0,61045,0.0,28.02182960510254,1,94502.828125
1778627320.83992314,61045572,1,-0.06072998046875,584.0292358398438,94502.2890625,30.39,0.0,61045,0.0,28.02182960510254,1,94502.2890625
1778627320.93988299,61145532,0,0.00372314453125,584.0936889648438,94502.828125,30.4,0.0,61145,0.0,28.02182960510254,1,94502.828125
1778627320.93988299,61145532,1,0.00665283203125,584.0966186523438,94501.5234375,30.39,0.0,61145,0.0,28.02182960510254,1,94501.5234375
1778627321.03984308,61245492,0,0.00372314453125,584.0936889648438,94502.828125,30.4,0.0,61245,0.0,28.02182960510254,1,94502.828125
1778627321.03984308,61245492,1,-0.07244873046875,584.0175170898438,94502.421875,30.4,0.0,61245,0.0,28.02182960510254,1,94502.421875
1778627321.13980317,61345452,0,0.00372314453125,584.0936889648438,94502.828125,30.4,0.0,61345,0.0,28.02182960510254,1,94502.828125
1778627321.13980317,61345452,1,0.0540771484375,584.14404296875,94500.984375,30.4,0.0,61345,0.0,28.02182960510254,1,94500.984375
1778627321.23976302,61445412,0,0.00372314453125,584.0936889648438,94502.828125,30.4,0.0,61445,0.0,28.02182960510254,1,94502.828125
1778627321.23976302,61445412,1,-0.14324951171875,583.9467163085938,94503.2265625,30.4,0.0,61445,0.0,28.02182960510254,1,94503.2265625
1778627321.33972311,61545372,0,0.00372314453125,584.0936889648438,94502.828125,30.41,0.0,61545,0.0,28.02182960510254,1,94502.828125
1778627321.33972311,61545372,1,0.06866455078125,584.1586303710938,94500.828125,30.41,0.0,61545,0.0,28.02182960510254,1,94500.828125
1778627321.43968320,61645332,0,0.00372314453125,584.0936889648438,94502.828125,30.41,0.0,61645,0.0,28.02182960510254,1,94502.828125
1778627321.43968320,61645332,1,0.0155029296875,584.10546875,94501.421875,30.41,0.0,61645,0.0,28.02182960510254,1,94501.421875
1778627321.53964305,61745292,0,0.00372314453125,584.0936889648438,94502.828125,30.41,0.0,61745,0.0,28.02182960510254,1,94502.828125
1778627321.53964305,61745292,1,-0.03143310546875,584.0585327148438,94501.9609375,30.41,0.0,61745,0.0,28.02182960510254,1,94501.9609375
1778627321.63960314,61845252,0,0.00372314453125,584.0936889648438,94502.828125,30.41,0.0,61845,0.0,28.02182960510254,1,94502.828125
1778627321.63960314,61845252,1,0.04473876953125,584.1347045898438,94501.09375,30.41,0.0,61845,0.0,28.02182960510254,1,94501.09375
1778627321.73956299,61945212,0,0.00372314453125,584.0936889648438,94502.828125,30.42,0.0,61945,0.0,28.02182960510254,1,94502.828125
1778627321.73956299,61945212,1,0.02423095703125,584.1141967773438,94501.3203125,30.42,0.0,61945,0.0,28.02182960510254,1,94501.3203125
1778627321.83952308,62045172,0,0.00372314453125,584.0936889648438,94502.828125,30.42,0.0,62045,0.0,28.02182960510254,1,94502.828125
1778627321.83952308,62045172,1,0.08038330078125,584.1703491210938,94500.6875,30.42,0.0,62045,0.0,28.02182960510254,1,94500.6875
1778627321.93948317,62145132,0,0.00372314453125,584.0936889648438,94502.828125,30.42,0.0,62145,0.0,28.02182960510254,1,94502.828125
1778627321.93948317,62145132,1,-0.0079345703125,584.08203125,94501.6953125,30.42,0.0,62145,0.0,28.02182960510254,1,94501.6953125
1778627322.03944302,62245092,0,0.00372314453125,584.0936889648438,94502.828125,30.42,0.0,62245,0.0,28.02182960510254,1,94502.828125
1778627322.03944302,62245092,1,-0.21356201171875,583.8764038085938,94504.0234375,30.43,0.0,62245,0.0,28.02182960510254,1,94504.0234375
1778627322.13940310,62345052,0,0.01544189453125,584.1054077148438,94502.6875,30.43,0.003662109375,62345,0.0,28.02182960510254,1,94502.6875
1778627322.13940310,62345052,1,-0.01385498046875,584.0761108398438,94501.7578125,30.43,0.003662109375,62345,0.0,28.02182960510254,1,94501.7578125
1778627322.23936319,62445012,0,0.01544189453125,584.1054077148438,94502.6875,30.43,0.01831054501235485,62445,0.0,28.02182960510254,1,94502.6875
1778627322.23936319,62445012,1,-0.06072998046875,584.0292358398438,94502.2890625,30.43,0.01831054501235485,62445,0.0,28.02182960510254,1,94502.2890625
1778627322.33932304,62544972,0,0.02423095703125,584.1141967773438,94502.59375,30.43,0.03937837854027748,62544,0.0,28.02182960510254,1,94502.59375
1778627322.33932304,62544972,1,-0.20477294921875,583.8851928710938,94503.9296875,30.43,0.03937837854027748,62544,0.0,28.02182960510254,1,94503.9296875
1778627322.43928313,62644932,0,0.03350830078125,584.1234741210938,94502.4921875,30.43,0.05333296209573746,62644,0.0,28.02182960510254,1,94502.4921875
1778627322.43928313,62644932,1,-0.02264404296875,584.0673217773438,94501.8515625,30.43,0.05333296209573746,62644,0.0,28.02182960510254,1,94501.8515625
1778627322.53924298,62744892,0,0.05694580078125,584.1469116210938,94502.2265625,30.44,0.06778652220964432,62744,0.0,28.02182960510254,1,94502.2265625
1778627322.53924298,62744892,1,-0.24627685546875,583.8436889648438,94504.3984375,30.44,0.06778652220964432,62744,0.0,28.02182960510254,1,94504.3984375
1778627322.63920307,62844852,0,0.08624267578125,584.1762084960938,94501.8828125,30.44,0.10621093213558197,62844,0.0,28.02182960510254,1,94501.8828125
1778627322.63920307,62844852,1,-0.19891357421875,583.8910522460938,94503.8515625,30.44,0.10621093213558197,62844,0.0,28.02182960510254,1,94503.8515625
1778627322.73999619,62945645,0,0.11846923828125,584.2084350585938,94501.5234375,30.44,0.17203576862812042,62945,0.0,28.02182960510254,1,94501.5234375
1778627322.73999619,62945645,1,-0.01385498046875,584.0761108398438,94501.7578125,30.44,0.17203576862812042,62945,0.0,28.02182960510254,1,94501.7578125
1778627322.83995605,63045605,0,0.15655517578125,584.2465209960938,94501.09375,30.44,0.2439994513988495,63045,0.0,28.02182960510254,1,94501.09375
1778627322.83995605,63045605,1,0.1829833984375,584.27294921875,94499.5234375,30.44,0.2439994513988495,63045,0.0,28.02182960510254,1,94499.5234375
1778627322.93991613,63145565,0,0.2449951171875,584.3349609375,94500.0859375,30.45,0.31795117259025574,63145,0.0,28.02182960510254,1,94500.0859375
1778627322.93991613,63145565,1,0.25970458984375,584.3496704101562,94498.65625,30.45,0.31795117259025574,63145,0.0,28.02182960510254,1,94498.65625
1778627323.03987598,63245525,0,0.3656005859375,584.45556640625,94498.71875,30.45,0.4473983347415924,63245,0.0,28.02182960510254,1,94498.71875
1778627323.03987598,63245525,1,0.41546630859375,584.5054321289062,94496.8828125,30.45,0.4473983347415924,63245,0.0,28.02182960510254,1,94496.8828125
1778627323.13983607,63345485,0,0.4832763671875,584.5732421875,94497.3828125,30.45,0.6790298223495483,63345,0.0,28.02182960510254,1,94497.3828125
1778627323.13983607,63345485,1,0.3597412109375,584.44970703125,94497.5234375,30.45,0.6790298223495483,63345,0.0,28.02182960510254,1,94497.5234375
1778627323.23979616,63445445,0,0.60687255859375,584.6968383789062,94495.984375,30.45,0.9450685381889343,63445,0.0,28.02182960510254,1,94495.984375
1778627323.23979616,63445445,1,0.61279296875,584.7027587890625,94494.640625,30.45,0.9450685381889343,63445,0.0,28.02182960510254,1,94494.640625
1778627323.33975601,63545405,0,0.7275390625,584.8175048828125,94494.609375,30.45,1.1255455017089844,63545,0.0,28.02182960510254,1,94494.609375
1778627323.33975601,63545405,1,0.43304443359375,584.5230102539062,94496.6875,30.45,1.1255455017089844,63545,0.0,28.02182960510254,1,94496.6875
1778627323.43971610,63645365,0,0.84521484375,584.9351806640625,94493.2734375,30.46,1.1953736543655396,63645,0.0,28.02182960510254,1,94493.2734375
1778627323.43971610,63645365,1,0.8564453125,584.9464111328125,94491.875,30.45,1.1953736543655396,63645,0.0,28.02182960510254,1,94491.875
1778627323.53967619,63745325,0,0.9775390625,585.0675048828125,94491.7734375,30.46,1.210098385810852,63745,0.0,28.02182960510254,1,94491.7734375
1778627323.53967619,63745325,1,0.92724609375,585.0172119140625,94491.0703125,30.46,1.210098385810852,63745,0.0,28.02182960510254,1,94491.0703125
1778627323.63963604,63845285,0,1.10357666015625,585.1935424804688,94490.34375,30.46,1.2208558320999146,63845,0.0,28.02182960510254,1,94490.34375
1778627323.63963604,63845285,1,0.84765625,584.9376220703125,94491.96875,30.46,1.2208558320999146,63845,0.0,28.02182960510254,1,94491.96875
1778627323.73959613,63945245,0,1.25396728515625,585.3439331054688,94488.6328125,30.46,1.2523460388183594,63945,0.0,28.02182960510254,1,94488.6328125
1778627323.73959613,63945245,1,1.0009765625,585.0909423828125,94490.234375,30.46,1.2523460388183594,63945,0.0,28.02182960510254,1,94490.234375
1778627323.83955622,64045205,0,1.4127197265625,585.502685546875,94486.8359375,30.46,1.313552975654602,64045,0.0,28.02182960510254,1,94486.8359375
1778627323.83955622,64045205,1,1.25640869140625,585.3463745117188,94487.3359375,30.46,1.313552975654602,64045,0.0,28.02182960510254,1,94487.3359375
1778627323.93951607,64145165,0,1.5889892578125,585.678955078125,94484.8359375,30.46,1.4105033874511719,64145,0.0,28.02182960510254,1,94484.8359375
1778627323.93951607,64145165,1,1.5977783203125,585.687744140625,94483.46875,30.46,1.4105033874511719,64145,0.0,28.02182960510254,1,94483.46875
1778627324.03947616,64245125,0,1.75653076171875,585.8464965820312,94482.9296875,30.46,1.5321348905563354,64245,0.0,28.02182960510254,1,94482.9296875
1778627324.03947616,64245125,1,1.84197998046875,585.9319458007812,94480.6953125,30.46,1.5321348905563354,64245,0.0,28.02182960510254,1,94480.6953125
1778627324.13943601,64345085,0,1.94500732421875,586.0349731445312,94480.7890625,30.47,1.641998291015625,64345,0.0,28.02182960510254,1,94480.7890625
1778627324.13943601,64345085,1,1.67449951171875,585.7644653320312,94482.6015625,30.47,1.641998291015625,64345,0.0,28.02182960510254,1,94482.6015625
1778627324.23939610,64445045,0,2.14764404296875,586.2376098632812,94478.4921875,30.47,1.7272758483886719,64445,0.0,28.02182960510254,1,94478.4921875
1778627324.23939610,64445045,1,1.99774169921875,586.0877075195312,94478.921875,30.47,1.7272758483886719,64445,0.0,28.02182960510254,1,94478.921875
1778627324.33935618,64545005,0,2.35382080078125,586.4437866210938,94476.1484375,30.47,1.8186379671096802,64545,0.0,28.02182960510254,1,94476.1484375
1778627324.33935618,64545005,1,2.15655517578125,586.2465209960938,94477.125,30.47,1.8186379671096802,64545,0.0,28.02182960510254,1,94477.125
1778627324.43931603,64644965,0,2.57403564453125,586.6640014648438,94473.6484375,30.47,1.9306710958480835,64644,0.0,28.02182960510254,1,94473.6484375
1778627324.43931603,64644965,1,2.59747314453125,586.6874389648438,94472.1171875,30.47,1.9306710958480835,64644,0.0,28.02182960510254,1,94472.1171875
1778627324.53927612,64744925,0,2.8035888671875,586.8935546875,94471.046875,30.47,2.0434093475341797,64744,0.0,28.02182960510254,1,94471.046875
1778627324.53927612,64744925,1,2.8328857421875,586.9228515625,94469.4453125,30.47,2.0434093475341797,64744,0.0,28.02182960510254,1,94469.4453125
1778627324.63923621,64844885,0,3.0330810546875,587.123046875,94468.4375,30.47,2.1450893878936768,64844,0.0,28.02182960510254,1,94468.4375
1778627324.63923621,64844885,1,2.8504638671875,586.9404296875,94469.2421875,30.47,2.1450893878936768,64844,0.0,28.02182960510254,1,94469.2421875
1778627324.73919606,64944845,0,3.28900146484375,587.3789672851562,94465.5390625,30.47,2.2365634441375732,64944,0.0,28.02182960510254,1,94465.5390625
1778627324.73919606,64944845,1,3.27972412109375,587.3696899414062,94464.375,30.47,2.2365634441375732,64944,0.0,28.02182960510254,1,94464.375
1778627324.83998919,65045638,0,3.5361328125,587.6260986328125,94462.7421875,30.47,2.3230667114257812,65045,0.0,28.02182960510254,1,94462.7421875
1778627324.83998919,65045638,1,3.3916015625,587.4815673828125,94463.1015625,30.47,2.3230667114257812,65045,0.0,28.02182960510254,1,94463.1015625
1778627324.93994904,65145598,0,3.78570556640625,587.8756713867188,94459.8984375,30.47,2.405543565750122,65145,0.0,28.02182960510254,1,94459.8984375
1778627324.93994904,65145598,1,3.83892822265625,587.9288940429688,94458.03125,30.47,2.405543565750122,65145,0.0,28.02182960510254,1,94458.03125
1778627325.03990912,65245558,0,4.03277587890625,588.1227416992188,94457.09375,30.48,2.461790084838867,65245,0.0,28.02182960510254,1,94457.09375
1778627325.03990912,65245558,1,4.1094970703125,588.199462890625,94454.953125,30.47,2.461790084838867,65245,0.0,28.02182960510254,1,94454.953125
1778627325.13986921,65345518,0,4.2886962890625,588.378662109375,94454.1953125,30.48,2.482065200805664,65345,0.0,28.02182960510254,1,94454.1953125
1778627325.13986921,65345518,1,4.34149169921875,588.4314575195312,94452.328125,30.48,2.482065200805664,65345,0.0,28.02182960510254,1,94452.328125
1778627325.23982906,65445478,0,4.54754638671875,588.6375122070312,94451.2578125,30.48,2.494990110397339,65445,0.0,28.02182960510254,1,94451.2578125
1778627325.23982906,65445478,1,4.36541748046875,588.4553833007812,94452.0546875,30.48,2.494990110397339,65445,0.0,28.02182960510254,1,94452.0546875
1778627325.33978915,65545438,0,4.794677734375,588.8846435546875,94448.453125,30.48,2.519930839538574,65545,0.0,28.02182960510254,1,94448.453125
1778627325.33978915,65545438,1,4.823974609375,588.9139404296875,94446.8515625,30.48,2.519930839538574,65545,0.0,28.02182960510254,1,94446.8515625
1778627325.43974900,65645398,0,5.044677734375,589.1346435546875,94445.6171875,30.48,2.5369644165039062,65645,0.0,28.02182960510254,1,94445.6171875
1778627325.43974900,65645398,1,4.856201171875,588.9461669921875,94446.484375,30.48,2.5369644165039062,65645,0.0,28.02182960510254,1,94446.484375
1778627325.53970909,65745358,0,5.29766845703125,589.3876342773438,94442.7421875,30.48,2.527961492538452,65745,0.0,28.02182960510254,1,94442.7421875
1778627325.53970909,65745358,1,5.2620849609375,589.35205078125,94441.875,30.48,2.527961492538452,65745,0.0,28.02182960510254,1,94441.875
1778627325.63966918,65845318,0,5.5472412109375,589.63720703125,94439.9140625,30.48,2.5112533569335938,65845,0.0,28.02182960510254,1,94439.9140625
1778627325.63966918,65845318,1,5.2738037109375,589.36376953125,94441.75,30.48,2.5112533569335938,65845,0.0,28.02182960510254,1,94441.75
1778627325.73962903,65945278,0,5.79437255859375,589.8843383789062,94437.109375,30.48,2.5060651302337646,65945,0.0,28.02182960510254,1,94437.109375
1778627325.73962903,65945278,1,5.79144287109375,589.8814086914062,94435.875,30.48,2.5060651302337646,65945,0.0,28.02182960510254,1,94435.875
1778627325.83958912,66045238,0,6.03564453125,590.1256103515625,94434.375,30.48,2.4999043941497803,66045,0.0,28.02182960510254,1,94434.375
1778627325.83958912,66045238,1,6.11529541015625,590.2052612304688,94432.203125,30.48,2.4999043941497803,66045,0.0,28.02182960510254,1,94432.203125
1778627325.93954921,66145198,0,6.28857421875,590.3785400390625,94431.5078125,30.48,2.4816513061523438,66145,0.0,28.02182960510254,1,94431.5078125
1778627325.93954921,66145198,1,6.2001953125,590.2901611328125,94431.234375,30.48,2.4816513061523438,66145,0.0,28.02182960510254,1,94431.234375
1778627326.03950906,66245158,0,6.53863525390625,590.6286010742188,94428.671875,30.48,2.4686241149902344,66245,0.0,28.02182960510254,1,94428.671875
1778627326.03950906,66245158,1,6.52398681640625,590.6139526367188,94427.5703125,30.48,2.4686241149902344,66245,0.0,28.02182960510254,1,94427.5703125
1778627326.13946915,66345118,0,6.7769775390625,590.866943359375,94425.96875,30.48,2.4737167358398438,66345,0.0,28.02182960510254,1,94425.96875
1778627326.13946915,66345118,1,6.7501220703125,590.840087890625,94424.9921875,30.48,2.4737167358398438,66345,0.0,28.02182960510254,1,94424.9921875
1778627326.23942900,66445078,0,7.0264892578125,591.116455078125,94423.1328125,30.49,2.4764442443847656,66445,0.0,28.02182960510254,1,94423.1328125
1778627326.23942900,66445078,1,7.10614013671875,591.1961059570312,94420.9609375,30.48,2.4764442443847656,66445,0.0,28.02182960510254,1,94420.9609375
1778627326.33938909,66545038,0,7.26483154296875,591.3547973632812,94420.4296875,30.49,2.4612045288085938,66545,0.0,28.02182960510254,1,94420.4296875
1778627326.33938909,66545038,1,7.20037841796875,591.2903442382812,94419.890625,30.49,2.4612045288085938,66545,0.0,28.02182960510254,1,94419.890625
1778627326.43934917,66644998,0,7.514892578125,591.6048583984375,94417.59375,30.49,2.4456303119659424,66644,0.0,28.02182960510254,1,94417.59375
1778627326.43934917,66644998,1,7.411865234375,591.5018310546875,94417.4921875,30.49,2.4456303119659424,66644,0.0,28.02182960510254,1,94417.4921875
1778627326.53930902,66744958,0,7.76788330078125,591.8578491210938,94414.71875,30.49,2.4487078189849854,66744,0.0,28.02182960510254,1,94414.71875
1778627326.53930902,66744958,1,7.68829345703125,591.7782592773438,94414.359375,30.49,2.4487078189849854,66744,0.0,28.02182960510254,1,94414.359375
1778627326.63926911,66844918,0,8.00616455078125,592.0961303710938,94412.0234375,30.49,2.4680702686309814,66844,0.0,28.02182960510254,1,94412.0234375
1778627326.63926911,66844918,1,7.75323486328125,591.8432006835938,94413.6171875,30.49,2.4680702686309814,66844,0.0,28.02182960510254,1,94413.6171875
1778627326.73922920,66944878,0,8.2562255859375,592.34619140625,94409.1796875,30.49,2.480668306350708,66944,0.0,28.02182960510254,1,94409.1796875
1778627326.73922920,66944878,1,8.1444091796875,592.234375,94409.1796875,30.49,2.480668306350708,66944,0.0,28.02182960510254,1,94409.1796875
1778627326.83918905,67044838,0,8.49407958984375,592.5840454101562,94406.484375,30.49,2.469348430633545,67044,0.0,28.02182960510254,1,94406.484375
1778627326.83918905,67044838,1,8.32659912109375,592.4165649414062,94407.1171875,30.49,2.469348430633545,67044,0.0,28.02182960510254,1,94407.1171875
1778627326.93998218,67145631,0,8.744140625,592.8341064453125,94403.65625,30.49,2.4493026733398438,67145,0.0,28.02182960510254,1,94403.65625
1778627326.93998218,67145631,1,8.685546875,592.7755126953125,94403.046875,30.49,2.4493026733398438,67145,0.0,28.02182960510254,1,94403.046875
1778627327.03994203,67245591,0,8.994140625,593.0841064453125,94400.8125,30.49,2.4411418437957764,67245,0.0,28.02182960510254,1,94400.8125
1778627327.03994203,67245591,1,9.07037353515625,593.1603393554688,94398.6796875,30.49,2.4411418437957764,67245,0.0,28.02182960510254,1,94398.6796875
1778627327.13990211,67345551,0,9.2384033203125,593.328369140625,94398.0390625,30.49,2.449237823486328,67345,0.0,28.02182960510254,1,94398.0390625
1778627327.13990211,67345551,1,8.97955322265625,593.0695190429688,94399.7109375,30.49,2.449237823486328,67345,0.0,28.02182960510254,1,94399.7109375
1778627327.23986220,67445511,0,9.4854736328125,593.575439453125,94395.2421875,30.49,2.4636335372924805,67445,0.0,28.02182960510254,1,94395.2421875
1778627327.23986220,67445511,1,9.2940673828125,593.384033203125,94396.1484375,30.49,2.4636335372924805,67445,0.0,28.02182960510254,1,94396.1484375
1778627327.33982205,67545471,0,9.73553466796875,593.8255004882812,94392.40625,30.49,2.469952344894409,67545,0.0,28.02182960510254,1,94392.40625
1778627327.33982205,67545471,1,9.820556640625,593.9105224609375,94390.171875,30.49,2.469952344894409,67545,0.0,28.02182960510254,1,94390.171875
1778627327.43978214,67645431,0,9.98504638671875,594.0750122070312,94389.578125,30.49,2.472102165222168,67645,0.0,28.02182960510254,1,94389.578125
1778627327.43978214,67645431,1,9.76483154296875,593.8547973632812,94390.8046875,30.5,2.472102165222168,67645,0.0,28.02182960510254,1,94390.8046875
1778627327.53974199,67745391,0,10.22344970703125,594.3134155273438,94386.8671875,30.5,2.4776840209960938,67745,0.0,28.02182960510254,1,94386.8671875
1778627327.53974199,67745391,1,10.102783203125,594.1927490234375,94386.9765625,30.5,2.4776840209960938,67745,0.0,28.02182960510254,1,94386.9765625
1778627327.63970208,67845351,0,10.47637939453125,594.5663452148438,94384.0078125,30.5,2.4750900268554688,67845,0.0,28.02182960510254,1,94384.0078125
1778627327.63970208,67845351,1,10.27032470703125,594.3602905273438,94385.0703125,30.5,2.4750900268554688,67845,0.0,28.02182960510254,1,94385.0703125
1778627327.73966217,67945311,0,10.7264404296875,594.81640625,94381.171875,30.5,2.4660112857818604,67945,0.0,28.02182960510254,1,94381.171875
1778627327.73966217,67945311,1,10.5262451171875,594.6162109375,94382.1640625,30.5,2.4660112857818604,67945,0.0,28.02182960510254,1,94382.1640625
1778627327.83962202,68045271,0,10.9735107421875,595.0634765625,94378.359375,30.5,2.4713518619537354,68045,0.0,28.02182960510254,1,94378.359375
1778627327.83962202,68045271,1,10.9764404296875,595.06640625,94377.0703125,30.5,2.4713518619537354,68045,0.0,28.02182960510254,1,94377.0703125
1778627327.93958211,68145231,0,11.22943115234375,595.3193969726562,94375.46875,30.5,2.4883460998535156,68145,0.0,28.02182960510254,1,94375.46875
1778627327.93958211,68145231,1,11.14404296875,595.2340087890625,94375.1640625,30.5,2.4883460998535156,68145,0.0,28.02182960510254,1,94375.1640625
1778627328.03954220,68245191,0,11.47607421875,595.5660400390625,94372.6640625,30.5,2.5001909732818604,68245,0.0,28.02182960510254,1,94372.6640625
1778627328.03954220,68245191,1,11.3232421875,595.4132080078125,94373.1328125,30.5,2.5001909732818604,68245,0.0,28.02182960510254,1,94373.1328125
1778627328.13950205,68345151,0,11.71734619140625,595.8073120117188,94369.9296875,30.5,2.5023841857910156,68345,0.0,28.02182960510254,1,94369.9296875
1778627328.13950205,68345151,1,11.53515625,595.6251220703125,94370.7265625,30.5,2.5023841857910156,68345,0.0,28.02182960510254,1,94370.7265625
1778627328.23946214,68445111,0,11.9644775390625,596.054443359375,94367.125,30.5,2.4889185428619385,68445,0.0,28.02182960510254,1,94367.125
1778627328.23946214,68445111,1,11.88189697265625,595.9718627929688,94366.796875,30.5,2.4889185428619385,68445,0.0,28.02182960510254,1,94366.796875
1778627328.33942199,68545071,0,12.2056884765625,596.295654296875,94364.390625,30.5,2.4633407592773438,68545,0.0,28.02182960510254,1,94364.390625
1778627328.33942199,68545071,1,12.15545654296875,596.2454223632812,94363.6953125,30.5,2.4633407592773438,68545,0.0,28.02182960510254,1,94363.6953125
1778627328.43938208,68645031,0,12.43524169921875,596.5252075195312,94361.796875,30.5,2.4402427673339844,68645,0.0,28.02182960510254,1,94361.796875
1778627328.43938208,68645031,1,12.458740234375,596.5487060546875,94360.265625,30.5,2.4402427673339844,68645,0.0,28.02182960510254,1,94360.265625
1778627328.53934216,68744991,0,12.65545654296875,596.7454223632812,94359.296875,30.5,2.4083707332611084,68744,0.0,28.02182960510254,1,94359.296875
1778627328.53934216,68744991,1,12.708251953125,596.7982177734375,94357.421875,30.5,2.4083707332611084,68744,0.0,28.02182960510254,1,94357.421875
1778627328.63930202,68844951,0,12.867431640625,596.9573974609375,94356.890625,30.5,2.3466708660125732,68844,0.0,28.02182960510254,1,94356.890625
1778627328.63930202,68844951,1,12.56414794921875,596.6541137695312,94359.0546875,30.5,2.3466708660125732,68844,0.0,28.02182960510254,1,94359.0546875
1778627328.73926210,68944911,0,13.07305908203125,597.1630249023438,94354.5546875,30.5,2.2621829509735107,68944,0.0,28.02182960510254,1,94354.5546875
1778627328.73926210,68944911,1,12.84063720703125,596.9306030273438,94355.9296875,30.5,2.2621829509735107,68944,0.0,28.02182960510254,1,94355.9296875
1778627328.83922219,69044871,0,13.2674560546875,597.357421875,94352.359375,30.51,2.1734814643859863,69044,0.0,28.02182960510254,1,94352.359375
1778627328.83922219,69044871,1,13.1497802734375,597.23974609375,94352.421875,30.51,2.1734814643859863,69044,0.0,28.02182960510254,1,94352.421875
1778627328.93918204,69144831,0,13.4437255859375,597.53369140625,94350.359375,30.51,2.082911491394043,69144,0.0,28.02182960510254,1,94350.359375
1778627328.93918204,69144831,1,13.3231201171875,597.4130859375,94350.453125,30.51,2.082911491394043,69144,0.0,28.02182960510254,1,94350.453125
1778627329.03997517,69245624,0,13.61419677734375,597.7041625976562,94348.421875,30.51,1.9787977933883667,69245,0.0,28.02182960510254,1,94348.421875
1778627329.03997517,69245624,1,13.6201171875,597.7100830078125,94347.0859375,30.51,1.9787977933883667,69245,0.0,28.02182960510254,1,94347.0859375
1778627329.13993502,69345584,0,13.77337646484375,597.8633422851562,94346.625,30.51,1.859063744544983,69345,0.0,28.02182960510254,1,94346.625
1778627329.13993502,69345584,1,13.52923583984375,597.6192016601562,94348.125,30.51,1.859063744544983,69345,0.0,28.02182960510254,1,94348.125
1778627329.23989511,69445544,0,13.92333984375,598.0133056640625,94344.9296875,30.51,1.7417229413986206,69445,0.0,28.02182960510254,1,94344.9296875
1778627329.23989511,69445544,1,13.66748046875,597.7574462890625,94346.5546875,30.51,1.7417229413986206,69445,0.0,28.02182960510254,1,94346.5546875
1778627329.33985519,69545504,0,14.064453125,598.1544189453125,94343.328125,30.51,1.6396222114562988,69545,0.0,28.02182960510254,1,94343.328125
1778627329.33985519,69545504,1,13.78759765625,597.8775634765625,94345.1953125,30.51,1.6396222114562988,69545,0.0,28.02182960510254,1,94345.1953125
1778627329.43981504,69645464,0,14.18798828125,598.2779541015625,94341.921875,30.51,1.5441981554031372,69645,0.0,28.02182960510254,1,94341.921875
1778627329.43981504,69645464,1,13.94384765625,598.0338134765625,94343.421875,30.51,1.5441981554031372,69645,0.0,28.02182960510254,1,94343.421875
1778627329.53977513,69745424,0,14.30523681640625,598.3952026367188,94340.5859375,30.51,1.4408209323883057,69745,0.0,28.02182960510254,1,94340.5859375
1778627329.53977513,69745424,1,14.06103515625,598.1510009765625,94342.0859375,30.51,1.4408209323883057,69745,0.0,28.02182960510254,1,94342.0859375
1778627329.63973498,69845384,0,14.4171142578125,598.507080078125,94339.3203125,30.51,1.3292503356933594,69845,0.0,28.02182960510254,1,94339.3203125
1778627329.63973498,69845384,1,14.46392822265625,598.5538940429688,94337.5234375,30.51,1.3292503356933594,69845,0.0,28.02182960510254,1,94337.5234375
1778627329.73969507,69945344,0,14.50543212890625,598.5953979492188,94338.3203125,30.52,1.2222099304199219,69945,0.0,28.02182960510254,1,94338.3203125
1778627329.73969507,69945344,1,14.5172119140625,598.607177734375,94336.921875,30.52,1.2222099304199219,69945,0.0,28.02182960510254,1,94336.921875
1778627329.83965516,70045304,0,14.59674072265625,598.6867065429688,94337.2890625,30.52,1.1196708679199219,70045,0.0,28.02182960510254,1,94337.2890625
1778627329.83965516,70045304,1,14.34674072265625,598.4367065429688,94338.859375,30.52,1.1196708679199219,70045,0.0,28.02182960510254,1,94338.859375
1778627329.93961501,70145264,0,14.66705322265625,598.7570190429688,94336.484375,30.52,1.0120582580566406,70145,0.0,28.02182960510254,1,94336.484375
1778627329.93961501,70145264,1,14.60211181640625,598.6920776367188,94335.953125,30.52,1.0120582580566406,70145,0.0,28.02182960510254,1,94335.953125
1778627330.03957510,70245224,0,14.73504638671875,598.8250122070312,94335.7265625,30.52,0.9038925170898438,70245,0.0,28.02182960510254,1,94335.7265625
1778627330.03957510,70245224,1,14.46099853515625,598.5509643554688,94337.5546875,30.52,0.9038925170898438,70245,0.0,28.02182960510254,1,94337.5546875
1778627330.13953519,70345184,0,14.78778076171875,598.8777465820312,94335.1171875,30.52,0.8007431030273438,70345,0.0,28.02182960510254,1,94335.1171875
1778627330.13953519,70345184,1,14.67010498046875,598.7600708007812,94335.1953125,30.52,0.8007431030273438,70345,0.0,28.02182960510254,1,94335.1953125
1778627330.23949504,70445144,0,14.82586669921875,598.9158325195312,94334.6875,30.52,0.6967735290527344,70445,0.0,28.02182960510254,1,94334.6875
1778627330.23949504,70445144,1,14.60211181640625,598.6920776367188,94335.953125,30.52,0.6967735290527344,70445,0.0,28.02182960510254,1,94335.953125
1778627330.33945513,70545104,0,14.86444091796875,598.9544067382812,94334.25,30.53,0.5872344970703125,70545,0.0,28.02182960510254,1,94334.25
1778627330.33945513,70545104,1,14.90252685546875,598.9924926757812,94332.5546875,30.52,0.5872344970703125,70545,0.0,28.02182960510254,1,94332.5546875
1778627330.43941522,70645064,0,14.88787841796875,598.9778442382812,94333.984375,30.53,0.47962188720703125,70645,0.0,28.02182960510254,1,94333.984375
1778627330.43941522,70645064,1,14.82293701171875,598.9129028320312,94333.453125,30.53,0.47962188720703125,70645,0.0,28.02182960510254,1,94333.453125
1778627330.53937507,70745024,0,14.90545654296875,598.9954223632812,94333.78125,30.53,0.38532257080078125,70745,0.0,28.02182960510254,1,94333.78125
1778627330.53937507,70745024,1,14.83172607421875,598.9216918945312,94333.3515625,30.53,0.38532257080078125,70745,0.0,28.02182960510254,1,94333.3515625
1778627330.63933516,70844984,0,14.91424560546875,599.0042114257812,94333.6875,30.53,0.3000812828540802,70844,0.0,28.02182960510254,1,94333.6875
1778627330.63933516,70844984,1,14.6612548828125,598.751220703125,94335.2890625,30.53,0.3000812828540802,70844,0.0,28.02182960510254,1,94335.2890625
1778627330.73929501,70944944,0,14.91424560546875,599.0042114257812,94333.6875,30.53,0.21442367136478424,70944,0.0,28.02182960510254,1,94333.6875
1778627330.73929501,70944944,1,14.67010498046875,598.7600708007812,94335.1953125,30.53,0.21442367136478424,70944,0.0,28.02182960510254,1,94335.1953125
1778627330.83925509,71044904,0,14.90545654296875,598.9954223632812,94333.78125,30.53,0.12873099744319916,71044,0.0,28.02182960510254,1,94333.78125
1778627330.83925509,71044904,1,14.69354248046875,598.7835083007812,94334.921875,30.54,0.12873099744319916,71044,0.0,28.02182960510254,1,94334.921875
1778627330.93921518,71144864,0,14.90545654296875,598.9954223632812,94333.78125,30.54,0.048668425530195236,71144,0.0,28.02182960510254,1,94333.78125
1778627330.93921518,71144864,1,14.84930419921875,598.9392700195312,94333.15625,30.54,0.048668425530195236,71144,0.0,28.02182960510254,1,94333.15625
1778627331.03917503,71244824,0,14.89666748046875,598.9866333007812,94333.890625,30.54,-0.010981743223965168,71244,0.0,28.02182960510254,1,94333.890625
1778627331.03917503,71244824,1,14.7081298828125,598.798095703125,94334.7578125,30.54,-0.010981743223965168,71244,0.0,28.02182960510254,1,94334.7578125
1778627331.13996816,71345617,0,14.89666748046875,598.9866333007812,94333.890625,30.54,-0.0384521521627903,71345,0.0,28.02182960510254,1,94333.890625
1778627331.13996816,71345617,1,14.84051513671875,598.9304809570312,94333.2578125,30.54,-0.0384521521627903,71345,0.0,28.02182960510254,1,94333.2578125
1778627331.23992801,71445577,0,14.88787841796875,598.9778442382812,94333.984375,30.54,-0.04387681186199188,71445,0.0,28.02182960510254,1,94333.984375
1778627331.23992801,71445577,1,14.62030029296875,598.7102661132812,94335.7578125,30.54,-0.04387681186199188,71445,0.0,28.02182960510254,1,94335.7578125
1778627331.33988810,71545537,0,14.88787841796875,598.9778442382812,94333.984375,30.54,-0.043808482587337494,71545,0.0,28.02182960510254,1,94333.984375
1778627331.33988810,71545537,1,14.94354248046875,599.0335083007812,94332.09375,30.54,-0.043808482587337494,71545,0.0,28.02182960510254,1,94332.09375
1778627331.43984818,71645497,0,14.87615966796875,598.9661254882812,94334.125,30.55,-0.04472249001264572,71645,0.0,28.02182960510254,1,94334.125
1778627331.43984818,71645497,1,14.93768310546875,599.0276489257812,94332.15625,30.55,-0.04472249001264572,71645,0.0,28.02182960510254,1,94332.15625
1778627331.53980803,71745457,0,14.87615966796875,598.9661254882812,94334.125,30.55,-0.048443786799907684,71745,0.0,28.02182960510254,1,94334.125
1778627331.53980803,71745457,1,14.75262451171875,598.8425903320312,94334.25,30.55,-0.048443786799907684,71745,0.0,28.02182960510254,1,94334.25
1778627331.63976812,71845417,0,14.87615966796875,598.9661254882812,94334.125,30.55,-0.0503433421254158,71845,0.0,28.02182960510254,1,94334.125
1778627331.63976812,71845417,1,14.6055908203125,598.695556640625,94335.921875,30.55,-0.0503433421254158,71845,0.0,28.02182960510254,1,94335.921875
1778627331.73972821,71945377,0,14.87615966796875,598.9661254882812,94334.125,30.55,-0.0393676795065403,71945,0.0,28.02182960510254,1,94334.125
1778627331.73972821,71945377,1,14.93768310546875,599.0276489257812,94332.15625,30.55,-0.0393676795065403,71945,0.0,28.02182960510254,1,94332.15625
1778627331.83968806,72045337,0,14.87615966796875,598.9661254882812,94334.125,30.55,-0.01831054501235485,72045,0.0,28.02182960510254,1,94334.125
1778627331.83968806,72045337,1,14.76141357421875,598.8513793945312,94334.15625,30.55,-0.01831054501235485,72045,0.0,28.02182960510254,1,94334.15625
1778627331.93964815,72145297,0,14.87615966796875,598.9661254882812,94334.125,30.56,-0.003662109375,72145,0.0,28.02182960510254,1,94334.125
1778627331.93964815,72145297,1,14.5875244140625,598.677490234375,94336.125,30.56,-0.003662109375,72145,0.0,28.02182960510254,1,94336.125
1778627332.03960800,72245257,0,14.88787841796875,598.9778442382812,94333.984375,30.56,0.003662109375,72245,0.0,28.02182960510254,1,94333.984375
1778627332.03960800,72245257,1,14.76434326171875,598.8543090820312,94334.125,30.56,0.003662109375,72245,0.0,28.02182960510254,1,94334.125
1778627332.13956809,72345217,0,14.88787841796875,598.9778442382812,94333.984375,30.56,0.01831054501235485,72345,0.0,28.02182960510254,1,94333.984375
1778627332.13956809,72345217,1,14.77020263671875,598.8601684570312,94334.0625,30.56,0.01831054501235485,72345,0.0,28.02182960510254,1,94334.0625
1778627332.23952818,72445177,0,14.88787841796875,598.9778442382812,94333.984375,30.56,0.03662109375,72445,0.0,28.02182960510254,1,94333.984375
1778627332.23952818,72445177,1,14.67596435546875,598.7659301757812,94335.1171875,30.56,0.03662109375,72445,0.0,28.02182960510254,1,94335.1171875
1778627332.33948803,72545137,0,14.89666748046875,598.9866333007812,94333.890625,30.56,0.0393676795065403,72545,0.0,28.02182960510254,1,94333.890625
1778627332.33948803,72545137,1,14.80828857421875,598.8982543945312,94333.625,30.56,0.0393676795065403,72545,0.0,28.02182960510254,1,94333.625
1778627332.43944812,72645097,0,14.89666748046875,598.9866333007812,94333.890625,30.56,0.03204345703125,72645,0.0,28.02182960510254,1,94333.890625
1778627332.43944812,72645097,1,14.76434326171875,598.8543090820312,94334.125,30.56,0.03204345703125,72645,0.0,28.02182960510254,1,94334.125
1778627332.53940821,72745057,0,14.90545654296875,598.9954223632812,94333.78125,30.57,0.03387451171875,72745,0.0,28.02182960510254,1,94333.78125
1778627332.53940821,72745057,1,14.82293701171875,598.9129028320312,94333.453125,30.57,0.03387451171875,72745,0.0,28.02182960510254,1,94333.453125
1778627332.63936806,72845017,0,14.90545654296875,598.9954223632812,94333.78125,30.57,0.0411987341940403,72845,0.0,28.02182960510254,1,94333.78125
1778627332.63936806,72845017,1,14.84051513671875,598.9304809570312,94333.2578125,30.57,0.0411987341940403,72845,0.0,28.02182960510254,1,94333.2578125
1778627332.73932815,72944977,0,14.91424560546875,599.0042114257812,94333.6875,30.57,0.04395906999707222,72944,0.0,28.02182960510254,1,94333.6875
1778627332.73932815,72944977,1,14.6143798828125,598.704345703125,94335.8203125,30.57,0.04395906999707222,72944,0.0,28.02182960510254,1,94335.8203125
1778627332.83928800,73044937,0,14.91424560546875,599.0042114257812,94333.6875,30.57,0.044014133512973785,73044,0.0,28.02182960510254,1,94333.6875
1778627332.83928800,73044937,1,14.67010498046875,598.7600708007812,94335.1953125,30.57,0.044014133512973785,73044,0.0,28.02182960510254,1,94335.1953125
1778627332.93924809,73144897,0,14.91424560546875,599.0042114257812,94333.6875,30.57,0.041331980377435684,73144,0.0,28.02182960510254,1,94333.6875
1778627332.93924809,73144897,1,14.78485107421875,598.8748168945312,94333.890625,30.57,0.041331980377435684,73144,0.0,28.02182960510254,1,94333.890625
1778627333.03920817,73244857,0,14.92303466796875,599.0130004882812,94333.5859375,30.58,0.03306928277015686,73244,0.0,28.02182960510254,1,94333.5859375
1778627333.03920817,73244857,1,14.85809326171875,598.9480590820312,94333.0546875,30.57,0.03306928277015686,73244,0.0,28.02182960510254,1,94333.0546875
1778627333.14000106,73345650,0,14.92303466796875,599.0130004882812,94333.5859375,30.58,0.027520889416337013,73345,0.0,28.02182960510254,1,94333.5859375
1778627333.14000106,73345650,1,14.78485107421875,598.8748168945312,94333.890625,30.58,0.027520889416337013,73345,0.0,28.02182960510254,1,94333.890625
1778627333.23996115,73445610,0,14.92303466796875,599.0130004882812,94333.5859375,30.58,0.030185004696249962,73445,0.0,28.02182960510254,1,94333.5859375
1778627333.23996115,73445610,1,14.78778076171875,598.8777465820312,94333.859375,30.58,0.030185004696249962,73445,0.0,28.02182960510254,1,94333.859375
1778627333.33992100,73545570,0,14.93475341796875,599.0247192382812,94333.453125,30.58,0.031021546572446823,73545,0.0,28.02182960510254,1,94333.453125
1778627333.33992100,73545570,1,14.85516357421875,598.9451293945312,94333.0859375,30.58,0.031021546572446823,73545,0.0,28.02182960510254,1,94333.0859375
1778627333.43988109,73645530,0,14.93475341796875,599.0247192382812,94333.453125,30.58,0.0319688655436039,73645,0.0,28.02182960510254,1,94333.453125
1778627333.43988109,73645530,1,14.87908935546875,598.9690551757812,94332.8203125,30.58,0.0319688655436039,73645,0.0,28.02182960510254,1,94332.8203125
1778627333.53984118,73745490,0,14.93475341796875,599.0247192382812,94333.453125,30.58,0.039320483803749084,73745,0.0,28.02182960510254,1,94333.453125
1778627333.53984118,73745490,1,14.89373779296875,598.9837036132812,94332.6484375,30.58,0.039320483803749084,73745,0.0,28.02182960510254,1,94332.6484375
1778627333.63980103,73845450,0,14.93475341796875,599.0247192382812,94333.453125,30.59,0.036615002900362015,73845,0.0,28.02182960510254,1,94333.453125
1778627333.63980103,73845450,1,14.95819091796875,599.0481567382812,94331.921875,30.58,0.036615002900362015,73845,0.0,28.02182960510254,1,94331.921875
1778627333.73976111,73945410,0,14.93475341796875,599.0247192382812,94333.453125,30.59,0.01831054501235485,73945,0.0,28.02182960510254,1,94333.453125
1778627333.73976111,73945410,1,15.00506591796875,599.0950317382812,94331.390625,30.59,0.01831054501235485,73945,0.0,28.02182960510254,1,94331.390625
1778627333.83972120,74045370,0,14.94647216796875,599.0364379882812,94333.3203125,30.59,0.00732421875,74045,0.0,28.02182960510254,1,94333.3203125
1778627333.83972120,74045370,1,14.93768310546875,599.0276489257812,94332.15625,30.59,0.00732421875,74045,0.0,28.02182960510254,1,94332.15625
1778627333.93968105,74145330,0,14.94647216796875,599.0364379882812,94333.3203125,30.59,0.01831054501235485,74145,0.0,28.02182960510254,1,94333.3203125
1778627333.93968105,74145330,1,14.91131591796875,599.0012817382812,94332.453125,30.59,0.01831054501235485,74145,0.0,28.02182960510254,1,94332.453125
1778627334.03964114,74245290,0,14.94647216796875,599.0364379882812,94333.3203125,30.59,0.03662109375,74245,0.0,28.02182960510254,1,94333.3203125
1778627334.03964114,74245290,1,15.02313232421875,599.1130981445312,94331.1875,30.59,0.03662109375,74245,0.0,28.02182960510254,1,94331.1875
1778627334.13960099,74345250,0,14.94647216796875,599.0364379882812,94333.3203125,30.59,0.03662109375,74345,0.0,28.02182960510254,1,94333.3203125
1778627334.13960099,74345250,1,14.83465576171875,598.9246215820312,94333.3203125,30.59,0.03662109375,74345,0.0,28.02182960510254,1,94333.3203125
1778627334.23956108,74445210,0,14.94647216796875,599.0364379882812,94333.3203125,30.6,0.01831054501235485,74445,0.0,28.02182960510254,1,94333.3203125
1778627334.23956108,74445210,1,14.95233154296875,599.0422973632812,94331.984375,30.6,0.01831054501235485,74445,0.0,28.02182960510254,1,94331.984375
1778627334.33952117,74545170,0,14.95819091796875,599.0481567382812,94333.1953125,30.6,0.00732421875,74545,0.0,28.02182960510254,1,94333.1953125
1778627334.33952117,74545170,1,14.78778076171875,598.8777465820312,94333.859375,30.6,0.00732421875,74545,0.0,28.02182960510254,1,94333.859375
1778627334.43948102,74645130,0,14.95819091796875,599.0481567382812,94333.1953125,30.6,0.01831054501235485,74645,0.0,28.02182960510254,1,94333.1953125
1778627334.43948102,74645130,1,14.99041748046875,599.0803833007812,94331.546875,30.6,0.01831054501235485,74645,0.0,28.02182960510254,1,94331.546875
1778627334.53944111,74745090,0,14.95819091796875,599.0481567382812,94333.1953125,30.6,0.03662109375,74745,0.0,28.02182960510254,1,94333.1953125
1778627334.53944111,74745090,1,14.76434326171875,598.8543090820312,94334.125,30.6,0.03662109375,74745,0.0,28.02182960510254,1,94334.125
1778627334.63940120,74845050,0,14.95819091796875,599.0481567382812,94333.1953125,30.6,0.03662109375,74845,0.0,28.02182960510254,1,94333.1953125
1778627334.63940120,74845050,1,14.94940185546875,599.0393676757812,94332.0234375,30.6,0.03662109375,74845,0.0,28.02182960510254,1,94332.0234375
1778627334.73936105,74945010,0,14.95819091796875,599.0481567382812,94333.1953125,30.6,0.01831054501235485,74945,0.0,28.02182960510254,1,94333.1953125
1778627334.73936105,74945010,1,14.96697998046875,599.0569458007812,94331.828125,30.6,0.01831054501235485,74945,0.0,28.02182960510254,1,94331.828125
1778627334.83932114,75044970,0,14.95819091796875,599.0481567382812,94333.1953125,30.61,0.0036682230420410633,75044,0.0,28.02182960510254,1,94333.1953125
1778627334.83932114,75044970,1,14.78778076171875,598.8777465820312,94333.859375,30.61,0.0036682230420410633,75044,0.0,28.02182960510254,1,94333.859375
1778627334.93928099,75144930,0,14.95819091796875,599.0481567382812,94333.1953125,30.61,0.0,75144,0.0,28.02182960510254,1,94333.1953125
1778627334.93928099,75144930,1,14.72869873046875,598.8186645507812,94334.5234375,30.61,0.0,75144,0.0,28.02182960510254,1,94334.5234375
1778627335.03924108,75244890,0,14.96697998046875,599.0569458007812,94333.0859375,30.61,0.0027511673979461193,75244,0.0,28.02182960510254,1,94333.0859375
1778627335.03924108,75244890,1,14.93768310546875,599.0276489257812,94332.15625,30.61,0.0027511673979461193,75244,0.0,28.02182960510254,1,94332.15625
1778627335.13920116,75344850,0,14.96697998046875,599.0569458007812,94333.0859375,30.61,0.013765029609203339,75344,0.0,28.02182960510254,1,94333.0859375
1778627335.13920116,75344850,1,14.7789306640625,598.868896484375,94333.953125,30.61,0.013765029609203339,75344,0.0,28.02182960510254,1,94333.953125
1778627335.23999405,75445643,0,14.96697998046875,599.0569458007812,94333.0859375,30.61,0.02749335579574108,75445,0.0,28.02182960510254,1,94333.0859375
1778627335.23999405,75445643,1,14.81707763671875,598.9070434570312,94333.5234375,30.61,0.02749335579574108,75445,0.0,28.02182960510254,1,94333.5234375
1778627335.33995414,75545603,0,14.96697998046875,599.0569458007812,94333.0859375,30.61,0.027438422664999962,75545,0.0,28.02182960510254,1,94333.0859375
1778627335.33995414,75545603,1,14.90545654296875,598.9954223632812,94332.5234375,30.61,0.027438422664999962,75545,0.0,28.02182960510254,1,94332.5234375
1778627335.43991399,75645563,0,14.96697998046875,599.0569458007812,94333.0859375,30.62,0.013700942508876324,75645,0.0,28.02182960510254,1,94333.0859375
1778627335.43991399,75645563,1,14.84637451171875,598.9363403320312,94333.1953125,30.62,0.013700942508876324,75645,0.0,28.02182960510254,1,94333.1953125
1778627335.53987408,75745523,0,14.96697998046875,599.0569458007812,94333.0859375,30.62,0.002742012031376362,75745,0.0,28.02182960510254,1,94333.0859375
1778627335.53987408,75745523,1,14.69061279296875,598.7805786132812,94334.9609375,30.62,0.002742012031376362,75745,0.0,28.02182960510254,1,94334.9609375
