timestamp,TimeUS,C,Roll,Pitch,Yaw,VN,VE,VD,dPD,PN,PE,PD,GX,GY,GZ,OH
1778782185.06005621,68245191,0,0.06,0.05,354.56,-0.01456344872713089,0.01756417565047741,-8.573375816922635e-05,6.017883788445033e-05,-0.011443729512393475,0.013667060993611813,-0.003923115786164999,0.03,0.03,-0.04,584.09
1778782185.06005621,68245191,1,0.07,0.05,354.56,-0.014441071078181267,0.017957260832190514,-0.00012764427810907364,0.00011142455332446843,-0.011437209323048592,0.014004218392074108,0.005795798264443874,0.03,0.03,-0.04,584.08
1778782185.16001606,68345151,0,0.06,0.05,354.56,-0.014557652175426483,0.01757863350212574,-8.981865539681166e-05,4.732143133878708e-05,-0.011455826461315155,0.0136950658634305,-0.003919865470379591,0.03,0.03,-0.04,584.09
1778782185.16001606,68345151,1,0.07,0.05,354.56,-0.01421012356877327,0.017880897969007492,-0.000175412162207067,4.383598570711911e-05,-0.011289489455521107,0.013844381086528301,0.005805237218737602,0.03,0.03,-0.04,584.08
1778782185.25997615,68445111,0,0.06,0.05,354.55,-0.01441030204296112,0.017385607585310936,-3.599782576202415e-05,7.435478619299829e-05,-0.011325480416417122,0.013553536497056484,-0.0039136167615652084,0.03,0.03,-0.04,584.09
1778782185.25997615,68445111,1,0.07,0.05,354.56,-0.013991761952638626,0.01760081760585308,-0.0001406929804943502,2.0443865651031956e-05,-0.011182058602571487,0.013750593177974224,0.0058081503957509995,0.03,0.03,-0.04,584.08
1778782185.35993600,68545071,0,0.06,0.05,354.55,-0.014310294762253761,0.017250921577215195,4.269788860256085e-06,9.287110879085958e-05,-0.011361234821379185,0.013607556000351906,-0.00390502973459661,0.03,0.03,-0.04,584.09
1778782185.35993600,68545071,1,0.07,0.05,354.56,-0.013819792307913303,0.017541291192173958,-0.00010292020306224003,2.118230622727424e-05,-0.011209261603653431,0.013822593726217747,0.0058104293420910835,0.03,0.03,-0.04,584.08
1778782185.45989609,68645031,0,0.06,0.05,354.55,-0.013915239833295345,0.016782622784376144,-3.475266566965729e-05,2.2236141376197338e-05,-0.011235586367547512,0.013466892763972282,-0.003899883944541216,0.03,0.03,-0.04,584.09
1778782185.45989609,68645031,1,0.07,0.05,354.56,-0.0134158069267869,0.01692069135606289,2.6950874598696828e-05,0.0001315821282332763,-0.011068399995565414,0.013684675097465515,0.0058191982097923756,0.03,0.03,-0.04,584.08
1778782185.55985618,68744991,0,0.06,0.05,354.55,-0.013499080203473568,0.016308823600411415,-4.037428880110383e-05,-1.0662502063496504e-05,-0.011214437894523144,0.013447602279484272,-0.0038995137438178062,0.03,0.03,-0.04,584.09
1778782185.55985618,68744991,1,0.07,0.05,354.56,-0.012963238172233105,0.016343604773283005,2.2733043806510977e-05,0.00011863624968100339,-0.011019829660654068,0.013644090853631496,0.005831428337842226,0.03,0.03,-0.04,584.08
1778782185.65981603,68844951,0,0.06,0.05,354.55,-0.012738842517137527,0.01533703226596117,-6.52825619908981e-05,-4.240197449689731e-05,-0.01098544429987669,0.013178767636418343,-0.0039001856930553913,0.03,0.03,-0.04,584.09
1778782185.65981603,68844951,1,0.07,0.05,354.55,-0.012076715007424355,0.015507016330957413,2.8368556286295643e-06,6.851102807559073e-05,-0.010765258222818375,0.013358828611671925,0.005837302189320326,0.03,0.03,-0.04,584.08
1778782185.75977612,68944911,0,0.06,0.05,354.55,-0.011891216039657593,0.01434745080769062,-0.00015638238983228803,-0.00013260793639346957,-0.01081245020031929,0.012977063655853271,-0.003907948266714811,0.03,0.03,-0.04,584.09
1778782185.75977612,68944911,1,0.07,0.05,354.55,-0.011152570135891438,0.014462330378592014,-8.917808736441657e-05,-5.192642129259184e-05,-0.010547916404902935,0.013138951733708382,0.005835406482219696,0.03,0.03,-0.04,584.08
1778782185.85973620,69044871,0,0.07,0.05,354.54,-0.01079539954662323,0.012905890122056007,-0.00015745614655315876,-0.00012039248395012692,-0.010419533587992191,0.012504812330007553,-0.003918622620403767,0.03,0.03,-0.04,584.09
1778782185.85973620,69044871,1,0.07,0.05,354.55,-0.00999807845801115,0.01312847901135683,2.391745692875702e-05,5.936202796874568e-05,-0.010114782489836216,0.012656187638640404,0.0058360653929412365,0.03,0.03,-0.04,584.08
1778782185.95969605,69144831,0,0.07,0.05,354.54,-0.009636720642447472,0.011510642245411873,-0.00013450700498651713,-8.406567212659866e-05,-0.010051540099084377,0.012053320184350014,-0.003928802907466888,0.03,0.03,-0.04,584.09
1778782185.95969605,69144831,1,0.07,0.05,354.55,-0.008782441727817059,0.011883384548127651,7.841746264602989e-05,0.000122295314213261,-0.009709681384265423,0.012210391461849213,0.005845881998538971,0.03,0.03,-0.04,584.08
1778782186.05965614,69244791,0,0.07,0.06,354.54,-0.008266011252999306,0.009848588146269321,-0.0001738513819873333,-0.0001019889023154974,-0.009481825865805149,0.0113607132807374,-0.003935257438570261,0.03,0.03,-0.04,584.09
1778782186.05965614,69244791,1,0.07,0.05,354.55,-0.007335307542234659,0.010021829977631569,2.7307642085361294e-06,2.6672700187191367e-05,-0.008945879526436329,0.011312245391309261,0.005853294860571623,0.03,0.03,-0.04,584.08
1778782186.15961599,69344751,0,0.07,0.06,354.54,-0.007019069977104664,0.008296647109091282,-0.0001609309547347948,-6.994156137807295e-05,-0.008934687823057175,0.010694785974919796,-0.003945478238165379,0.03,0.03,-0.04,584.09
1778782186.15961599,69344751,1,0.07,0.05,354.54,-0.0061481064185500145,0.008617080748081207,9.60098986979574e-05,9.31409522308968e-05,-0.008451201021671295,0.01074341032654047,0.005858542397618294,0.03,0.03,-0.04,584.08
1778782186.25957608,69444711,0,0.07,0.06,354.54,-0.00565736461430788,0.006706543266773224,-0.00013878080062568188,-3.1132291042013094e-05,-0.008236067369580269,0.00985245406627655,-0.003949021454900503,0.03,0.03,-0.04,584.09
1778782186.25957608,69444711,1,0.07,0.05,354.54,-0.004890254698693752,0.007015100214630365,0.0001176041696453467,0.00010966954141622409,-0.007800865452736616,0.00997256487607956,0.005872876383364201,0.03,0.03,-0.04,584.08
1778782186.35953617,69544671,0,0.07,0.06,354.54,-0.004481772892177105,0.005296587478369474,-0.00015626401000190526,-3.432783705648035e-05,-0.007583416998386383,0.009066937491297722,-0.003952461294829845,0.03,0.03,-0.04,584.09
1778782186.35953617,69544671,1,0.07,0.05,354.54,-0.003708705771714449,0.005496923346072435,0.00016466168744955212,0.00015621373313479125,-0.0071782199665904045,0.009220429696142673,0.005887397564947605,0.03,0.03,-0.04,584.08
1778782186.45949602,69644631,0,0.07,0.06,354.54,-0.003272273577749729,0.003798495978116989,-0.0001132719698944129,9.47454827837646e-06,-0.0068390811793506145,0.008171305991709232,-0.0039540501311421394,0.03,0.03,-0.04,584.09
1778782186.45949602,69644631,1,0.08,0.05,354.54,-0.0025226110592484474,0.004169649910181761,0.00017642513557802886,0.00014394521713256836,-0.0064528328366577625,0.0083456514403224,0.005901048891246319,0.03,0.03,-0.04,584.08
1778782186.55945611,69744591,0,0.07,0.06,354.53,-0.002252039033919573,0.002606247318908572,-0.00010731821384979412,1.4890069905959535e-05,-0.006165177095681429,0.007356749847531319,-0.003952912520617247,0.03,0.03,-0.04,584.09
1778782186.55945611,69744591,1,0.08,0.06,354.54,-0.0016063995426520705,0.0029838315676897764,0.00018472860392648727,0.0001223114231834188,-0.005787130910903215,0.007551328744739294,0.005911281332373619,0.03,0.03,-0.04,584.08
1778782186.65941620,69844551,0,0.07,0.06,354.53,-0.0012789162574335933,0.0014542321441695094,-0.00010994406329700723,2.375362328166375e-06,-0.005449270363897085,0.006498481146991253,-0.003952498082071543,0.03,0.03,-0.04,584.09
1778782186.65941620,69844551,1,0.08,0.06,354.54,-0.0006837946129962802,0.002009699586778879,0.00020660100562963635,0.0001320250448770821,-0.005087393335998058,0.006706964690238237,0.005924692377448082,0.03,0.03,-0.04,584.08
1778782186.75937605,69944511,0,0.08,0.06,354.53,-0.0005218457663431764,0.0005764074740000069,-7.746073242742568e-05,2.2450307369581424e-05,-0.00482014799490571,0.005746245849877596,-0.003950608894228935,0.03,0.03,-0.04,584.09
1778782186.75937605,69944511,1,0.08,0.06,354.53,0.00022893075947649777,0.0009016129770316184,0.00026872355374507606,0.00018214785086456686,-0.004415472969412804,0.005902998615056276,0.0059384810738265514,0.03,0.03,-0.04,584.08
1778782186.85933614,70044471,0,0.08,0.07,354.53,0.00013969448627904058,-0.0002487214223947376,-7.475585880456492e-05,1.1530402844073251e-05,-0.004183616954833269,0.004986914806067944,-0.003949692938476801,0.03,0.03,-0.04,584.09
1778782186.85933614,70044471,1,0.08,0.06,354.53,0.0007731441874057055,0.00016821027384139597,9.806077287066728e-05,1.2300544767640531e-05,-0.003826881991699338,0.005186542868614197,0.005949287675321102,0.03,0.03,-0.04,584.08
1778782186.95929623,70144431,0,0.08,0.07,354.53,0.00072008918505162,-0.0009118123562075198,-6.986983498791233e-05,6.243857569643296e-06,-0.0036391285248100758,0.004334668163210154,-0.003949230536818504,0.03,0.03,-0.04,584.09
1778782186.95929623,70144431,1,0.08,0.06,354.53,0.001265212893486023,-0.0004981228266842663,8.954290387919173e-05,-5.9549611250986345e-06,-0.0033145647030323744,0.0045608701184391975,0.005950906779617071,0.03,0.03,-0.03,584.08
1778782187.05925608,70244391,0,0.08,0.07,354.52,0.001211262308061123,-0.0014525903388857841,-0.00013938620395492762,-6.71898596920073e-05,-0.0030985709745436907,0.003698066109791398,-0.003952101804316044,0.03,0.03,-0.03,584.09
1778782187.05925608,70244391,1,0.08,0.06,354.53,0.0015427717007696629,-0.0010494994930922985,0.0001332405663561076,5.40486398676876e-05,-0.002815461717545986,0.0039248354732990265,0.005955914501100779,0.03,0.03,-0.03,584.08
1778782187.16004920,70345184,0,0.08,0.07,354.52,0.0015252202283591032,-0.001884628552943468,-0.00015672040171921253,-8.696066652191803e-05,-0.0026468161959201097,0.003163011511787772,-0.003960161469876766,0.03,0.03,-0.03,584.09
1778782187.16004920,70345184,1,0.09,0.06,354.53,0.001820062636397779,-0.0014626277843490243,0.00017846366972662508,0.00010932296572718769,-0.0024056772235780954,0.0033903205767273903,0.005961847025901079,0.03,0.03,-0.03,584.08
1778782187.26000905,70445144,0,0.08,0.07,354.52,0.001737263984978199,-0.0022315294481813908,-0.00014426454436033964,-5.5972992413444445e-05,-0.002219360787421465,0.0026499140076339245,-0.00396563159301877,0.03,0.03,-0.03,584.09
1778782187.26000905,70445144,1,0.09,0.07,354.52,0.002024740446358919,-0.001844070153310895,0.0002549758064560592,0.0001875314919743687,-0.0020201243460178375,0.0028773732483386993,0.005976660177111626,0.03,0.03,-0.03,584.08
1778782187.35996914,70545104,0,0.08,0.07,354.52,0.001931863254867494,-0.0024103112518787384,-0.00012405628513079137,-1.6759682694100775e-05,-0.0018763829721137881,0.002233595121651888,-0.003969419281929731,0.03,0.03,-0.03,584.09
1778782187.35996914,70545104,1,0.09,0.07,354.52,0.002172840526327491,-0.002116963267326355,0.00033301650546491146,0.00027168565429747105,-0.0017010706942528486,0.0024417212698608637,0.005999945104122162,0.03,0.03,-0.03,584.08
1778782187.45992923,70645064,0,0.09,0.08,354.52,0.0020560831762850285,-0.0025497921742498875,-0.0001265572791453451,-9.177615538646933e-06,-0.001547971274703741,0.0018405156442895532,-0.003969884477555752,0.03,0.03,-0.03,584.09
1778782187.45992923,70645064,1,0.09,0.07,354.52,0.0022817165590822697,-0.0021116111893206835,0.0003591660351958126,0.00025829343940131366,-0.0013891910202801228,0.0020313800778239965,0.006023308727890253,0.03,0.03,-0.03,584.08
1778782187.55988908,70745024,0,0.09,0.08,354.52,0.002158054383471608,-0.0025719699915498495,-0.00012955180136486888,-7.473438472516136e-06,-0.0012873215600848198,0.0015330873429775238,-0.003970375284552574,0.03,0.03,-0.03,584.09
1778782187.55988908,70745024,1,0.09,0.07,354.52,0.0023754993453621864,-0.0021092284005135298,0.00029600877314805984,0.00015680096112191677,-0.001138779567554593,0.00172177713830024,0.006041019689291716,0.03,0.03,-0.03,584.08
1778782187.65984917,70844984,0,0.09,0.08,354.51,0.0021723988465964794,-0.0025807861238718033,-0.00016338579007424414,-4.635737059288658e-05,-0.0010411931434646249,0.0012483940226957202,-0.003974049352109432,0.03,0.03,-0.03,584.09
1778782187.65984917,70844984,1,0.09,0.07,354.52,0.002205498982220888,-0.002131839282810688,0.00035521865356713533,0.00018182802887167782,-0.0009066944476217031,0.0014262732584029436,0.0060564386658370495,0.03,0.03,-0.03,584.08
1778782187.75980902,70944944,0,0.09,0.08,354.51,0.002084505744278431,-0.0024814577773213387,-0.00014105175796430558,-3.071393075515516e-05,-0.0008559137349948287,0.001035189488902688,-0.003977868240326643,0.03,0.03,-0.03,584.09
1778782187.75980902,70944944,1,0.1,0.07,354.51,0.0021106901112943888,-0.0020087207667529583,0.00032011696021072567,0.00012472707021515816,-0.0007445688243024051,0.0012076152488589287,0.006074071396142244,0.03,0.03,-0.03,584.08
1778782187.85976911,71044904,0,0.09,0.08,354.51,0.002037692815065384,-0.0023064850829541683,-9.13507174118422e-05,2.422307625238318e-05,-0.0006830871570855379,0.0008411745075136423,-0.003978162072598934,0.03,0.03,-0.03,584.09
1778782187.85976911,71044904,1,0.1,0.08,354.51,0.002013011835515499,-0.001953910570591688,0.0002964943996630609,7.531851588282734e-05,-0.0006198938353918493,0.0010315716499462724,0.006080571096390486,0.03,0.03,-0.03,584.08
1778782187.95972919,71144864,0,0.1,0.08,354.51,0.0019051524577662349,-0.0020739466417580843,-0.00012930699449498206,-5.962687737337546e-06,-0.0005619588773697615,0.0007152273901738226,-0.003978651482611895,0.03,0.03,-0.03,584.09
1778782187.95972919,71144864,1,0.1,0.08,354.51,0.0018919940339401364,-0.0018382747657597065,0.00029724425985477865,6.5069820266217e-05,-0.0005169197102077305,0.0008938901009969413,0.006087920628488064,0.03,0.03,-0.03,584.08
1778782188.05968904,71244824,0,0.1,0.08,354.51,0.0016804648330435157,-0.0018244263483211398,-0.0001266507460968569,-2.222084049208206e-06,-0.0004515527980402112,0.0006000051507726312,-0.00397965032607317,0.03,0.03,-0.03,584.09
1778782188.05968904,71244824,1,0.1,0.08,354.51,0.0017243445618078113,-0.0015717216301709414,0.0003590918786358088,0.00014901036047376692,-0.00041039776988327503,0.000758295995183289,0.006100764498114586,0.03,0.03,-0.03,584.08
1778782188.15964913,71344784,0,0.1,0.09,354.5,0.001398832187987864,-0.001597475609742105,-0.00010989193833665922,1.3672864042746369e-05,-0.0003971661499235779,0.0005395852494984865,-0.003981287591159344,0.03,0.03,-0.03,584.09
1778782188.15964913,71344784,1,0.1,0.08,354.51,0.0014259859453886747,-0.0012802601559087634,0.0003497210855130106,0.00015645859821233898,-0.00035005566314794123,0.0006857277476228774,0.006116852629929781,0.03,0.03,-0.03,584.08
1778782188.25960922,71444744,0,0.1,0.09,354.5,0.0011706164805218577,-0.0012789973989129066,-7.51292027416639e-05,5.477928425534628e-05,-0.00034523929934948683,0.0004792455001734197,-0.003977153450250626,0.03,0.03,-0.03,584.09
1778782188.25960922,71444744,1,0.11,0.08,354.51,0.0012113814009353518,-0.0009644225938245654,0.0002476588124409318,4.0149006963474676e-05,-0.0002972778456751257,0.0006094055133871734,0.006126565858721733,0.03,0.03,-0.03,584.08
1778782188.35956907,71544704,0,0.1,0.09,354.5,0.0009182561771012843,-0.0009578876779414713,-9.067227074410766e-05,4.6831883082631975e-05,-0.0003363954310771078,0.00047177026863209903,-0.003973613493144512,0.03,0.03,-0.03,584.09
1778782188.35956907,71544704,1,0.11,0.08,354.5,0.0010014130966737866,-0.0005999587592668831,0.00010672428470570594,-0.00012610822159331292,-0.00028410551021806896,0.0005975879612378776,0.006122072227299213,0.03,0.03,-0.03,584.08
1778782188.45952916,71644664,0,0.1,0.09,354.5,0.0006613167352043092,-0.0006110385875217617,-8.707527740625665e-05,4.301434091757983e-05,-0.0003215773031115532,0.0004596704675350338,-0.003969136159867048,0.03,0.03,-0.03,584.09
1778782188.45952916,71644664,1,0.11,0.09,354.5,0.0006640875362791121,-0.00043156524770893157,0.00012999921455048025,-8.753663132665679e-05,-0.00027203417266719043,0.0005700545734725893,0.0061145988292992115,0.03,0.03,-0.03,584.08
1778782188.55948901,71744624,0,0.11,0.09,354.5,0.0004340583982411772,-0.0002651818795129657,-9.512058750260621e-05,2.6807114409166388e-05,-0.00034451778628863394,0.0004933035233989358,-0.003968738950788975,0.03,0.03,-0.03,584.09
1778782188.55948901,71744624,1,0.11,0.09,354.5,0.0002831326564773917,3.6475499655352905e-05,0.00020768838294316083,1.2972239346709102e-05,-0.0003210859140381217,0.0006141752819530666,0.006113751791417599,0.03,0.03,-0.03,584.08
1778782188.65944910,71844584,0,0.11,0.1,354.49,0.00010219400428468361,0.00015120854368433356,-0.0001029966224450618,2.3161364879342727e-05,-0.0003575157606974244,0.0005167603958398104,-0.003965292125940323,0.03,0.03,-0.03,584.09
1778782188.65944910,71844584,1,0.11,0.09,354.5,-5.37117593921721e-05,0.0002960481506306678,0.00019775181135628372,4.2259001929778606e-05,-0.0003524039639160037,0.0006331944023258984,0.006116106174886227,0.03,0.03,-0.03,584.08
1778782188.75940919,71944544,0,0.11,0.1,354.49,-0.00024316282360814512,0.0004859457549173385,-4.789161903318018e-05,8.437388169113547e-05,-0.0004120224039070308,0.0005909350584261119,-0.003960029222071171,0.03,0.03,-0.03,584.09
1778782188.75940919,71944544,1,0.11,0.09,354.49,-0.0002988381020259112,0.000597279635258019,0.00020114754443056881,5.800762664875947e-05,-0.0004138675576541573,0.0006884681642986834,0.006121586076915264,0.03,0.03,-0.03,584.08
1778782188.85936904,72044504,0,0.11,0.1,354.49,-0.0005035422509536147,0.0009046519990079105,-6.78319702274166e-05,4.573149635689333e-05,-0.0004668297478929162,0.0006642347434535623,-0.0039541395381093025,0.03,0.03,-0.03,584.09
1778782188.85936904,72044504,1,0.11,0.09,354.49,-0.0006524535710923374,0.0008991981158033013,0.00028040813049301505,0.000141151700518094,-0.0004598484665621072,0.0007175799109973013,0.006131298840045929,0.03,0.03,-0.03,584.08
1778782188.95932913,72144464,0,0.11,0.1,354.49,-0.0007558400393463671,0.0013228885363787413,-7.043012010399252e-05,3.279732845840044e-05,-0.0005313415895216167,0.0007584812701679766,-0.003950327634811401,0.03,0.03,-0.03,584.09
1778782188.95932913,72144464,1,0.12,0.1,354.49,-0.0009620242635719478,0.0013428409583866596,0.000204215117264539,5.611138112726621e-05,-0.000544330570846796,0.0007977827335707843,0.00614334549754858,0.03,0.03,-0.03,584.08
1778782189.05928922,72244424,0,0.11,0.1,354.49,-0.0010830778628587723,0.0017009936273097992,-4.368359805084765e-05,4.667933899327181e-05,-0.0005969594931229949,0.0008540606359019876,-0.003948033321648836,0.03,0.03,-0.03,584.09
1778782189.05928922,72244424,1,0.12,0.1,354.49,-0.0012170560657978058,0.0016662708949297667,0.00035670510260388255,0.00019922827777918428,-0.0006053143297322094,0.0008561475551687181,0.006154477130621672,0.03,0.03,-0.03,584.08
1778782189.15924907,72344384,0,0.12,0.1,354.48,-0.0015217376640066504,0.002128247171640396,-3.421074143261649e-05,5.081922790850513e-05,-0.000684246071614325,0.0009679689537733793,-0.003944519441574812,0.03,0.03,-0.03,584.09
1778782189.15924907,72344384,1,0.12,0.1,354.49,-0.0015465724281966686,0.0020866345148533583,0.00031478708842769265,0.00012972709373570979,-0.0007058823248371482,0.0009708016295917332,0.006168722175061703,0.03,0.03,-0.03,584.08
1778782189.26004219,72445177,0,0.12,0.11,354.48,-0.001886705867946148,0.00252535380423069,-3.055669367313385e-05,4.529666330199689e-05,-0.0007805850473232567,0.0010814173147082329,-0.003940005321055651,0.03,0.03,-0.03,584.09
1778782189.26004219,72445177,1,0.12,0.1,354.48,-0.0018998472951352596,0.002518297405913472,0.00024629602557979524,5.139599306858145e-05,-0.0007894827285781503,0.0010693985968828201,0.006177584640681744,0.03,0.03,-0.03,584.08
1778782189.36000204,72545137,0,0.12,0.11,354.48,-0.0022103104274719954,0.002963787177577615,-3.6007764720125124e-05,3.703472248162143e-05,-0.0008960904087871313,0.0012146920198574662,-0.003937557805329561,0.03,0.03,-0.03,584.09
1778782189.36000204,72545137,1,0.12,0.1,354.48,-0.002362780272960663,0.0029924591071903706,0.000345663633197546,0.00012009705824311823,-0.0009199446649290621,0.001225625048391521,0.006187639199197292,0.03,0.03,-0.03,584.08
1778782189.45996213,72645097,0,0.12,0.11,354.48,-0.0025657243095338345,0.0034179966896772385,-8.504636207362637e-05,-1.3673676221515052e-05,-0.0010076405014842749,0.0013487559044733644,-0.003935656044632196,0.03,0.03,-0.03,584.09
1778782189.45996213,72645097,1,0.13,0.1,354.48,-0.0027343337424099445,0.003412541002035141,0.0002752369618974626,5.361130752135068e-05,-0.0010187363950535655,0.0013476577587425709,0.006195025518536568,0.03,0.03,-0.03,584.08
1778782189.55992222,72745057,0,0.12,0.11,354.47,-0.0029667222406715155,0.003881611628457904,-9.072542889043689e-05,-1.5786392395966686e-05,-0.0011384771205484867,0.0015089224325492978,-0.003935854882001877,0.03,0.03,-0.03,584.09
1778782189.55992222,72745057,1,0.13,0.11,354.48,-0.003175359219312668,0.003886604681611061,0.00015625431842636317,-6.311231118161231e-05,-0.0011758279288187623,0.0015284559922292829,0.006196268368512392,0.03,0.03,-0.03,584.08
1778782189.65988207,72845017,0,0.13,0.11,354.47,-0.0033398002851754427,0.004298646934330463,-4.5645192585652694e-05,2.6397639885544777e-05,-0.0012681731022894382,0.0016654840437695384,-0.003936144057661295,0.03,0.03,-0.03,584.09
1778782189.65988207,72845017,1,0.13,0.11,354.47,-0.0034154511522501707,0.004311927128583193,0.00014652959362138063,-5.6934382882900536e-05,-0.0012904830509796739,0.001664879615418613,0.006191933527588844,0.03,0.03,-0.03,584.08
1778782189.75984216,72944977,0,0.13,0.12,354.47,-0.0036998619325459003,0.004772322718054056,-2.9400182029348798e-05,4.481904034037143e-05,-0.001417040592059493,0.001845790189690888,-0.003932582680135965,0.03,0.03,-0.03,584.09
1778782189.75984216,72944977,1,0.13,0.11,354.47,-0.0038901097141206264,0.004727758001536131,6.58578283037059e-05,-0.00012318394146859646,-0.0014576661633327603,0.001858987146988511,0.006186141166836023,0.03,0.03,-0.03,584.08
1778782189.85980201,73044937,0,0.13,0.12,354.47,-0.00404459098353982,0.005256272852420807,-2.1355164790293202e-05,4.6546054363716394e-05,-0.001558764954097569,0.002025405177846551,-0.003927924204617739,0.03,0.03,-0.03,584.09
1778782189.85980201,73044937,1,0.13,0.11,354.47,-0.004400423262268305,0.005200027953833342,-8.730864465178456e-06,-0.0001537862844998017,-0.001598756411112845,0.002008316572755575,0.006174239329993725,0.03,0.03,-0.03,584.08
1778782189.95976210,73144897,0,0.13,0.12,354.46,-0.004409448709338903,0.0057915253564715385,-1.4489379282167647e-05,5.025872451369651e-05,-0.0017196857370436192,0.0022335101384669542,-0.003923157695680857,0.03,0.03,-0.03,584.09
1778782189.95976210,73144897,1,0.14,0.11,354.47,-0.004804197698831558,0.005663022398948669,3.7431229884532513e-06,-0.00010554365144344047,-0.0018003698205575347,0.0022313694935292006,0.006162773352116346,0.03,0.03,-0.03,584.08
1778782190.05972219,73244857,0,0.13,0.12,354.46,-0.004833419807255268,0.006278378888964653,-4.425774022820406e-05,1.3079277778160758e-05,-0.00187818449921906,0.0024387806188315153,-0.003919214475899935,0.03,0.03,-0.03,584.09
1778782190.05972219,73244857,1,0.14,0.11,354.46,-0.005124113522469997,0.0060844020918011665,-0.00020197450066916645,-0.0002679333265405148,-0.0019512198632583022,0.002390995854511857,0.006144275888800621,0.03,0.03,-0.03,584.08
1778782190.15968204,73344817,0,0.13,0.12,354.46,-0.005216716788709164,0.006766019854694605,-3.90488603443373e-05,1.3587345165433362e-05,-0.002059909515082836,0.0026699944864958525,-0.003918569069355726,0.03,0.03,-0.03,584.09
1778782190.15968204,73344817,1,0.14,0.12,354.46,-0.005514139775186777,0.0066334642469882965,-0.0002722438075579703,-0.0003066999197471887,-0.0021637368481606245,0.0026352712884545326,0.00611233152449131,0.03,0.03,-0.03,584.08
1778782190.25964212,73444777,0,0.14,0.12,354.46,-0.005679173860698938,0.007258288096636534,-8.682738553034142e-05,-3.8265276089077815e-05,-0.0022378559224307537,0.0028939228504896164,-0.003919456619769335,0.03,0.03,-0.03,584.09
1778782190.25964212,73444777,1,0.14,0.12,354.46,-0.005715436302125454,0.007140886038541794,-0.00026866747066378593,-0.0002117239055223763,-0.002298320410773158,0.0028066046070307493,0.006092887371778488,0.03,0.03,-0.03,584.08
1778782190.35960221,73544737,0,0.14,0.13,354.46,-0.006069173105061054,0.007741644512861967,-7.90025878814049e-05,-3.0451075872406363e-05,-0.002443258184939623,0.00314545095898211,-0.003923759795725346,0.03,0.03,-0.03,584.09
1778782190.35960221,73544737,1,0.14,0.12,354.46,-0.006087355315685272,0.007747500669211149,-0.00027385790599510074,-0.00011883400293299928,-0.0025126251857727766,0.0031002454925328493,0.006075569428503513,0.03,0.03,-0.03,584.08
1778782190.45956206,73644697,0,0.14,0.13,354.45,-0.0065274108201265335,0.008169379085302353,-6.760875839972869e-05,-8.81963933352381e-06,-0.002639901591464877,0.0033823123667389154,-0.003924307879060507,0.03,0.03,-0.03,584.09
1778782190.45956206,73644697,1,0.14,0.12,354.46,-0.006441272795200348,0.008235846646130085,-0.0003160478372592479,-0.00010537500929785892,-0.002673362148925662,0.003321134252473712,0.00607031537219882,0.03,0.03,-0.03,584.08
1778782190.55952215,73744657,0,0.14,0.13,354.45,-0.00695030065253377,0.008663143031299114,-8.325641101691872e-05,-5.814553787786281e-06,-0.002862069522961974,0.00364459166303277,-0.00392419658601284,0.03,0.03,-0.03,584.09
1778782190.55952215,73744657,1,0.15,0.12,354.45,-0.006905910558998585,0.008829695172607899,-0.00038705678889527917,-0.00013845959620084614,-0.002906649839133024,0.003639796981588006,0.00605269568040967,0.03,0.03,-0.02,584.08
1778782190.65948200,73844617,0,0.14,0.13,354.45,-0.0072864023968577385,0.009084798395633698,-7.811431714799255e-05,9.748482625582255e-07,-0.003073725150898099,0.003892065491527319,-0.003926218021661043,0.03,0.03,-0.03,584.09
1778782190.65948200,73844617,1,0.15,0.12,354.45,-0.007293743081390858,0.009395105764269829,-0.0003353900683578104,-5.144614624441601e-05,-0.0030823268461972475,0.003881735960021615,0.006041255779564381,0.03,0.03,-0.02,584.08
1778782190.75944209,73944577,0,0.14,0.13,354.45,-0.007708926219493151,0.009580506943166256,-9.839065023697913e-05,-1.6346761185559444e-05,-0.003306397469714284,0.004167676437646151,-0.003928962629288435,0.03,0.03,-0.02,584.09
1778782190.75944209,73944577,1,0.15,0.13,354.45,-0.007646453566849232,0.009979411028325558,-0.00031854325789026916,1.7892990911150264e-07,-0.0033315629698336124,0.0042241415940225124,0.006036731880158186,0.03,0.03,-0.02,584.08
1778782190.85940218,74044537,0,0.15,0.14,354.44,-0.008111784234642982,0.010094382800161839,-0.0001271248620469123,-4.065599205205217e-05,-0.003530138870701194,0.0044331918470561504,-0.003933142405003309,0.03,0.03,-0.02,584.09
1778782190.85940218,74044537,1,0.15,0.13,354.45,-0.008023792877793312,0.01043661218136549,-0.00025625943089835346,7.537374767707661e-05,-0.003514667274430394,0.00448133097961545,0.0060401675291359425,0.03,0.03,-0.02,584.08
1778782190.95936203,74144497,0,0.15,0.14,354.44,-0.00854415725916624,0.010614081285893917,-0.00010567426943453029,-6.612925972149242e-06,-0.0037793274968862534,0.004732244648039341,-0.003935989458113909,0.03,0.03,-0.02,584.09
1778782190.95936203,74144497,1,0.15,0.13,354.44,-0.008312085643410683,0.0109513308852911,-0.0005003378028050065,-0.00016615971981082112,-0.0037269822787493467,0.0047784605994820595,0.006032941862940788,0.03,0.03,-0.02,584.08
1778782191.05932212,74244457,0,0.15,0.14,354.44,-0.008926697075366974,0.011066336184740067,-0.012987100519239902,-0.012808123603463173,-0.004013609141111374,0.005015099421143532,-0.004124890081584454,0.03,0.03,-0.02,584.09
1778782191.05932212,74244457,1,0.15,0.13,354.44,-0.00862939190119505,0.011481093242764473,-0.013304480351507664,-0.012921465560793877,-0.003927567973732948,0.005064396187663078,0.005830293986946344,0.03,0.03,-0.02,584.08
1778782191.15928221,74344417,0,0.15,0.14,354.43,-0.009412506595253944,0.011734801344573498,-0.07284989953041077,-0.07235708087682724,-0.0042773582972586155,0.00533817196264863,-0.008600211702287197,0.03,0.03,-0.02,584.09
1778782191.15928221,74344417,1,0.16,0.13,354.44,-0.009165558032691479,0.012314802035689354,-0.07308395951986313,-0.0724109411239624,-0.004214249551296234,0.00547173572704196,0.001342416973784566,0.03,0.03,-0.02,584.08
1778782191.25924206,74444377,0,0.15,0.14,354.43,-0.009889413602650166,0.012402868829667568,-0.13005183637142181,-0.12979504466056824,-0.004532196559011936,0.005657033529132605,-0.01879662461578846,0.03,0.03,-0.02,584.09
1778782191.25924206,74444377,1,0.16,0.14,354.43,-0.009805223904550076,0.012889561243355274,-0.13028645515441895,-0.1304856687784195,-0.004436798859387636,0.005779972765594721,-0.00894888024777174,0.03,0.03,-0.02,584.08
1778782191.36003518,74545170,0,0.15,0.14,354.43,-0.010497166775166988,0.013054732233285904,-0.18352925777435303,-0.18349358439445496,-0.0048256488516926765,0.006024002097547054,-0.03455987200140953,0.03,0.03,-0.02,584.09
1778782191.36003518,74545170,1,0.16,0.14,354.43,-0.010421018116176128,0.013622398488223553,-0.1837698370218277,-0.1851002275943756,-0.004769907332956791,0.006221422925591469,-0.024837125092744827,0.03,0.03,-0.02,584.08
1778782191.45999503,74645130,0,0.16,0.15,354.43,-0.010967997834086418,0.013673227280378342,-0.23696932196617126,-0.23483207821846008,-0.005109868478029966,0.006375999189913273,-0.05533348396420479,0.03,0.03,-0.02,584.09
1778782191.45999503,74645130,1,0.16,0.14,354.43,-0.010976068675518036,0.014361478388309479,-0.23746857047080994,-0.23607346415519714,-0.005094665568321943,0.006639796309173107,-0.04566376283764839,0.03,0.03,-0.02,584.08
1778782191.55995512,74745090,0,0.16,0.15,354.42,-0.011468811891973019,0.014352385886013508,-0.2936481535434723,-0.28864163160324097,-0.0054273116402328014,0.006772133056074381,-0.08148519694805145,0.03,0.03,-0.02,584.09
1778782191.55995512,74745090,1,0.16,0.14,354.43,-0.011433662846684456,0.014864897355437279,-0.2942396104335785,-0.28880906105041504,-0.005432257428765297,0.00708075100556016,-0.07181882858276367,0.03,0.03,-0.02,584.08
1778782191.65991521,74845050,0,0.16,0.15,354.42,-0.011972927488386631,0.014950718730688095,-0.35470718145370483,-0.34977877140045166,-0.005736341699957848,0.007159283384680748,-0.11378011107444763,0.03,0.03,-0.02,584.09
1778782191.65991521,74845050,1,0.16,0.14,354.42,-0.011893082410097122,0.015475308522582054,-0.3554169833660126,-0.34988176822662354,-0.005754787940531969,0.007485027890652418,-0.10414529591798782,0.03,0.03,-0.02,584.08
1778782191.75987506,74945010,0,0.05,0.04,354.42,-0.012403415516018867,0.015391993336379528,-0.6942476630210876,-0.6868690252304077,-0.006071987096220255,0.007571842055767775,-0.16082237660884857,0.03,0.03,-0.02,584.09
1778782191.75987506,74945010,1,0.06,0.04,354.42,-0.012183577753603458,0.01597791537642479,-0.6958449482917786,-0.6879568696022034,-0.006083460059016943,0.007914113812148571,-0.1512686163187027,0.03,0.03,-0.02,584.08
1778782191.85983515,75044970,0,-0.09,-0.09,354.42,-0.01103801280260086,0.013695767149329185,-1.113167643547058,-1.134156346321106,-0.006296530365943909,0.007824786938726902,-0.2570503056049347,0.03,0.04,-0.02,584.09
1778782191.85983515,75044970,1,-0.08,-0.09,354.42,-0.010920289903879166,0.01435867790132761,-1.11491858959198,-1.1349704265594482,-0.006297444459050894,0.008182444609701633,-0.24757082760334015,0.03,0.03,-0.02,584.08
1778782191.95979500,75144930,0,-0.17,-0.17,354.42,-0.008145222440361977,0.010071467608213425,-1.251162052154541,-1.3186299800872803,-0.0062891701236367226,0.007772679906338453,-0.3833780586719513,0.03,0.04,-0.02,584.09
1778782191.95979500,75144930,1,-0.17,-0.18,354.43,-0.007951981388032436,0.010577449575066566,-1.2525634765625,-1.3205682039260864,-0.006184002850204706,0.008010199293494225,-0.374542772769928,0.03,0.03,-0.02,584.08
1778782192.05975509,75244890,0,-0.2,-0.2,354.43,-0.0038931863382458687,0.004643412306904793,-1.2143219709396362,-1.242793083190918,-0.0058420985005795956,0.007159040775150061,-0.5074355006217957,0.03,0.04,-0.02,584.09
1778782192.05975509,75244890,1,-0.19,-0.2,354.43,-0.0037309988401830196,0.0050728581845760345,-1.214951515197754,-1.2364985942840576,-0.0056936354376375675,0.007347409147769213,-0.4974963366985321,0.03,0.04,-0.02,584.08
1778782192.15971518,75344850,0,-0.16,-0.16,354.43,0.001001186203211546,-0.0015977928414940834,-1.1577057838439941,-1.1263667345046997,-0.004909518174827099,0.005921437870711088,-0.6229828000068665,0.03,0.04,-0.02,584.09
1778782192.15971518,75344850,1,-0.16,-0.17,354.43,0.0010325568728148937,-0.0010638405801728368,-1.1582428216934204,-1.124556064605713,-0.004816251806914806,0.0061823357827961445,-0.6131733655929565,0.03,0.04,-0.02,584.08
1778782192.25967503,75444810,0,-0.1,-0.1,354.43,0.005285446532070637,-0.007110993843525648,-1.159256935119629,-1.1407471895217896,-0.0034893942065536976,0.004065133631229401,-0.7380697131156921,0.03,0.04,-0.02,584.09
1778782192.25967503,75444810,1,-0.1,-0.11,354.43,0.005360079929232597,-0.006706522777676582,-1.1597356796264648,-1.1398335695266724,-0.0033527405466884375,0.004257610067725182,-0.7281579375267029,0.03,0.04,-0.02,584.08
1778782192.35963511,75544770,0,-0.03,-0.02,354.43,0.008144482038915157,-0.010875704698264599,-1.2201756238937378,-1.229757308959961,-0.0017304829088971019,0.001769677153788507,-0.8581549525260925,0.03,0.04,-0.02,584.09
1778782192.35963511,75544770,1,-0.02,-0.03,354.43,0.008321191184222698,-0.010507551021873951,-1.2205549478530884,-1.226250171661377,-0.0016217408701777458,0.0019921166822314262,-0.8479135632514954,0.03,0.04,-0.02,584.08
1778782192.45959520,75644730,0,0.05,0.04,354.43,0.009584606625139713,-0.012849091552197933,-1.3134220838546753,-1.3394955396652222,0.0002018712111748755,-0.00094754429301247,-0.9870675206184387,0.03,0.04,-0.02,584.09
1778782192.45959520,75644730,1,0.05,0.03,354.43,0.009775240905582905,-0.012640221044421196,-1.3139429092407227,-1.3379417657852173,0.00036957376869395375,-0.0008450393797829747,-0.9767799377441406,0.03,0.04,-0.02,584.08
1778782192.55955505,75744690,0,0.11,0.1,354.43,0.009684842079877853,-0.013230303302407265,-1.4158577919006348,-1.4500126838684082,0.00215048436075449,-0.003814893076196313,-1.126430630683899,0.03,0.04,-0.02,584.09
1778782192.55955505,75744690,1,0.12,0.1,354.43,0.00986382644623518,-0.012950382195413113,-1.4163868427276611,-1.4501259326934814,0.002307388000190258,-0.003693697275593877,-1.1161161661148071,0.03,0.04,-0.02,584.08
1778782192.65951514,75844650,0,0.17,0.15,354.43,0.008879385888576508,-0.012292160652577877,-1.5162662267684937,-1.5488475561141968,0.004237669054418802,-0.006666249595582485,-1.27577543258667,0.03,0.04,-0.02,584.09
1778782192.65951514,75844650,1,0.18,0.15,354.43,0.009257441386580467,-0.012056941166520119,-1.5166785717010498,-1.550288438796997,0.00455044861882925,-0.006729348096996546,-1.2655560970306396,0.03,0.04,-0.02,584.08
1778782192.75947523,75944610,0,0.22,0.2,354.43,0.007333178073167801,-0.010210531763732433,-1.6159024238586426,-1.6436339616775513,0.00628456799313426,-0.009329610504209995,-1.4349571466445923,0.03,0.04,-0.02,584.09
1778782192.75947523,75944610,1,0.23,0.19,354.43,0.007663263939321041,-0.009943203069269657,-1.6162856817245483,-1.6433436870574951,0.006539966911077499,-0.009294056333601475,-1.4246412515640259,0.03,0.04,-0.02,584.08
1778782192.85943508,76044570,0,0.26,0.23,354.43,0.00525875948369503,-0.007318755611777306,-1.7166943550109863,-1.741821527481079,0.008193359710276127,-0.011867293156683445,-1.6039810180664062,0.03,0.04,-0.02,584.09
1778782192.85943508,76044570,1,0.26,0.22,354.43,0.0056620691902935505,-0.0070962137542665005,-1.717111349105835,-1.7402373552322388,0.008500122465193272,-0.011889427900314331,-1.593495488166809,0.03,0.04,-0.02,584.08
1778782192.95939517,76144530,0,0.28,0.25,354.43,0.0028957868926227093,-0.004094247706234455,-1.820015549659729,-1.842868685722351,0.009992930106818676,-0.014292527921497822,-1.783429503440857,0.03,0.04,-0.02,584.09
1778782192.95939517,76144530,1,0.29,0.24,354.43,0.0033069835044443607,-0.0036686668172478676,-1.8204395771026611,-1.8420302867889404,0.010137111879885197,-0.014054376631975174,-1.772624135017395,0.03,0.04,-0.02,584.08
1778782193.05935502,76244490,0,0.29,0.26,354.43,0.0003542666381690651,-0.0005629945662803948,-1.9256724119186401,-1.9490886926651,0.011695693247020245,-0.01648508384823799,-1.9730570316314697,0.03,0.04,-0.02,584.09
1778782193.05935502,76244490,1,0.3,0.25,354.43,0.0007390574901364744,-0.00018536696734372526,-1.9261130094528198,-1.9479596614837646,0.01185841578990221,-0.016238069161772728,-1.962143898010254,0.03,0.04,-0.02,584.08
1778782193.15931511,76344450,0,0.3,0.27,354.43,-0.0023959598038345575,0.0031816898845136166,-2.0323519706726074,-2.0571017265319824,0.013063778169453144,-0.018196722492575645,-2.1735963821411133,0.03,0.04,-0.02,584.09
1778782193.15931511,76344450,1,0.31,0.26,354.43,-0.002074022777378559,0.003671038895845413,-2.03281831741333,-2.0557384490966797,0.013242224231362343,-0.017937779426574707,-2.1624832153320312,0.03,0.04,-0.02,584.08
1778782193.25927520,76444410,0,0.3,0.27,354.43,-0.004976179916411638,0.006766545120626688,-2.1387603282928467,-2.1652486324310303,0.014365565963089466,-0.019934048876166344,-2.38470721244812,0.03,0.04,-0.02,584.09
1778782193.25927520,76444410,1,0.31,0.26,354.43,-0.004828611388802528,0.007283420767635107,-2.1393110752105713,-2.163830280303955,0.014530698768794537,-0.01965533010661602,-2.3734054565429688,0.03,0.04,-0.02,584.08
1778782193.35923505,76544370,0,0.3,0.27,354.43,-0.0076527525670826435,0.010281326249241829,-2.244964122772217,-2.2714040279388428,0.015265111811459064,-0.021170668303966522,-2.6066315174102783,0.03,0.04,-0.02,584.09
1778782193.35923505,76544370,1,0.3,0.26,354.43,-0.007359531708061695,0.01069327536970377,-2.245466470718384,-2.270750045776367,0.015549825504422188,-0.021063020452857018,-2.5953423976898193,0.03,0.04,-0.02,584.08
1778782193.46002817,76645163,0,0.29,0.26,354.43,-0.00996001809835434,0.013345466926693916,-2.3456690311431885,-2.37306547164917,0.016071993857622147,-0.02234446443617344,-2.8389458656311035,0.03,0.04,-0.02,584.09
1778782193.46002817,76645163,1,0.3,0.25,354.43,-0.009591570124030113,0.013881336897611618,-2.346081018447876,-2.3734192848205566,0.016283508390188217,-0.02211740054190159,-2.8275694847106934,0.03,0.04,-0.02,584.08
1778782193.55998802,76745123,0,0.28,0.26,352.6,-0.012070809490978718,0.01635839231312275,-2.4225144386291504,-2.4501793384552,0.016495607793331146,-0.023004187270998955,-3.080395460128784,0.03,0.04,-0.02,584.09
1778782193.55998802,76745123,1,0.29,0.25,352.59,-0.011836321093142033,0.01686961203813553,-2.423009157180786,-2.448914051055908,0.016666609793901443,-0.022688647732138634,-3.0687315464019775,0.03,0.04,-0.02,584.08
1778782193.65994811,76845083,0,0.27,0.25,352.6,-0.013896264135837555,0.01894342713057995,-2.4759938716888428,-2.5036840438842773,0.016766810789704323,-0.02344595268368721,-3.327910900115967,0.03,0.04,-0.02,584.09
1778782193.65994811,76845083,1,0.28,0.25,352.59,-0.01365150511264801,0.01958879455924034,-2.4764978885650635,-2.4977636337280273,0.016897525638341904,-0.02305477112531662,-3.315797805786133,0.03,0.04,-0.02,584.08
1778782193.75990820,76945043,0,0.26,0.25,352.6,-0.015567492693662643,0.021277550607919693,-2.510671854019165,-2.532752275466919,0.016832860186696053,-0.023594189435243607,-3.5817177295684814,0.03,0.04,-0.02,584.09
1778782193.75990820,76945043,1,0.27,0.24,352.59,-0.015233668498694897,0.021931326016783714,-2.511136531829834,-2.525996208190918,0.016943423077464104,-0.02313656359910965,-3.5689804553985596,0.03,0.04,-0.02,584.08
1778782193.85986805,77045003,0,0.25,0.24,352.6,-0.017019232735037804,0.023305697366595268,-2.5302581787109375,-2.554483652114868,0.016762012615799904,-0.02356567420065403,-3.8362298011779785,0.03,0.04,-0.02,584.09
1778782193.85986805,77045003,1,0.26,0.24,352.59,-0.0169027391821146,0.02384713850915432,-2.5306355953216553,-2.5451602935791016,0.0168472770601511,-0.023069804534316063,-3.8226916790008545,0.03,0.04,-0.02,584.08
1778782193.95982814,77144963,0,0.24,0.23,352.61,-0.018275251612067223,0.02493118681013584,-2.538959503173828,-2.5634348392486572,0.016508804634213448,-0.023295285180211067,-4.092214107513428,0.03,0.04,-0.02,584.09
1778782193.95982814,77144963,1,0.24,0.22,352.61,-0.018285633996129036,0.025477880612015724,-2.539236068725586,-2.5534796714782715,0.016557006165385246,-0.022776925936341286,-4.077754974365234,0.03,0.04,-0.02,584.08
1778782194.05978823,77244923,0,0.23,0.21,352.62,-0.019355639815330505,0.026212358847260475,-2.539802312850952,-2.566838264465332,0.016147157177329063,-0.022900482639670372,-4.348748207092285,0.03,0.04,-0.02,584.09
1778782194.05978823,77244923,1,0.23,0.21,352.62,-0.019347604364156723,0.026781974360346794,-2.5399272441864014,-2.555534839630127,0.016165394335985184,-0.022366005927324295,-4.333271026611328,0.03,0.04,-0.02,584.08
1778782194.15974808,77344883,0,0.22,0.2,352.63,-0.020197145640850067,0.027157973498106003,-2.5353829860687256,-2.563159465789795,0.01565166376531124,-0.022342508658766747,-4.60521936416626,0.03,0.04,-0.02,584.09
1778782194.15974808,77344883,1,0.23,0.2,352.62,-0.020213915035128593,0.027752358466386795,-2.535203456878662,-2.551196336746216,0.01564539037644863,-0.021788811311125755,-4.588615417480469,0.03,0.04,-0.02,584.08
1778782194.25970817,77444843,0,0.2,0.19,352.64,-0.02057555504143238,0.027724307030439377,-2.527475118637085,-2.557082414627075,0.01533319428563118,-0.02175508812069893,-4.861118793487549,0.03,0.04,-0.02,584.09
1778782194.25970817,77444843,1,0.21,0.18,352.63,-0.02072702907025814,0.028374651446938515,-2.5270309448242188,-2.5445120334625244,0.015299417078495026,-0.021185357123613358,-4.8433518409729,0.03,0.04,-0.02,584.08
1778782194.35966802,77544803,0,0.2,0.18,352.64,-0.020699871703982353,0.028085961937904358,-2.517418146133423,-2.5464258193969727,0.015093828551471233,-0.02109357714653015,-5.116085052490234,0.03,0.04,-0.02,584.09
1778782194.35966802,77544803,1,0.21,0.17,352.63,-0.02077277936041355,0.028583865612745285,-2.5168864727020264,-2.5348544120788574,0.01520481240004301,-0.020722780376672745,-5.0973429679870605,0.03,0.04,-0.02,584.08
1778782194.45962811,77644763,0,0.2,0.18,352.64,-0.020488401874899864,0.02821158617734909,-2.506915807723999,-2.5354151725769043,0.015205390751361847,-0.020477788522839546,-5.369947910308838,0.03,0.04,-0.02,584.09
1778782194.45962811,77644763,1,0.2,0.18,352.63,-0.020633503794670105,0.02885093353688717,-2.506304979324341,-2.5275330543518066,0.015211177989840508,-0.020002149045467377,-5.3503875732421875,0.03,0.04,-0.02,584.08
1778782194.55958819,77744723,0,0.2,0.19,352.64,-0.020407531410455704,0.028299467638134956,-2.4967546463012695,-2.5235462188720703,0.01548623014241457,-0.019842132925987244,-5.622646808624268,0.03,0.04,-0.02,584.09
1778782194.55958819,77744723,1,0.2,0.19,352.63,-0.020505379885435104,0.028988245874643326,-2.4960150718688965,-2.5147759914398193,0.015424243174493313,-0.01928745023906231,-5.602116584777832,0.03,0.04,-0.02,584.08
1778782194.65954804,77844683,0,0.19,0.19,352.64,-0.020215269178152084,0.028147229924798012,-2.487423896789551,-2.512852430343628,0.015954798087477684,-0.019278481602668762,-5.874240875244141,0.03,0.04,-0.02,584.09
1778782194.65954804,77844683,1,0.2,0.19,352.64,-0.020492713898420334,0.028827199712395668,-2.486433982849121,-2.5019779205322266,0.015841295942664146,-0.018678445369005203,-5.85262393951416,0.03,0.04,-0.02,584.08
1778782194.75950813,77944643,0,0.19,0.2,352.64,-0.02006625570356846,0.027965456247329712,-2.479607582092285,-2.5035269260406494,0.016478313133120537,-0.018724989145994186,-6.124901294708252,0.03,0.04,-0.02,584.09
1778782194.75950813,77944643,1,0.2,0.2,352.64,-0.020385928452014923,0.028650550171732903,-2.4785194396972656,-2.4915692806243896,0.016322599723935127,-0.018095772713422775,-6.102113246917725,0.03,0.04,-0.02,584.08
1778782194.85946822,78044603,0,0.18,0.21,352.64,-0.01998225599527359,0.027545265853405,-2.47343373298645,-2.4966909885406494,0.016874605789780617,-0.018261579796671867,-6.374773979187012,0.03,0.04,-0.02,584.09
1778782194.85946822,78044603,1,0.19,0.2,352.63,-0.020341889932751656,0.028277181088924408,-2.4720723628997803,-2.4838707447052,0.016690749675035477,-0.017615657299757004,-6.350771427154541,0.03,0.04,-0.02,584.08
1778782194.95942807,78144563,0,0.18,0.21,352.64,-0.020081931725144386,0.027012798935174942,-2.4681897163391113,-2.4908714294433594,0.01711135171353817,-0.017829742282629013,-6.624040126800537,0.03,0.04,-0.02,584.09
1778782194.95942807,78144563,1,0.19,0.21,352.63,-0.020467454567551613,0.027758954092860222,-2.466585636138916,-2.4776246547698975,0.016907567158341408,-0.01717226766049862,-6.598789691925049,0.03,0.04,-0.02,584.08
1778782195.05938816,78244523,0,0.18,0.22,352.64,-0.02029273845255375,0.02640443854033947,-2.4642674922943115,-2.485902786254883,0.017056897282600403,-0.017494970932602882,-6.872631072998047,0.03,0.04,-0.02,584.09
1778782195.05938816,78244523,1,0.19,0.22,352.63,-0.020504780113697052,0.02684985101222992,-2.4624695777893066,-2.4734930992126465,0.0170871801674366,-0.01716718263924122,-6.846288204193115,0.03,0.04,-0.02,584.08
1778782195.15934801,78344483,0,0.18,0.22,352.63,-0.020650122314691544,0.025713086128234863,-2.4618091583251953,-2.481372117996216,0.016756776720285416,-0.017197344452142715,-7.120830535888672,0.03,0.04,-0.02,584.09
1778782195.15934801,78344483,1,0.19,0.22,352.63,-0.02082536183297634,0.026291459798812866,-2.4600112438201904,-2.472325086593628,0.016691608354449272,-0.016754528507590294,-7.093608379364014,0.03,0.04,-0.02,584.08
1778782195.25930810,78444443,0,0.17,0.22,352.63,-0.021068541333079338,0.024939268827438354,-2.4603817462921143,-2.478818655014038,0.01629284955561161,-0.01701490953564644,-7.368675231933594,0.03,0.04,-0.02,584.09
1778782195.25930810,78444443,1,0.18,0.22,352.63,-0.021361464634537697,0.025547176599502563,-2.458444595336914,-2.469841957092285,0.016158713027834892,-0.016493521630764008,-7.340466499328613,0.03,0.04,-0.02,584.08
1778782195.35926819,78544403,0,0.17,0.22,352.63,-0.021472696214914322,0.024041268974542618,-2.4595584869384766,-2.47615385055542,0.01566963642835617,-0.016882343217730522,-7.616276741027832,0.03,0.04,-0.02,584.09
1778782195.35926819,78544403,1,0.18,0.22,352.63,-0.021793227642774582,0.024859018623828888,-2.4575181007385254,-2.4653522968292236,0.015493283048272133,-0.016304774209856987,-7.58693265914917,0.03,0.04,-0.02,584.08
1778782195.45922804,78644363,0,0.19,0.22,352.63,-0.021800493821501732,0.023329921066761017,-2.460059881210327,-2.4754340648651123,0.014950009062886238,-0.016839664429426193,-7.86368989944458,0.03,0.04,-0.02,584.09
1778782195.45922804,78644363,1,0.2,0.22,352.63,-0.022130772471427917,0.024238549172878265,-2.4578473567962646,-2.4631643295288086,0.014744902960956097,-0.016213320195674896,-7.833161354064941,0.03,0.04,-0.02,584.08
1778782195.56002116,78745156,0,0.2,0.2,352.63,-0.021921126171946526,0.023031603544950485,-2.461383581161499,-2.474776029586792,0.014134896919131279,-0.01678290404379368,-8.111087799072266,0.03,0.04,-0.02,584.09
1778782195.56002116,78745156,1,0.21,0.2,352.63,-0.02219049632549286,0.02374196983873844,-2.458982229232788,-2.4620771408081055,0.01403849758207798,-0.01634681411087513,-8.079345703125,0.03,0.04,-0.02,584.08
1778782195.65998101,78845116,0,0.21,0.19,352.63,-0.021775346249341965,0.022828273475170135,-2.463034152984619,-2.475701093673706,0.013307889923453331,-0.01673653908073902,-8.358498573303223,0.03,0.04,-0.02,584.09
1778782195.65998101,78845116,1,0.22,0.19,352.63,-0.02210387960076332,0.02361328899860382,-2.460716724395752,-2.4652225971221924,0.013150585815310478,-0.016199834644794464,-8.325831413269043,0.03,0.04,-0.02,584.08
1778782195.75994110,78945076,0,0.22,0.19,352.63,-0.021483374759554863,0.022815225645899773,-2.464733839035034,-2.476078510284424,0.012459845282137394,-0.016622649505734444,-8.606011390686035,0.03,0.04,-0.02,584.09
1778782195.75994110,78945076,1,0.23,0.19,352.63,-0.02189723402261734,0.023485282436013222,-2.4623711109161377,-2.4704558849334717,0.012267651036381721,-0.016033602878451347,-8.572832107543945,0.03,0.04,-0.02,584.08
1778782195.85990119,79045036,0,0.23,0.19,352.63,-0.02111308090388775,0.02285752259194851,-2.4670681953430176,-2.477849006652832,0.011643262580037117,-0.01648462936282158,-8.855640411376953,0.03,0.04,-0.02,584.09
1778782195.85990119,79045036,1,0.23,0.18,352.63,-0.021587198600172997,0.023505229502916336,-2.46467924118042,-2.4766125679016113,0.01142535638064146,-0.015885895118117332,-8.822260856628418,0.03,0.04,-0.02,584.08
1778782195.95986104,79144996,0,0.23,0.18,352.63,-0.020737433806061745,0.02303657867014408,-2.4691169261932373,-2.4783105850219727,0.01085368450731039,-0.016281969845294952,-9.103342056274414,0.03,0.04,-0.02,584.09
1778782195.95986104,79144996,1,0.24,0.18,352.63,-0.021219640970230103,0.02371431514620781,-2.4667162895202637,-2.4799320697784424,0.010615936480462551,-0.015693411231040955,-9.06997299194336,0.03,0.04,-0.02,584.08
1778782196.05982113,79244956,0,0.23,0.18,352.62,-0.02031499147415161,0.02326243929564953,-2.471484899520874,-2.480297565460205,0.010141446255147457,-0.016053199768066406,-9.351163864135742,0.03,0.04,-0.02,584.09
1778782196.05982113,79244956,1,0.24,0.18,352.62,-0.02085088938474655,0.023916497826576233,-2.4691030979156494,-2.4834377765655518,0.00988938007503748,-0.015479096211493015,-9.317956924438477,0.03,0.04,-0.02,584.08
1778782196.15978122,79344916,0,0.23,0.18,352.62,-0.01987251080572605,0.023508960381150246,-2.4738776683807373,-2.4814224243164062,0.00945428479462862,-0.015720006078481674,-9.599153518676758,0.03,0.04,-0.02,584.09
1778782196.15978122,79344916,1,0.23,0.17,352.62,-0.020384225994348526,0.024030162021517754,-2.471416473388672,-2.486172914505005,0.009186170063912868,-0.015159144066274166,-9.566189765930176,0.03,0.04,-0.02,584.08
1778782196.25974107,79444876,0,0.23,0.17,352.62,-0.01932070404291153,0.023725083097815514,-2.4761111736297607,-2.4835257530212402,0.008835737593472004,-0.015359827317297459,-9.84730339050293,0.03,0.04,-0.02,584.09
1778782196.25974107,79444876,1,0.23,0.17,352.62,-0.01982855424284935,0.024088146165013313,-2.4737629890441895,-2.4884345531463623,0.008545559830963612,-0.014812713488936424,-9.814688682556152,0.03,0.04,-0.02,584.08
1778782196.35970116,79544836,0,0.22,0.17,352.62,-0.018762558698654175,0.023824036121368408,-2.4782094955444336,-2.4843482971191406,0.008235611021518707,-0.014909901656210423,-10.09558391571045,0.03,0.04,-0.02,584.09
1778782196.35970116,79544836,1,0.23,0.17,352.62,-0.01920917257666588,0.024104097858071327,-2.4759514331817627,-2.4865047931671143,0.007942255586385727,-0.014400639571249485,-10.0630464553833,0.03,0.04,-0.02,584.08
1778782196.45966101,79644796,0,0.22,0.17,352.62,-0.01819782517850399,0.023846184834837914,-2.480156183242798,-2.4858765602111816,0.007717439904808998,-0.014455045573413372,-10.343972206115723,0.03,0.04,-0.02,584.09
1778782196.45966101,79644796,1,0.22,0.16,352.62,-0.018589841201901436,0.023973124101758003,-2.477932929992676,-2.483842134475708,0.007431838661432266,-0.013992727734148502,-10.311253547668457,0.03,0.04,-0.02,584.08
1778782196.55962110,79744756,0,0.21,0.17,352.62,-0.017632443457841873,0.02376806177198887,-2.4819540977478027,-2.48665189743042,0.007219576742500067,-0.013930322602391243,-10.592517852783203,0.03,0.04,-0.02,584.09
1778782196.55962110,79744756,1,0.22,0.16,352.62,-0.01800299435853958,0.023881182074546814,-2.479780673980713,-2.482114791870117,0.006947435438632965,-0.013515769504010677,-10.559423446655273,0.03,0.04,-0.02,584.08
1778782196.65958118,79844716,0,0.21,0.16,352.62,-0.01708095334470272,0.02359883487224579,-2.483647346496582,-2.488931655883789,0.006799451541155577,-0.013437731191515923,-10.841238975524902,0.03,0.04,-0.02,584.09
1778782196.65958118,79844716,1,0.21,0.16,352.62,-0.017430465668439865,0.023749934509396553,-2.4814822673797607,-2.4825172424316406,0.006544015370309353,-0.013067539781332016,-10.80764389038086,0.03,0.04,-0.02,584.08
1778782196.75954103,79944676,0,0.2,0.17,352.62,-0.01660945825278759,0.02343207225203514,-2.4854960441589355,-2.4900588989257812,0.0063940128311514854,-0.012901744805276394,-11.090081214904785,0.03,0.04,-0.02,584.09
1778782196.75954103,79944676,1,0.21,0.16,352.62,-0.01682530716061592,0.023420970886945724,-2.4832816123962402,-2.4833643436431885,0.006275528576225042,-0.01274365559220314,-11.055944442749023,0.03,0.04,-0.02,584.08
1778782196.85950112,80044636,0,0.2,0.16,352.62,-0.01611202396452427,0.023288903757929802,-2.4871511459350586,-2.491438388824463,0.006077841389924288,-0.012230373919010162,-11.339019775390625,0.03,0.04,-0.02,584.09
1778782196.85950112,80044636,1,0.21,0.16,352.62,-0.016360687091946602,0.023153843358159065,-2.48486328125,-2.4864206314086914,0.005907828453928232,-0.012024834752082825,-11.304516792297363,0.03,0.04,-0.02,584.08
1778782196.95946121,80144596,0,0.2,0.16,352.62,-0.015575754456222057,0.023153839632868767,-2.488532066345215,-2.49184513092041,0.005787705536931753,-0.011407860554754734,-11.588086128234863,0.03,0.04,-0.02,584.09
1778782196.95946121,80144596,1,0.2,0.16,352.62,-0.01581943780183792,0.02305503375828266,-2.486229181289673,-2.487358808517456,0.005590662360191345,-0.011195182800292969,-11.55310344696045,0.03,0.04,-0.02,584.08
1778782197.05942106,80244556,0,0.19,0.17,352.62,-0.015136074274778366,0.02310396172106266,-2.489724636077881,-2.4926984310150146,0.005570241250097752,-0.010366983711719513,-11.83717155456543,0.03,0.04,-0.02,584.09
1778782197.05942106,80244556,1,0.19,0.16,352.62,-0.015550325624644756,0.022943643853068352,-2.4871137142181396,-2.4864439964294434,0.005354829132556915,-0.01016526110470295,-11.801590919494629,0.03,0.04,-0.02,584.08
1778782197.15938115,80344516,0,0.19,0.17,352.62,-0.01481916569173336,0.022983424365520477,-2.4902408123016357,-2.491955280303955,0.005349915940314531,-0.00913490541279316,-12.086296081542969,0.03,0.04,-0.02,584.09
1778782197.15938115,80344516,1,0.19,0.16,352.62,-0.015172943472862244,0.023037686944007874,-2.4876675605773926,-2.484525680541992,0.005119344685226679,-0.008943787775933743,-12.049996376037598,0.03,0.04,-0.02,584.08
1778782197.25934100,80444476,0,0.17,0.17,352.61,-0.01447793934494257,0.022794285789132118,-2.4909982681274414,-2.4899919033050537,0.005179010797291994,-0.007867924869060516,-12.335071563720703,0.03,0.04,-0.02,584.09
1778782197.25934100,80444476,1,0.18,0.16,352.61,-0.014891265891492367,0.022704672068357468,-2.4883809089660645,-2.4843831062316895,0.004944432061165571,-0.007690884172916412,-12.298372268676758,0.03,0.04,-0.02,584.08
1778782197.35930109,80544436,0,0.16,0.17,352.61,-0.014233192428946495,0.022317199036478996,-2.4916648864746094,-2.484563112258911,0.004993138834834099,-0.006559902336448431,-12.583464622497559,0.03,0.04,-0.02,584.09
1778782197.35930109,80544436,1,0.16,0.16,352.61,-0.014660263434052467,0.022242356091737747,-2.489093780517578,-2.4845712184906006,0.004753344226628542,-0.006402813829481602,-12.546792984008789,0.03,0.04,-0.02,584.08
1778782197.45926118,80644396,0,0.14,0.16,352.61,-0.013947040773928165,0.021540610119700432,-2.492501735687256,-2.4815526008605957,0.004874349571764469,-0.005369260441511869,-12.831619262695312,0.03,0.04,-0.02,584.09
1778782197.45926118,80644396,1,0.15,0.16,352.61,-0.014405405148863792,0.021396314725279808,-2.4900691509246826,-2.485623359680176,0.004807553254067898,-0.005364400800317526,-12.795220375061035,0.03,0.04,-0.02,584.08
1778782197.56005406,80745189,0,0.13,0.16,352.61,-0.013604342937469482,0.020584242418408394,-2.4935779571533203,-2.4795639514923096,0.004760902840644121,-0.0042588068172335625,-13.079633712768555,0.03,0.04,-0.02,584.09
1778782197.56005406,80745189,1,0.14,0.16,352.61,-0.014060231857001781,0.020427489653229713,-2.4913337230682373,-2.488764524459839,0.004600836895406246,-0.004193001426756382,-13.044059753417969,0.03,0.04,-0.02,584.08
1778782197.66001415,80845149,0,0.12,0.16,352.61,-0.013393254019320011,0.019574761390686035,-2.495223045349121,-2.4798271656036377,0.004484856501221657,-0.0031403989996761084,-13.327596664428711,0.03,0.04,-0.02,584.09
1778782197.66001415,80845149,1,0.13,0.16,352.62,-0.013784833252429962,0.01926255039870739,-2.493227005004883,-2.4916646480560303,0.00438879057765007,-0.0031526414677500725,-13.29292106628418,0.03,0.04,-0.02,584.08
1778782197.75997400,80945109,0,0.12,0.16,352.61,-0.013272884301841259,0.018515590578317642,-2.4971418380737305,-2.480747699737549,0.004057504236698151,-0.0020207057241350412,-13.575666427612305,0.03,0.04,-0.02,584.09
1778782197.75997400,80945109,1,0.13,0.15,352.61,-0.01379791833460331,0.018310122191905975,-2.495427370071411,-2.49446964263916,0.003867511171847582,-0.001981376437470317,-13.542227745056152,0.03,0.04,-0.02,584.08
1778782197.85993409,81045069,0,0.12,0.16,352.61,-0.01314992643892765,0.0174311101436615,-2.4993417263031006,-2.483064651489258,0.003572413232177496,-0.0010370819363743067,-13.823867797851562,0.03,0.04,-0.02,584.09
1778782197.85993409,81045069,1,0.12,0.15,352.61,-0.013697567395865917,0.017247775569558144,-2.4980008602142334,-2.5004019737243652,0.0033228350803256035,-0.0009658749913796782,-13.792017936706543,0.03,0.04,-0.02,584.08
1778782197.95989418,81145029,0,0.11,0.15,352.61,-0.01307276077568531,0.01627839356660843,-2.5011935234069824,-2.4846031665802,0.0030076622497290373,-0.00013613498595077544,-14.0743408203125,0.03,0.04,-0.02,584.09
1778782197.95989418,81145029,1,0.12,0.15,352.61,-0.013505515642464161,0.016139421612024307,-2.5001604557037354,-2.5047433376312256,0.002731540473178029,-5.055609653936699e-05,-14.04433536529541,0.03,0.04,-0.02,584.08
1778782198.05985403,81244989,0,0.11,0.15,352.61,-0.012936221435666084,0.015076303854584694,-2.5023868083953857,-2.4862613677978516,0.002479590941220522,0.0005743075744248927,-14.32284164428711,0.03,0.04,-0.02,584.09
1778782198.05985403,81244989,1,0.12,0.15,352.61,-0.01337582990527153,0.014885039068758488,-2.50166392326355,-2.5080270767211914,0.002193902153521776,0.0006576037267223,-14.29481029510498,0.03,0.04,-0.02,584.08
1778782198.15981412,81344949,0,0.12,0.14,352.61,-0.012659594416618347,0.014015104621648788,-2.5039162635803223,-2.4878697395324707,0.0019500578055158257,0.001172162126749754,-14.571545600891113,0.03,0.04,-0.02,584.09
1778782198.15981412,81344949,1,0.12,0.14,352.62,-0.013060715049505234,0.013869998045265675,-2.503544569015503,-2.510154962539673,0.0016632596962153912,0.0012447431217879057,-14.54558277130127,0.03,0.04,-0.02,584.08
1778782198.25977421,81444909,0,0.12,0.14,352.61,-0.012291781604290009,0.013115165755152702,-2.505047082901001,-2.4901890754699707,0.0014820231590420008,0.0017730636755004525,-14.820423126220703,0.03,0.04,-0.02,584.09
1778782198.25977421,81444909,1,0.13,0.13,352.62,-0.012730259448289871,0.012808335945010185,-2.5050790309906006,-2.5125226974487305,0.001209632377140224,0.0018223932711407542,-14.796548843383789,0.03,0.04,-0.02,584.08
1778782198.35973406,81544869,0,0.12,0.13,352.61,-0.011828308925032616,0.012274558655917645,-2.50653338432312,-2.492072105407715,0.0010423024650663137,0.002380700781941414,-15.069479942321777,0.03,0.04,-0.02,584.09
1778782198.35973406,81544869,1,0.13,0.13,352.61,-0.012292923405766487,0.012035292573273182,-2.5070276260375977,-2.514071226119995,0.0007821599137969315,0.0024005130399018526,-15.047715187072754,0.03,0.04,-0.02,584.08
1778782198.45969415,81644829,0,0.13,0.14,352.61,-0.011332964524626732,0.011534852907061577,-2.5074830055236816,-2.493891477584839,0.0007210589246824384,0.0028920439071953297,-15.318704605102539,0.03,0.04,-0.02,584.09
1778782198.45969415,81644829,1,0.14,0.13,352.61,-0.011656582355499268,0.011281260289251804,-2.508350133895874,-2.515618085861206,0.00047496595652773976,0.002888321876525879,-15.29903507232666,0.03,0.04,-0.02,584.08
1778782198.55965400,81744789,0,0.13,0.13,352.61,-0.010875485837459564,0.01090072188526392,-2.5084939002990723,-2.4952826499938965,0.00045870651956647635,0.0033546732738614082,-15.568107604980469,0.03,0.04,-0.02,584.09
1778782198.55965400,81744789,1,0.14,0.13,352.62,-0.01109385583549738,0.010651582852005959,-2.5096704959869385,-2.516878843307495,0.0002268837852170691,0.0033375006169080734,-15.550511360168457,0.03,0.04,-0.02,584.08
