timestamp,TimeUS,I,Status,GMS,GWk,NSats,HDop,Lat,Lng,Alt,Spd,GCrs,VZ,Yaw,U
1778782185.20000005,68385135,0,6,411003200,2418,10,1.21,-35.3632621,149.1652374,584.09,0.0,0.0,0.0,0.0,1
1778782185.39992023,68585055,0,6,411003400,2418,10,1.21,-35.3632621,149.1652374,584.09,0.0,0.0,0.0,0.0,1
1778782185.59984016,68784975,0,6,411003600,2418,10,1.21,-35.3632621,149.1652374,584.09,0.0,0.0,0.0,0.0,1
1778782185.79976010,68984895,0,6,411003800,2418,10,1.21,-35.3632621,149.1652374,584.09,0.0,0.0,0.0,0.0,1
1778782185.99968004,69184815,0,6,411004000,2418,10,1.21,-35.3632621,149.1652374,584.09,0.0,0.0,0.0,0.0,1
1778782186.19960022,69384735,0,6,411004200,2418,10,1.21,-35.3632621,149.1652374,584.09,0.0,0.0,0.0,0.0,1
1778782186.39952016,69584655,0,6,411004400,2418,10,1.21,-35.3632621,149.1652374,584.09,0.0,0.0,0.0,0.0,1
1778782186.59944010,69784575,0,6,411004600,2418,10,1.21,-35.3632621,149.1652374,584.09,0.0,0.0,0.0,0.0,1
1778782186.79936004,69984495,0,6,411004800,2418,10,1.21,-35.3632621,149.1652374,584.09,0.0,0.0,0.0,0.0,1
1778782186.99928021,70184415,0,6,411005000,2418,10,1.21,-35.3632621,149.1652374,584.09,0.0,0.0,0.0,0.0,1
1778782187.20003319,70385168,0,6,411005200,2418,10,1.21,-35.3632621,149.1652374,584.09,0.0,0.0,0.0,0.0,1
1778782187.39995313,70585088,0,6,411005400,2418,10,1.21,-35.3632621,149.1652374,584.09,0.0,0.0,0.0,0.0,1
1778782187.59987307,70785008,0,6,411005600,2418,10,1.21,-35.3632621,149.1652374,584.09,0.0,0.0,0.0,0.0,1
1778782187.79979300,70984928,0,6,411005800,2418,10,1.21,-35.3632621,149.1652374,584.09,0.0,0.0,0.0,0.0,1
1778782187.99971318,71184848,0,6,411006000,2418,10,1.21,-35.3632621,149.1652374,584.09,0.0,0.0,0.0,0.0,1
1778782188.19963312,71384768,0,6,411006200,2418,10,1.21,-35.3632621,149.1652374,584.09,0.0,0.0,0.0,0.0,1
1778782188.39955306,71584688,0,6,411006400,2418,10,1.21,-35.3632621,149.1652374,584.09,0.0,0.0,0.0,0.0,1
1778782188.59947300,71784608,0,6,411006600,2418,10,1.21,-35.3632621,149.1652374,584.09,0.0,0.0,0.0,0.0,1
1778782188.79939318,71984528,0,6,411006800,2418,10,1.21,-35.3632621,149.1652374,584.09,0.0,0.0,0.0,0.0,1
1778782188.99931312,72184448,0,6,411007000,2418,10,1.21,-35.3632621,149.1652374,584.09,0.0,0.0,0.0,0.0,1
1778782189.19923306,72384368,0,6,411007200,2418,10,1.21,-35.3632621,149.1652374,584.09,0.0,0.0,0.0,0.0,1
1778782189.39998603,72585121,0,6,411007400,2418,10,1.21,-35.3632621,149.1652374,584.09,0.0,0.0,0.0,0.0,1
1778782189.59990621,72785041,0,6,411007600,2418,10,1.21,-35.3632621,149.1652374,584.09,0.0,0.0,0.0,0.0,1
1778782189.79982615,72984961,0,6,411007800,2418,10,1.21,-35.3632621,149.1652374,584.09,0.0,0.0,0.0,0.0,1
1778782189.99974608,73184881,0,6,411008000,2418,10,1.21,-35.3632621,149.1652374,584.09,0.0,0.0,0.0,0.0,1
1778782190.19966602,73384801,0,6,411008200,2418,10,1.21,-35.3632621,149.1652374,584.09,0.0,0.0,0.0,0.0,1
1778782190.39958620,73584721,0,6,411008400,2418,10,1.21,-35.3632621,149.1652374,584.09,0.0,126.75405883789062,0.0,0.0,1
1778782190.59950614,73784641,0,6,411008600,2418,10,1.21,-35.3632621,149.1652374,584.09,0.0,128.85446166992188,0.0,0.0,1
1778782190.79942608,73984561,0,6,411008800,2418,10,1.21,-35.3632621,149.1652374,584.09,0.0,301.5785217285156,0.0,0.0,1
1778782190.99934602,74184481,0,6,411009000,2418,10,1.21,-35.3632621,149.1652374,584.09,0.0,305.9856872558594,0.0,0.0,1
1778782191.19926620,74384401,0,6,411009200,2418,10,1.21,-35.3632621,149.1652374,584.09,0.0,306.8766784667969,-0.046000003814697266,0.0,1
1778782191.40001917,74585154,0,6,411009400,2418,10,1.21,-35.3632621,149.1652374,584.11,0.0,307.52630615234375,-0.1469999998807907,0.0,1
1778782191.59993911,74785074,0,6,411009600,2418,10,1.21,-35.3632621,149.1652374,584.15,0.0,306.34259033203125,-0.2580000162124634,0.0,1
1778782191.79985905,74984994,0,6,411009800,2418,10,1.21,-35.3632621,149.1652374,584.23,0.0010000000474974513,306.4402160644531,-0.5910000205039978,0.0,1
1778782191.99977922,75184914,0,6,411010000,2418,10,1.21,-35.3632621,149.1652374,584.39,0.00800000037997961,307.03009033203125,-1.055999994277954,0.0,1
1778782192.19969916,75384834,0,6,411010200,2418,10,1.21,-35.3632621,149.1652374,584.63,0.021000001579523087,307.125732421875,-1.1950000524520874,0.0,1
1778782192.39961910,75584754,0,6,411010400,2418,10,1.21,-35.3632621,149.1652373,584.86,0.03400000184774399,307.03759765625,-1.1970000267028809,0.0,1
1778782192.59953904,75784674,0,6,411010600,2418,10,1.21,-35.363262,149.1652373,585.11,0.04200000315904617,306.9924621582031,-1.3480000495910645,0.0,1
1778782192.79945922,75984594,0,6,411010800,2418,10,1.21,-35.363262,149.1652372,585.4,0.04100000113248825,307.2059326171875,-1.5470000505447388,0.0,1
1778782192.99937916,76184514,0,6,411011000,2418,10,1.21,-35.3632619,149.1652371,585.73,0.036000002175569534,307.8650817871094,-1.749000072479248,0.0,1
1778782193.19929910,76384434,0,6,411011200,2418,10,1.21,-35.3632619,149.165237,586.1,0.029000001028180122,309.1060791015625,-1.9580000638961792,0.0,1
1778782193.40005207,76585187,0,6,411011400,2418,10,1.21,-35.3632619,149.165237,586.52,0.021000001579523087,311.1820983886719,-2.1700000762939453,0.0,1
1778782193.59997201,76785107,0,6,411011600,2418,10,1.21,-35.3632619,149.165237,586.97,0.014000000432133675,314.88824462890625,-2.3570001125335693,0.0,1
1778782193.79989219,76985027,0,6,411011800,2418,10,1.21,-35.3632619,149.165237,587.46,0.00800000037997961,322.0221252441406,-2.4750001430511475,0.0,1
1778782193.99981213,77184947,0,6,411012000,2418,10,1.21,-35.3632619,149.165237,587.96,0.003000000026077032,340.2110900878906,-2.5230000019073486,0.0,1
1778782194.19973207,77384867,0,6,411012200,2418,10,1.21,-35.3632618,149.165237,588.46,0.0020000000949949026,39.083248138427734,-2.5290000438690186,0.0,1
1778782194.39965200,77584787,0,6,411012400,2418,10,1.21,-35.3632617,149.165237,588.97,0.0020000000949949026,81.31627655029297,-2.5160000324249268,0.0,1
1778782194.59957218,77784707,0,6,411012600,2418,10,1.21,-35.3632617,149.165237,589.47,0.003000000026077032,95.1524658203125,-2.496000051498413,0.0,1
1778782194.79949212,77984627,0,6,411012800,2418,10,1.21,-35.3632618,149.165237,589.97,0.004000000189989805,106.44910430908203,-2.4770002365112305,0.0,1
1778782194.99941206,78184547,0,6,411013000,2418,10,1.21,-35.3632619,149.165237,590.46,0.006000000052154064,118.06448364257812,-2.4630000591278076,0.0,1
1778782195.19933200,78384467,0,6,411013200,2418,10,1.21,-35.3632619,149.165237,590.95,0.007000000216066837,128.99606323242188,-2.454000234603882,0.0,1
1778782195.39925218,78584387,0,6,411013400,2418,10,1.21,-35.3632619,149.165237,591.44,0.009000000543892384,137.61354064941406,-2.450000047683716,0.0,1
1778782195.60000515,78785140,0,6,411013600,2418,10,1.21,-35.3632619,149.165237,591.93,0.01100000087171793,141.37701416015625,-2.450000047683716,0.0,1
1778782195.79992509,78985060,0,6,411013800,2418,10,1.21,-35.3632619,149.165237,592.42,0.013000000268220901,139.67564392089844,-2.453000068664551,0.0,1
1778782195.99984503,79184980,0,6,411014000,2418,10,1.21,-35.3632619,149.165237,592.91,0.015000000596046448,135.6314697265625,-2.4570000171661377,0.0,1
1778782196.19976521,79384900,0,6,411014200,2418,10,1.21,-35.3632619,149.165237,593.4,0.01600000075995922,131.5244140625,-2.4610002040863037,0.0,1
1778782196.39968514,79584820,0,6,411014400,2418,10,1.21,-35.3632619,149.165237,593.9,0.018000001087784767,127.94429779052734,-2.4660000801086426,0.0,1
1778782196.59960508,79784740,0,6,411014600,2418,10,1.21,-35.3632619,149.165237,594.39,0.01900000125169754,125.052490234375,-2.4700000286102295,0.0,1
1778782196.79952502,79984660,0,6,411014800,2418,10,1.21,-35.3632619,149.1652371,594.89,0.01900000125169754,122.89008331298828,-2.4730000495910645,0.0,1
1778782196.99944520,80184580,0,6,411015000,2418,10,1.21,-35.3632619,149.1652372,595.38,0.020000001415610313,121.33781433105469,-2.4770002365112305,0.0,1
1778782197.19936514,80384500,0,6,411015200,2418,10,1.21,-35.3632619,149.1652372,595.88,0.020000001415610313,120.46573638916016,-2.4790000915527344,0.0,1
1778782197.39928508,80584420,0,6,411015400,2418,10,1.21,-35.3632619,149.1652372,596.38,0.01900000125169754,120.72415924072266,-2.4810001850128174,0.0,1
1778782197.60003805,80785173,0,6,411015600,2418,10,1.21,-35.363262,149.1652373,596.87,0.018000001087784767,122.52302551269531,-2.4830000400543213,0.0,1
1778782197.79995823,80985093,0,6,411015800,2418,10,1.21,-35.363262,149.1652373,597.37,0.015000000596046448,126.00794982910156,-2.4860000610351562,0.0,1
1778782197.99987817,81185013,0,6,411016000,2418,10,1.21,-35.363262,149.1652373,597.87,0.013000000268220901,131.3397216796875,-2.491000175476074,0.0,1
1778782198.19979811,81384933,0,6,411016200,2418,10,1.21,-35.363262,149.1652374,598.37,0.010000000707805157,138.7085723876953,-2.495000123977661,0.0,1
1778782198.39971805,81584853,0,6,411016400,2418,10,1.21,-35.363262,149.1652374,598.87,0.00800000037997961,148.41441345214844,-2.498000144958496,0.0,1
1778782198.59963822,81784773,0,6,411016600,2418,10,1.21,-35.363262,149.1652374,599.37,0.005000000353902578,163.27203369140625,-2.501000165939331,0.0,1
1778782198.79955816,81984693,0,6,411016800,2418,10,1.21,-35.3632621,149.1652374,599.87,0.003000000026077032,192.96817016601562,-2.503000020980835,0.0,1
1778782198.99947810,82184613,0,6,411017000,2418,10,1.21,-35.3632621,149.1652374,600.37,0.004000000189989805,235.5189666748047,-2.505000114440918,0.0,1
1778782199.19939804,82384533,0,6,411017200,2418,10,1.21,-35.3632621,149.1652374,600.87,0.006000000052154064,259.99774169921875,-2.50600004196167,0.0,1
1778782199.39931822,82584453,0,6,411017400,2418,10,1.21,-35.3632621,149.1652374,601.37,0.00800000037997961,272.77362060546875,-2.507000207901001,0.0,1
1778782199.59923816,82784373,0,6,411017600,2418,10,1.21,-35.3632621,149.1652374,601.87,0.009000000543892384,282.3946838378906,-2.50600004196167,0.0,1
1778782199.79999113,82985126,0,6,411017800,2418,10,1.21,-35.3632621,149.1652374,602.37,0.010000000707805157,289.9757995605469,-2.507000207901001,0.0,1
1778782199.99991107,83185046,0,6,411018000,2418,10,1.21,-35.3632621,149.1652374,602.87,0.012000000104308128,295.6304016113281,-2.507000207901001,0.0,1
1778782200.19983101,83384966,0,6,411018200,2418,10,1.21,-35.3632621,149.1652373,603.38,0.013000000268220901,299.8704833984375,-2.507000207901001,0.0,1
1778782200.39975119,83584886,0,6,411018400,2418,10,1.21,-35.3632621,149.1652373,603.88,0.014000000432133675,303.30657958984375,-2.507000207901001,0.0,1
1778782200.59967113,83784806,0,6,411018600,2418,10,1.21,-35.3632621,149.1652373,604.38,0.015000000596046448,306.22882080078125,-2.507000207901001,0.0,1
1778782200.79959106,83984726,0,6,411018800,2418,10,1.21,-35.3632621,149.1652373,604.88,0.01600000075995922,308.9493103027344,-2.507000207901001,0.0,1
1778782200.99951100,84184646,0,6,411019000,2418,10,1.21,-35.3632621,149.1652372,605.38,0.01600000075995922,311.667724609375,-2.502000093460083,0.0,1
1778782201.19943118,84384566,0,6,411019200,2418,10,1.21,-35.363262,149.1652372,605.88,0.017000000923871994,314.179443359375,-2.452000141143799,0.0,1
1778782201.39935112,84584486,0,6,411019400,2418,10,1.21,-35.363262,149.1652372,606.36,0.01600000075995922,316.4222106933594,-2.328000068664551,0.0,1
1778782201.59927106,84784406,0,6,411019600,2418,10,1.21,-35.363262,149.1652372,606.8,0.01600000075995922,318.60101318359375,-2.1500000953674316,0.0,1
1778782201.80002403,84985159,0,6,411019800,2418,10,1.21,-35.363262,149.1652371,607.21,0.014000000432133675,320.63934326171875,-1.943000078201294,0.0,1
1778782201.99994421,85185079,0,6,411020000,2418,10,1.21,-35.363262,149.165237,607.58,0.012000000104308128,322.3037109375,-1.724000096321106,0.0,1
1778782202.19986415,85384999,0,6,411020200,2418,10,1.21,-35.3632619,149.165237,607.91,0.01100000087171793,323.4873046875,-1.503000020980835,0.0,1
1778782202.39978409,85584919,0,6,411020400,2418,10,1.21,-35.3632619,149.165237,608.18,0.009000000543892384,325.1558532714844,-1.2850000858306885,0.0,1
1778782202.59970403,85784839,0,6,411020600,2418,10,1.21,-35.3632619,149.165237,608.42,0.006000000052154064,331.5394592285156,-1.0720000267028809,0.0,1
1778782202.79962420,85984759,0,6,411020800,2418,10,1.21,-35.3632619,149.165237,608.61,0.004000000189989805,351.2100524902344,-0.8650000691413879,0.0,1
1778782202.99954414,86184679,0,6,411021000,2418,10,1.21,-35.3632619,149.165237,608.76,0.004000000189989805,26.714609146118164,-0.6630000472068787,0.0,1
1778782203.19946408,86384599,0,6,411021200,2418,10,1.21,-35.3632619,149.165237,608.88,0.004000000189989805,52.187618255615234,-0.4650000333786011,0.0,1
1778782203.39938402,86584519,0,6,411021400,2418,10,1.21,-35.3632619,149.165237,608.95,0.005000000353902578,65.95459747314453,-0.2680000066757202,0.0,1
1778782203.59930420,86784439,0,6,411021600,2418,10,1.21,-35.3632619,149.165237,608.99,0.006000000052154064,76.13811492919922,-0.09600000083446503,0.0,1
1778782203.79922414,86984359,0,6,411021800,2418,10,1.21,-35.3632619,149.165237,608.99,0.006000000052154064,82.9830551147461,0.009000000543892384,0.0,1
1778782203.99997711,87185112,0,6,411022000,2418,10,1.21,-35.3632619,149.165237,608.98,0.005000000353902578,84.38330841064453,0.046000003814697266,0.0,1
1778782204.19989705,87385032,0,6,411022200,2418,10,1.21,-35.3632619,149.165237,608.97,0.004000000189989805,79.74479675292969,0.04400000348687172,0.0,1
1778782204.39981723,87584952,0,6,411022400,2418,10,1.21,-35.3632619,149.165237,608.97,0.003000000026077032,67.07162475585938,0.024000000208616257,0.0,1
1778782204.59973717,87784872,0,6,411022600,2418,10,1.21,-35.3632619,149.165237,608.97,0.003000000026077032,45.95840835571289,0.0010000000474974513,0.0,1
1778782204.79965711,87984792,0,6,411022800,2418,10,1.21,-35.3632619,149.165237,608.97,0.003000000026077032,26.533498764038086,-0.01900000125169754,0.0,1
1778782204.99957705,88184712,0,6,411023000,2418,10,1.21,-35.3632619,149.165237,608.97,0.004000000189989805,17.569080352783203,-0.03400000184774399,0.0,1
1778782205.19949722,88384632,0,6,411023200,2418,10,1.21,-35.3632619,149.165237,608.98,0.004000000189989805,16.112659454345703,-0.04200000315904617,0.0,1
1778782205.39941716,88584552,0,6,411023400,2418,10,1.21,-35.3632619,149.165237,608.99,0.005000000353902578,15.880779266357422,-0.04500000178813934,0.0,1
1778782205.59933710,88784472,0,6,411023600,2418,10,1.21,-35.3632618,149.165237,609.0,0.005000000353902578,18.381568908691406,-0.04400000348687172,0.0,1
1778782205.79925704,88984392,0,6,411023800,2418,10,1.21,-35.3632617,149.165237,609.01,0.005000000353902578,24.670259475708008,-0.04000000283122063,0.0,1
1778782206.00001001,89185145,0,6,411024000,2418,10,1.21,-35.3632617,149.165237,609.02,0.005000000353902578,31.6747989654541,-0.03400000184774399,0.0,1
1778782206.19993019,89385065,0,6,411024200,2418,10,1.21,-35.3632617,149.165237,609.02,0.004000000189989805,43.15945816040039,-0.02800000086426735,0.0,1
1778782206.39985013,89584985,0,6,411024400,2418,10,1.21,-35.3632617,149.165237,609.03,0.003000000026077032,68.64894104003906,-0.023000001907348633,0.0,1
1778782206.59977007,89784905,0,6,411024600,2418,10,1.21,-35.3632617,149.165237,609.03,0.004000000189989805,109.2290267944336,-0.020000001415610313,0.0,1
1778782206.79969001,89984825,0,6,411024800,2418,10,1.21,-35.3632617,149.165237,609.04,0.006000000052154064,136.08807373046875,-0.018000001087784767,0.0,1
1778782206.99961019,90184745,0,6,411025000,2418,10,1.21,-35.3632617,149.165237,609.04,0.009000000543892384,146.8011016845703,-0.017000000923871994,0.0,1
1778782207.19953012,90384665,0,6,411025200,2418,10,1.21,-35.3632617,149.1652371,609.04,0.012000000104308128,150.04685974121094,-0.01600000075995922,0.0,1
1778782207.39945006,90584585,0,6,411025400,2418,10,1.21,-35.3632617,149.1652372,609.05,0.013000000268220901,150.15196228027344,-0.015000000596046448,0.0,1
1778782207.59937000,90784505,0,6,411025600,2418,10,1.21,-35.3632617,149.1652372,609.05,0.013000000268220901,149.13194274902344,-0.013000000268220901,0.0,1
1778782207.79929018,90984425,0,6,411025800,2418,10,1.21,-35.3632617,149.1652372,609.05,0.013000000268220901,147.73248291015625,-0.013000000268220901,0.0,1
1778782208.00004315,91185178,0,6,411026000,2418,10,1.21,-35.3632617,149.1652372,609.06,0.013000000268220901,148.13783264160156,-0.012000000104308128,0.0,1
1778782208.19996309,91385098,0,6,411026200,2418,10,1.21,-35.3632618,149.1652372,609.06,0.012000000104308128,153.96250915527344,-0.012000000104308128,0.0,1
1778782208.39988303,91585018,0,6,411026400,2418,10,1.21,-35.3632619,149.1652372,609.06,0.012000000104308128,166.76663208007812,-0.012000000104308128,0.0,1
1778782208.59980321,91784938,0,6,411026600,2418,10,1.21,-35.3632619,149.1652372,609.06,0.012000000104308128,182.0137176513672,-0.01100000087171793,0.0,1
1778782208.79972315,91984858,0,6,411026800,2418,10,1.21,-35.3632619,149.1652372,609.07,0.012000000104308128,194.5579376220703,-0.01100000087171793,0.0,1
1778782208.99964309,92184778,0,6,411027000,2418,10,1.21,-35.3632619,149.1652372,609.07,0.012000000104308128,205.41883850097656,-0.009000000543892384,0.0,1
1778782209.19956303,92384698,0,6,411027200,2418,10,1.21,-35.363262,149.1652372,609.07,0.01100000087171793,214.50289916992188,-0.009000000543892384,0.0,1
1778782209.39948320,92584618,0,6,411027400,2418,10,1.21,-35.363262,149.1652372,609.07,0.010000000707805157,218.7600860595703,-0.00800000037997961,0.0,1
1778782209.59940314,92784538,0,6,411027600,2418,10,1.21,-35.363262,149.1652372,609.07,0.007000000216066837,217.12185668945312,-0.00800000037997961,0.0,1
1778782209.79932308,92984458,0,6,411027800,2418,10,1.21,-35.363262,149.1652372,609.07,0.004000000189989805,205.34127807617188,-0.007000000216066837,0.0,1
1778782209.99924302,93184378,0,6,411028000,2418,10,1.21,-35.363262,149.1652372,609.08,0.0010000000474974513,147.97035217285156,-0.007000000216066837,0.0,1
1778782210.19999599,93385131,0,6,411028200,2418,10,1.21,-35.363262,149.1652372,609.08,0.0020000000949949026,79.10032653808594,-0.006000000052154064,0.0,1
1778782210.39991617,93585051,0,6,411028400,2418,10,1.21,-35.363262,149.1652372,609.08,0.003000000026077032,53.503170013427734,-0.006000000052154064,0.0,1
1778782210.59983611,93784971,0,6,411028600,2418,10,1.21,-35.363262,149.1652372,609.08,0.003000000026077032,32.730247497558594,-0.006000000052154064,0.0,1
1778782210.79975605,93984891,0,6,411028800,2418,10,1.21,-35.363262,149.1652372,609.08,0.004000000189989805,15.930789947509766,-0.005000000353902578,0.0,1
1778782210.99967623,94184811,0,6,411029000,2418,10,1.21,-35.363262,149.1652372,609.08,0.004000000189989805,7.481269836425781,-0.005000000353902578,0.0,1
1778782211.19959617,94384731,0,6,411029200,2418,10,1.21,-35.363262,149.1652372,609.08,0.004000000189989805,4.9143900871276855,-0.005000000353902578,0.0,1
1778782211.39951611,94584651,0,6,411029400,2418,10,1.21,-35.363262,149.1652372,609.09,0.004000000189989805,3.99088978767395,-0.005000000353902578,0.0,1
1778782211.59943604,94784571,0,6,411029600,2418,10,1.21,-35.363262,149.1652372,609.09,0.004000000189989805,4.788579940795898,-0.005000000353902578,0.0,1
1778782211.79935622,94984491,0,6,411029800,2418,10,1.21,-35.363262,149.1652372,609.09,0.004000000189989805,7.1655097007751465,-0.004000000189989805,0.0,1
1778782211.99927616,95184411,0,6,411030000,2418,10,1.21,-35.363262,149.1652372,609.09,0.003000000026077032,7.8507399559021,-0.004000000189989805,0.0,1
1778782212.20002913,95385164,0,6,411030200,2418,10,1.21,-35.363262,149.1652372,609.09,0.003000000026077032,3.0674498081207275,-0.003000000026077032,0.0,1
1778782212.39994907,95585084,0,6,411030400,2418,10,1.21,-35.363262,149.1652372,609.09,0.003000000026077032,353.6340637207031,-0.003000000026077032,0.0,1
1778782212.59986901,95785004,0,6,411030600,2418,10,1.21,-35.363262,149.1652372,609.09,0.003000000026077032,345.7961120605469,-0.0020000000949949026,0.0,1
1778782212.79978919,95984924,0,6,411030800,2418,10,1.21,-35.363262,149.1652372,609.09,0.003000000026077032,346.00732421875,-0.0020000000949949026,0.0,1
1778782212.99970913,96184844,0,6,411031000,2418,10,1.21,-35.363262,149.1652372,609.09,0.003000000026077032,5.303469657897949,-0.0010000000474974513,0.0,1
1778782213.19962907,96384764,0,6,411031200,2418,10,1.21,-35.363262,149.1652372,609.09,0.003000000026077032,30.891109466552734,-0.0010000000474974513,0.0,1
1778782213.39954901,96584684,0,6,411031400,2418,10,1.21,-35.363262,149.1652372,609.09,0.004000000189989805,42.83266067504883,-0.0010000000474974513,0.0,1
1778782213.59946918,96784604,0,6,411031600,2418,10,1.21,-35.363262,149.1652372,609.09,0.005000000353902578,45.9911003112793,-0.0010000000474974513,0.0,1
1778782213.79938912,96984524,0,6,411031800,2418,10,1.21,-35.363262,149.1652372,609.09,0.005000000353902578,44.69379806518555,-0.0010000000474974513,0.0,1
1778782213.99930906,97184444,0,6,411032000,2418,10,1.21,-35.363262,149.1652372,609.09,0.005000000353902578,40.99498748779297,-0.0010000000474974513,0.0,1
1778782214.19922900,97384364,0,6,411032200,2418,10,1.21,-35.363262,149.1652372,609.09,0.005000000353902578,37.662757873535156,-0.0010000000474974513,0.0,1
1778782214.39998221,97585117,0,6,411032400,2418,10,1.21,-35.363262,149.1652372,609.09,0.005000000353902578,36.52909851074219,-0.0010000000474974513,0.0,1
1778782214.59990215,97785037,0,6,411032600,2418,10,1.21,-35.3632619,149.1652373,609.09,0.005000000353902578,36.29471969604492,-0.0010000000474974513,0.0,1
1778782214.79982209,97984957,0,6,411032800,2418,10,1.21,-35.3632619,149.1652373,609.09,0.005000000353902578,34.94020080566406,-0.0010000000474974513,0.0,1
1778782214.99974203,98184877,0,6,411033000,2418,10,1.21,-35.3632619,149.1652373,609.09,0.005000000353902578,32.51377868652344,-0.0010000000474974513,0.0,1
1778782215.19966221,98384797,0,6,411033200,2418,10,1.21,-35.3632619,149.1652373,609.09,0.003000000026077032,28.002559661865234,-0.0010000000474974513,0.0,1
1778782215.39958215,98584717,0,6,411033400,2418,10,1.21,-35.3632619,149.1652373,609.09,0.0010000000474974513,17.505048751831055,0.0,0.0,1
1778782215.59950209,98784637,0,6,411033600,2418,10,1.21,-35.3632619,149.1652373,609.09,0.0,294.31689453125,0.0,0.0,1
1778782215.79942203,98984557,0,6,411033800,2418,10,1.21,-35.3632619,149.1652373,609.1,0.0010000000474974513,219.45494079589844,0.0,0.0,1
1778782215.99934220,99184477,0,6,411034000,2418,10,1.21,-35.3632619,149.1652373,609.1,0.0020000000949949026,200.4524688720703,0.0,0.0,1
1778782216.19926214,99384397,0,6,411034200,2418,10,1.21,-35.3632619,149.1652373,609.1,0.0020000000949949026,185.34835815429688,0.0,0.0,1
1778782216.40001512,99585150,0,6,411034400,2418,10,1.21,-35.3632619,149.1652373,609.1,0.003000000026077032,180.054443359375,0.0,0.0,1
1778782216.59993505,99785070,0,6,411034600,2418,10,1.21,-35.3632619,149.1652373,609.1,0.003000000026077032,184.0595703125,0.0,0.0,1
1778782216.79985499,99984990,0,6,411034800,2418,10,1.21,-35.3632619,149.1652373,609.1,0.003000000026077032,191.51148986816406,0.0,0.0,1
1778782216.99977517,100184910,0,6,411035000,2418,10,1.21,-35.3632619,149.1652373,609.1,0.003000000026077032,197.80300903320312,0.0,0.0,1
1778782217.19969511,100384830,0,6,411035200,2418,10,1.21,-35.3632619,149.1652373,609.1,0.003000000026077032,201.20339965820312,0.0,0.0,1
1778782217.39961505,100584750,0,6,411035400,2418,10,1.21,-35.3632619,149.1652373,609.09,0.004000000189989805,200.18621826171875,0.0010000000474974513,0.0,1
1778782217.59953523,100784670,0,6,411035600,2418,10,1.21,-35.3632619,149.1652373,609.09,0.004000000189989805,199.06414794921875,0.0010000000474974513,0.0,1
1778782217.79945517,100984590,0,6,411035800,2418,10,1.21,-35.3632619,149.1652373,609.09,0.004000000189989805,200.40554809570312,0.0010000000474974513,0.0,1
1778782217.99937510,101184510,0,6,411036000,2418,10,1.21,-35.3632619,149.1652373,609.09,0.004000000189989805,203.85096740722656,0.0010000000474974513,0.0,1
1778782218.19929504,101384430,0,6,411036200,2418,10,1.21,-35.3632619,149.1652373,609.09,0.004000000189989805,207.3138885498047,0.0010000000474974513,0.0,1
1778782218.40004802,101585183,0,6,411036400,2418,10,1.21,-35.3632619,149.1652373,609.09,0.004000000189989805,207.01751708984375,0.0010000000474974513,0.0,1
1778782218.59996819,101785103,0,6,411036600,2418,10,1.21,-35.3632619,149.1652373,609.09,0.004000000189989805,205.2814178466797,0.0010000000474974513,0.0,1
1778782218.79988813,101985023,0,6,411036800,2418,10,1.21,-35.3632619,149.1652373,609.09,0.004000000189989805,207.3080291748047,0.0010000000474974513,0.0,1
1778782218.99980807,102184943,0,6,411037000,2418,10,1.21,-35.3632619,149.1652373,609.09,0.005000000353902578,210.13230895996094,0.0010000000474974513,0.0,1
1778782219.19972801,102384863,0,6,411037200,2418,10,1.21,-35.3632619,149.1652373,609.09,0.005000000353902578,209.28240966796875,0.0010000000474974513,0.0,1
1778782219.39964819,102584783,0,6,411037400,2418,10,1.21,-35.3632619,149.1652373,609.09,0.005000000353902578,203.982666015625,0.0,0.0,1
1778782219.59956813,102784703,0,6,411037600,2418,10,1.21,-35.3632619,149.1652373,609.09,0.005000000353902578,195.64759826660156,0.0,0.0,1
1778782219.79948807,102984623,0,6,411037800,2418,10,1.21,-35.363262,149.1652373,609.09,0.005000000353902578,190.1735382080078,0.0,0.0,1
1778782219.99940801,103184543,0,6,411038000,2418,10,1.21,-35.363262,149.1652373,609.09,0.005000000353902578,190.90972900390625,0.0,0.0,1
1778782220.19932818,103384463,0,6,411038200,2418,10,1.21,-35.363262,149.1652373,609.09,0.005000000353902578,194.17449951171875,0.0010000000474974513,0.0,1
1778782220.39924812,103584383,0,6,411038400,2418,10,1.21,-35.363262,149.1652373,609.09,0.005000000353902578,198.00048828125,0.0010000000474974513,0.0,1
1778782220.60000110,103785136,0,6,411038600,2418,10,1.21,-35.363262,149.1652373,609.09,0.004000000189989805,202.74221801757812,0.0010000000474974513,0.0,1
1778782220.79992104,103985056,0,6,411038800,2418,10,1.21,-35.363262,149.1652373,609.09,0.0020000000949949026,209.46865844726562,0.0010000000474974513,0.0,1
1778782220.99984121,104184976,0,6,411039000,2418,10,1.21,-35.363262,149.1652373,609.09,0.0010000000474974513,227.38563537597656,0.0010000000474974513,0.0,1
1778782221.19976115,104384896,0,6,411039200,2418,10,1.21,-35.363262,149.1652373,609.09,0.0,299.0144348144531,0.0010000000474974513,0.0,1
1778782221.39968109,104584816,0,6,411039400,2418,10,1.21,-35.363262,149.1652373,609.09,0.0010000000474974513,343.1244812011719,0.0010000000474974513,0.0,1
1778782221.59960103,104784736,0,6,411039600,2418,10,1.21,-35.363262,149.1652373,609.09,0.0020000000949949026,349.7508544921875,0.0010000000474974513,0.0,1
1778782221.79952121,104984656,0,6,411039800,2418,10,1.21,-35.363262,149.1652373,609.09,0.0020000000949949026,343.6953125,0.0010000000474974513,0.0,1
1778782221.99944115,105184576,0,6,411040000,2418,10,1.21,-35.363262,149.1652373,609.09,0.0020000000949949026,329.6711120605469,0.0010000000474974513,0.0,1
1778782222.19936109,105384496,0,6,411040200,2418,10,1.21,-35.363262,149.1652373,609.09,0.0020000000949949026,310.9721984863281,0.0010000000474974513,0.0,1
1778782222.39928102,105584416,0,6,411040400,2418,10,1.21,-35.363262,149.1652373,609.09,0.0010000000474974513,298.7831115722656,0.0010000000474974513,0.0,1
1778782222.60003400,105785169,0,6,411040600,2418,10,1.21,-35.363262,149.1652373,609.09,0.0010000000474974513,296.4664306640625,0.0010000000474974513,0.0,1
1778782222.79995418,105985089,0,6,411040800,2418,10,1.21,-35.363262,149.1652373,609.09,0.0010000000474974513,295.6340026855469,0.0010000000474974513,0.0,1
1778782222.99987411,106185009,0,6,411041000,2418,10,1.21,-35.363262,149.1652373,609.09,0.0010000000474974513,295.2475280761719,0.0010000000474974513,0.0,1
1778782223.19979405,106384929,0,6,411041200,2418,10,1.21,-35.363262,149.1652373,609.09,0.0010000000474974513,297.622802734375,0.0010000000474974513,0.0,1
1778782223.39971423,106584849,0,6,411041400,2418,10,1.21,-35.363262,149.1652373,609.09,0.0020000000949949026,307.86334228515625,0.0010000000474974513,0.0,1
1778782223.59963417,106784769,0,6,411041600,2418,10,1.21,-35.363262,149.1652373,609.09,0.0020000000949949026,325.2765808105469,0.0010000000474974513,0.0,1
1778782223.79955411,106984689,0,6,411041800,2418,10,1.21,-35.363262,149.1652373,609.09,0.0020000000949949026,344.9851989746094,0.0010000000474974513,0.0,1
1778782223.99947405,107184609,0,6,411042000,2418,10,1.21,-35.363262,149.1652373,609.09,0.003000000026077032,356.3502502441406,0.0010000000474974513,0.0,1
1778782224.19939423,107384529,0,6,411042200,2418,10,1.21,-35.363262,149.1652373,609.09,0.003000000026077032,357.7669372558594,0.0010000000474974513,0.0,1
1778782224.39931417,107584449,0,6,411042400,2418,10,1.21,-35.363262,149.1652373,609.09,0.003000000026077032,353.7214660644531,0.0010000000474974513,0.0,1
1778782224.59923410,107784369,0,6,411042600,2418,10,1.21,-35.363262,149.1652373,609.09,0.003000000026077032,349.1946716308594,0.0010000000474974513,0.0,1
1778782224.79998708,107985122,0,6,411042800,2418,10,1.21,-35.363262,149.1652373,609.09,0.003000000026077032,348.9541320800781,0.0010000000474974513,0.0,1
1778782224.99990702,108185042,0,6,411043000,2418,10,1.21,-35.363262,149.1652373,609.09,0.0020000000949949026,351.63287353515625,0.0010000000474974513,0.0,1
1778782225.19982719,108384962,0,6,411043200,2418,10,1.21,-35.363262,149.1652373,609.09,0.0010000000474974513,348.1341247558594,0.0010000000474974513,0.0,1
1778782225.39974713,108584882,0,6,411043400,2418,10,1.21,-35.363262,149.1652373,609.08,0.0010000000474974513,331.93896484375,0.0010000000474974513,0.0,1
1778782225.59966707,108784802,0,6,411043600,2418,10,1.21,-35.363262,149.1652373,609.08,0.0010000000474974513,326.9814453125,0.0010000000474974513,0.0,1
1778782225.79958701,108984722,0,6,411043800,2418,10,1.21,-35.363262,149.1652373,609.08,0.0020000000949949026,334.8724670410156,0.0010000000474974513,0.0,1
1778782225.99950719,109184642,0,6,411044000,2418,10,1.21,-35.363262,149.1652373,609.08,0.0020000000949949026,341.5235290527344,0.0010000000474974513,0.0,1
1778782226.19942713,109384562,0,6,411044200,2418,10,1.21,-35.363262,149.1652372,609.08,0.0020000000949949026,342.4487609863281,0.0,0.0,1
1778782226.39934707,109584482,0,6,411044400,2418,10,1.21,-35.363262,149.1652372,609.08,0.003000000026077032,338.77459716796875,0.0,0.0,1
1778782226.59926701,109784402,0,6,411044600,2418,10,1.21,-35.363262,149.1652372,609.08,0.0020000000949949026,337.5181579589844,0.0,0.0,1
1778782226.80002022,109985155,0,6,411044800,2418,10,1.21,-35.363262,149.1652372,609.08,0.0020000000949949026,347.8778076171875,0.0,0.0,1
1778782226.99994016,110185075,0,6,411045000,2418,10,1.21,-35.363262,149.1652372,609.08,0.0020000000949949026,13.849919319152832,0.0,0.0,1
1778782227.19986010,110384995,0,6,411045200,2418,10,1.21,-35.363262,149.1652372,609.08,0.003000000026077032,33.62594985961914,0.0,0.0,1
1778782227.39978004,110584915,0,6,411045400,2418,10,1.21,-35.363262,149.1652372,609.08,0.004000000189989805,41.45859909057617,0.0,0.0,1
1778782227.59970021,110784835,0,6,411045600,2418,10,1.21,-35.363262,149.1652372,609.08,0.004000000189989805,45.587860107421875,0.0,0.0,1
1778782227.79962015,110984755,0,6,411045800,2418,10,1.21,-35.363262,149.1652372,609.08,0.005000000353902578,50.216407775878906,0.0,0.0,1
1778782227.99954009,111184675,0,6,411046000,2418,10,1.21,-35.363262,149.1652372,609.08,0.005000000353902578,56.37989044189453,0.0,0.0,1
1778782228.19946003,111384595,0,6,411046200,2418,10,1.21,-35.363262,149.1652372,609.08,0.005000000353902578,62.44868850708008,0.0,0.0,1
1778782228.39938021,111584515,0,6,411046400,2418,10,1.21,-35.363262,149.1652372,609.08,0.005000000353902578,67.44409942626953,0.0,0.0,1
1778782228.59930015,111784435,0,6,411046600,2418,10,1.21,-35.363262,149.1652372,609.08,0.005000000353902578,69.23054504394531,-0.0010000000474974513,0.0,1
1778782228.80005312,111985188,0,6,411046800,2418,10,1.21,-35.363262,149.1652372,609.08,0.006000000052154064,68.6561508178711,-0.0010000000474974513,0.0,1
1778782228.99997306,112185108,0,6,411047000,2418,10,1.21,-35.363262,149.1652372,609.08,0.006000000052154064,71.02735900878906,0.0,0.0,1
1778782229.19989300,112385028,0,6,411047200,2418,10,1.21,-35.3632619,149.1652372,609.09,0.006000000052154064,77.01258850097656,0.0,0.0,1
1778782229.39981318,112584948,0,6,411047400,2418,10,1.21,-35.3632619,149.1652373,609.09,0.005000000353902578,81.87590026855469,0.0,0.0,1
1778782229.59973311,112784868,0,6,411047600,2418,10,1.21,-35.3632619,149.1652373,609.09,0.005000000353902578,80.93818664550781,0.0,0.0,1
1778782229.79965305,112984788,0,6,411047800,2418,10,1.21,-35.3632619,149.1652373,609.09,0.004000000189989805,79.34870147705078,0.0,0.0,1
1778782229.99957323,113184708,0,6,411048000,2418,10,1.21,-35.3632619,149.1652373,609.09,0.004000000189989805,85.08136749267578,0.0,0.0,1
1778782230.19949317,113384628,0,6,411048200,2418,10,1.21,-35.3632619,149.1652373,609.09,0.003000000026077032,98.5780258178711,0.0,0.0,1
1778782230.39941311,113584548,0,6,411048400,2418,10,1.21,-35.3632619,149.1652373,609.09,0.003000000026077032,122.36878967285156,0.0,0.0,1
1778782230.59933305,113784468,0,6,411048600,2418,10,1.21,-35.3632619,149.1652373,609.09,0.003000000026077032,147.59071350097656,0.0,0.0,1
1778782230.79925323,113984388,0,6,411048800,2418,10,1.21,-35.3632619,149.1652373,609.09,0.004000000189989805,163.88829040527344,0.0010000000474974513,0.0,1
1778782231.00000620,114185141,0,6,411049000,2418,10,1.21,-35.3632619,149.1652373,609.08,0.004000000189989805,172.5540771484375,0.0010000000474974513,0.0,1
1778782231.19992614,114385061,0,6,411049200,2418,10,1.21,-35.3632619,149.1652373,609.08,0.005000000353902578,175.56732177734375,0.0010000000474974513,0.0,1
1778782231.39984608,114584981,0,6,411049400,2418,10,1.21,-35.3632619,149.1652373,609.08,0.005000000353902578,177.20506286621094,0.0010000000474974513,0.0,1
1778782231.59976602,114784901,0,6,411049600,2418,10,1.21,-35.3632619,149.1652373,609.08,0.005000000353902578,179.2892608642578,0.0010000000474974513,0.0,1
1778782231.79968619,114984821,0,6,411049800,2418,10,1.21,-35.3632619,149.1652373,609.08,0.005000000353902578,181.903564453125,0.0,0.0,1
1778782231.99960613,115184741,0,6,411050000,2418,10,1.21,-35.3632619,149.1652373,609.08,0.004000000189989805,184.754638671875,0.0,0.0,1
1778782232.19952607,115384661,0,6,411050200,2418,10,1.21,-35.3632619,149.1652373,609.08,0.004000000189989805,185.18768310546875,0.0,0.0,1
1778782232.39944601,115584581,0,6,411050400,2418,10,1.21,-35.3632619,149.1652373,609.08,0.004000000189989805,184.72764587402344,0.0,0.0,1
1778782232.59936619,115784501,0,6,411050600,2418,10,1.21,-35.3632619,149.1652373,609.08,0.005000000353902578,187.94281005859375,0.0,0.0,1
1778782232.79928613,115984421,0,6,411050800,2418,10,1.21,-35.3632619,149.1652373,609.08,0.005000000353902578,193.4882354736328,0.0,0.0,1
1778782233.00003910,116185174,0,6,411051000,2418,10,1.21,-35.363262,149.1652373,609.08,0.005000000353902578,196.8126983642578,0.0,0.0,1
1778782233.19995904,116385094,0,6,411051200,2418,10,1.21,-35.363262,149.1652373,609.08,0.005000000353902578,195.80433654785156,0.0,0.0,1
1778782233.39987922,116585014,0,6,411051400,2418,10,1.21,-35.363262,149.1652373,609.08,0.005000000353902578,192.0703582763672,0.0,0.0,1
1778782233.59979916,116784934,0,6,411051600,2418,10,1.21,-35.363262,149.1652373,609.08,0.005000000353902578,187.61228942871094,0.0,0.0,1
1778782233.79971910,116984854,0,6,411051800,2418,10,1.21,-35.363262,149.1652373,609.08,0.004000000189989805,184.90476989746094,0.0,0.0,1
1778782233.99963903,117184774,0,6,411052000,2418,10,1.21,-35.363262,149.1652373,609.08,0.0020000000949949026,189.83355712890625,0.0,0.0,1
1778782234.19955921,117384694,0,6,411052200,2418,10,1.21,-35.363262,149.1652373,609.08,0.0010000000474974513,213.5743408203125,-0.0010000000474974513,0.0,1
1778782234.39947915,117584614,0,6,411052400,2418,10,1.21,-35.363262,149.1652373,609.08,0.0010000000474974513,251.58343505859375,0.0,0.0,1
1778782234.59939909,117784534,0,6,411052600,2418,10,1.21,-35.363262,149.1652373,609.08,0.0010000000474974513,279.81549072265625,0.0,0.0,1
1778782234.79931903,117984454,0,6,411052800,2418,10,1.21,-35.363262,149.1652373,609.09,0.0010000000474974513,291.095458984375,-0.0010000000474974513,0.0,1
1778782234.99923921,118184374,0,6,411053000,2418,10,1.21,-35.363262,149.1652373,609.09,0.0010000000474974513,300.4444885253906,-0.0010000000474974513,0.0,1
1778782235.19999218,118385127,0,6,411053200,2418,10,1.21,-35.363262,149.1652373,609.09,0.0020000000949949026,309.1106872558594,0.0,0.0,1
1778782235.39991212,118585047,0,6,411053400,2418,10,1.21,-35.363262,149.1652373,609.09,0.0020000000949949026,308.835205078125,0.0,0.0,1
1778782235.59983206,118784967,0,6,411053600,2418,10,1.21,-35.363262,149.1652373,609.09,0.0010000000474974513,292.8757629394531,0.0,0.0,1
1778782235.79975200,118984887,0,6,411053800,2418,10,1.21,-35.363262,149.1652373,609.09,0.0020000000949949026,275.03131103515625,0.0,0.0,1
1778782235.99967217,119184807,0,6,411054000,2418,10,1.21,-35.363262,149.1652373,609.09,0.0020000000949949026,279.0768737792969,0.0,0.0,1
1778782236.19959211,119384727,0,6,411054200,2418,10,1.21,-35.363262,149.1652373,609.09,0.0020000000949949026,297.7489318847656,0.0,0.0,1
1778782236.39951205,119584647,0,6,411054400,2418,10,1.21,-35.363262,149.1652373,609.09,0.0020000000949949026,322.2394104003906,0.0,0.0,1
1778782236.59943223,119784567,0,6,411054600,2418,10,1.21,-35.363262,149.1652373,609.09,0.0020000000949949026,333.5560302734375,0.0010000000474974513,0.0,1
1778782236.79935217,119984487,0,6,411054800,2418,10,1.21,-35.363262,149.1652373,609.08,0.0020000000949949026,330.1687316894531,0.0010000000474974513,0.0,1
1778782236.99927211,120184407,0,6,411055000,2418,10,1.21,-35.363262,149.1652373,609.08,0.0020000000949949026,322.1765441894531,0.0010000000474974513,0.0,1
1778782237.20002508,120385160,0,6,411055200,2418,10,1.21,-35.363262,149.1652373,609.08,0.0020000000949949026,312.3034973144531,0.0010000000474974513,0.0,1
1778782237.39994502,120585080,0,6,411055400,2418,10,1.21,-35.363262,149.1652373,609.08,0.0020000000949949026,303.78851318359375,0.0010000000474974513,0.0,1
1778782237.59986520,120785000,0,6,411055600,2418,10,1.21,-35.363262,149.1652373,609.08,0.0020000000949949026,302.37591552734375,0.0,0.0,1
1778782237.79978514,120984920,0,6,411055800,2418,10,1.21,-35.363262,149.1652373,609.08,0.0020000000949949026,305.23504638671875,0.0,0.0,1
1778782237.99970508,121184840,0,6,411056000,2418,10,1.21,-35.363262,149.1652373,609.08,0.0020000000949949026,306.5628356933594,0.0,0.0,1
1778782238.19962502,121384760,0,6,411056200,2418,10,1.21,-35.363262,149.1652373,609.08,0.0020000000949949026,307.07757568359375,0.0,0.0,1
1778782238.39954519,121584680,0,6,411056400,2418,10,1.21,-35.363262,149.1652373,609.08,0.003000000026077032,310.5839538574219,0.0,0.0,1
1778782238.59946513,121784600,0,6,411056600,2418,10,1.21,-35.363262,149.1652373,609.08,0.003000000026077032,316.4069519042969,0.0,0.0,1
1778782238.79938507,121984520,0,6,411056800,2418,10,1.21,-35.363262,149.1652373,609.08,0.003000000026077032,323.8625183105469,0.0,0.0,1
1778782238.99930501,122184440,0,6,411057000,2418,10,1.21,-35.363262,149.1652373,609.08,0.003000000026077032,329.1260986328125,0.0,0.0,1
1778782239.19922519,122384360,0,6,411057200,2418,10,1.21,-35.363262,149.1652373,609.08,0.003000000026077032,327.31640625,0.0,0.0,1
1778782239.39997816,122585113,0,6,411057400,2418,10,1.21,-35.363262,149.1652373,609.08,0.003000000026077032,320.9815673828125,0.0,0.0,1
1778782239.59989810,122785033,0,6,411057600,2418,10,1.21,-35.363262,149.1652373,609.08,0.003000000026077032,315.64923095703125,0.0,0.0,1
1778782239.79981804,122984953,0,6,411057800,2418,10,1.21,-35.363262,149.1652373,609.08,0.003000000026077032,314.0802307128906,0.0,0.0,1
1778782239.99973822,123184873,0,6,411058000,2418,10,1.21,-35.363262,149.1652373,609.08,0.003000000026077032,318.6366271972656,0.0,0.0,1
1778782240.19965816,123384793,0,6,411058200,2418,10,1.21,-35.363262,149.1652373,609.08,0.003000000026077032,328.1536865234375,0.0,0.0,1
1778782240.39957809,123584713,0,6,411058400,2418,10,1.21,-35.363262,149.1652373,609.08,0.0020000000949949026,335.5939025878906,0.0,0.0,1
1778782240.59949803,123784633,0,6,411058600,2418,10,1.21,-35.363262,149.1652373,609.08,0.0020000000949949026,337.3008117675781,0.0,0.0,1
1778782240.79941821,123984553,0,6,411058800,2418,10,1.21,-35.363262,149.1652373,609.08,0.0020000000949949026,336.42431640625,0.0,0.0,1
1778782240.99933815,124184473,0,6,411059000,2418,10,1.21,-35.363262,149.1652373,609.08,0.003000000026077032,336.4259948730469,0.0,0.0,1
1778782241.19925809,124384393,0,6,411059200,2418,10,1.21,-35.363262,149.1652373,609.08,0.003000000026077032,334.6326599121094,0.0,0.0,1
1778782241.40001106,124585146,0,6,411059400,2418,10,1.21,-35.363262,149.1652373,609.08,0.0020000000949949026,329.9080505371094,0.0,0.0,1
1778782241.59993100,124785066,0,6,411059600,2418,10,1.21,-35.363262,149.1652373,609.08,0.0020000000949949026,327.5126037597656,-0.0010000000474974513,0.0,1
1778782241.79985118,124984986,0,6,411059800,2418,10,1.21,-35.363262,149.1652373,609.08,0.003000000026077032,327.3147888183594,0.0,0.0,1
1778782241.99977112,125184906,0,6,411060000,2418,10,1.21,-35.363262,149.1652372,609.09,0.003000000026077032,324.3009338378906,0.0,0.0,1
1778782242.19969106,125384826,0,6,411060200,2418,10,1.21,-35.363262,149.1652372,609.09,0.004000000189989805,321.4569091796875,0.0,0.0,1
1778782242.39961100,125584746,0,6,411060400,2418,10,1.21,-35.363262,149.1652372,609.09,0.004000000189989805,324.28759765625,0.0,0.0,1
1778782242.59953117,125784666,0,6,411060600,2418,10,1.21,-35.363262,149.1652372,609.09,0.003000000026077032,332.2208251953125,0.0,0.0,1
1778782242.79945111,125984586,0,6,411060800,2418,10,1.21,-35.363262,149.1652372,609.09,0.003000000026077032,344.6269836425781,0.0,0.0,1
1778782242.99937105,126184506,0,6,411061000,2418,10,1.21,-35.3632619,149.1652372,609.09,0.003000000026077032,5.935770034790039,0.0,0.0,1
1778782243.19929123,126384426,0,6,411061200,2418,10,1.21,-35.3632619,149.1652372,609.09,0.003000000026077032,32.34735107421875,0.0,0.0,1
1778782243.40004420,126585179,0,6,411061400,2418,10,1.21,-35.3632619,149.1652372,609.09,0.004000000189989805,52.37382888793945,0.0,0.0,1
1778782243.59996414,126785099,0,6,411061600,2418,10,1.21,-35.3632619,149.1652372,609.09,0.004000000189989805,71.18120574951172,0.0,0.0,1
1778782243.79988408,126985019,0,6,411061800,2418,10,1.21,-35.3632619,149.1652372,609.08,0.004000000189989805,93.46355438232422,0.0010000000474974513,0.0,1
1778782243.99980402,127184939,0,6,411062000,2418,10,1.21,-35.3632619,149.1652372,609.08,0.004000000189989805,111.41986083984375,0.0010000000474974513,0.0,1
1778782244.19972420,127384859,0,6,411062200,2418,10,1.21,-35.3632619,149.1652372,609.08,0.004000000189989805,121.29295349121094,0.0010000000474974513,0.0,1
1778782244.39964414,127584779,0,6,411062400,2418,10,1.21,-35.3632619,149.1652372,609.08,0.004000000189989805,126.77415466308594,0.0010000000474974513,0.0,1
1778782244.59956408,127784699,0,6,411062600,2418,10,1.21,-35.3632619,149.1652372,609.08,0.004000000189989805,130.45021057128906,0.0,0.0,1
1778782244.79948401,127984619,0,6,411062800,2418,10,1.21,-35.3632619,149.1652372,609.08,0.004000000189989805,134.84280395507812,0.0,0.0,1
1778782244.99940419,128184539,0,6,411063000,2418,10,1.21,-35.3632619,149.1652372,609.08,0.004000000189989805,141.76637268066406,0.0,0.0,1
1778782245.19932413,128384459,0,6,411063200,2418,10,1.21,-35.3632619,149.1652372,609.08,0.005000000353902578,147.2762908935547,0.0,0.0,1
1778782245.39924407,128584379,0,6,411063400,2418,10,1.21,-35.3632619,149.1652372,609.08,0.005000000353902578,148.761962890625,0.0,0.0,1
1778782245.59999704,128785132,0,6,411063600,2418,10,1.21,-35.3632619,149.1652372,609.08,0.005000000353902578,148.11363220214844,0.0,0.0,1
1778782245.79991722,128985052,0,6,411063800,2418,10,1.21,-35.3632619,149.1652372,609.08,0.006000000052154064,145.48046875,0.0,0.0,1
1778782245.99983716,129184972,0,6,411064000,2418,10,1.21,-35.3632619,149.1652372,609.08,0.006000000052154064,140.74693298339844,0.0,0.0,1
1778782246.19975710,129384892,0,6,411064200,2418,10,1.21,-35.3632619,149.1652372,609.08,0.007000000216066837,136.27919006347656,0.0,0.0,1
1778782246.39967704,129584812,0,6,411064400,2418,10,1.21,-35.3632619,149.1652373,609.08,0.007000000216066837,133.81735229492188,0.0,0.0,1
1778782246.59959722,129784732,0,6,411064600,2418,10,1.21,-35.3632619,149.1652373,609.08,0.007000000216066837,133.6149444580078,0.0,0.0,1
1778782246.79951715,129984652,0,6,411064800,2418,10,1.21,-35.3632619,149.1652373,609.08,0.006000000052154064,135.80477905273438,0.0,0.0,1
1778782246.99943709,130184572,0,6,411065000,2418,10,1.21,-35.3632619,149.1652373,609.08,0.006000000052154064,140.74391174316406,0.0,0.0,1
1778782247.19935703,130384492,0,6,411065200,2418,10,1.21,-35.363262,149.1652373,609.08,0.005000000353902578,148.22119140625,0.0,0.0,1
1778782247.39927721,130584412,0,6,411065400,2418,10,1.21,-35.363262,149.1652373,609.08,0.005000000353902578,157.2528533935547,-0.0010000000474974513,0.0,1
1778782247.60003018,130785165,0,6,411065600,2418,10,1.21,-35.363262,149.1652373,609.08,0.004000000189989805,168.51161193847656,-0.0010000000474974513,0.0,1
1778782247.79995012,130985085,0,6,411065800,2418,10,1.21,-35.363262,149.1652373,609.08,0.004000000189989805,179.91156005859375,-0.0010000000474974513,0.0,1
1778782247.99987006,131185005,0,6,411066000,2418,10,1.21,-35.363262,149.1652373,609.08,0.004000000189989805,188.87986755371094,0.0,0.0,1
1778782248.19979000,131384925,0,6,411066200,2418,10,1.21,-35.363262,149.1652373,609.09,0.003000000026077032,200.74282836914062,0.0,0.0,1
1778782248.39971018,131584845,0,6,411066400,2418,10,1.21,-35.363262,149.1652373,609.09,0.0010000000474974513,227.3275909423828,0.0,0.0,1
1778782248.59963012,131784765,0,6,411066600,2418,10,1.21,-35.363262,149.1652373,609.09,0.0010000000474974513,266.78814697265625,0.0,0.0,1
1778782248.79955006,131984685,0,6,411066800,2418,10,1.21,-35.363262,149.1652373,609.09,0.0020000000949949026,284.05706787109375,0.0,0.0,1
1778782248.99947000,132184605,0,6,411067000,2418,10,1.21,-35.363262,149.1652373,609.09,0.0020000000949949026,287.32379150390625,0.0,0.0,1
1778782249.19939017,132384525,0,6,411067200,2418,10,1.21,-35.363262,149.1652373,609.09,0.0010000000474974513,292.02496337890625,0.0,0.0,1
1778782249.39931011,132584445,0,6,411067400,2418,10,1.21,-35.363262,149.1652373,609.09,0.0010000000474974513,307.3427734375,0.0,0.0,1
1778782249.59923005,132784365,0,6,411067600,2418,10,1.21,-35.363262,149.1652373,609.09,0.0010000000474974513,318.45758056640625,0.0,0.0,1
1778782249.79998302,132985118,0,6,411067800,2418,10,1.21,-35.363262,149.1652373,609.08,0.0010000000474974513,312.84930419921875,0.0010000000474974513,0.0,1
1778782249.99990320,133185038,0,6,411068000,2418,10,1.21,-35.363262,149.1652373,609.08,0.0020000000949949026,298.79010009765625,0.0010000000474974513,0.0,1
1778782250.19982314,133384958,0,6,411068200,2418,10,1.21,-35.363262,149.1652373,609.08,0.0020000000949949026,287.3102111816406,0.0010000000474974513,0.0,1
1778782250.39974308,133584878,0,6,411068400,2418,10,1.21,-35.363262,149.1652373,609.08,0.0020000000949949026,289.50970458984375,0.0010000000474974513,0.0,1
1778782250.59966302,133784798,0,6,411068600,2418,10,1.21,-35.363262,149.1652373,609.08,0.003000000026077032,301.0589294433594,0.0,0.0,1
1778782250.79958320,133984718,0,6,411068800,2418,10,1.21,-35.363262,149.1652373,609.08,0.003000000026077032,310.9089050292969,0.0,0.0,1
1778782250.99950314,134184638,0,6,411069000,2418,10,1.21,-35.363262,149.1652373,609.08,0.004000000189989805,315.13970947265625,0.0,0.0,1
1778782251.19942307,134384558,0,6,411069200,2418,10,1.21,-35.363262,149.1652373,609.08,0.004000000189989805,314.8307189941406,0.0,0.0,1
1778782251.39934301,134584478,0,6,411069400,2418,10,1.21,-35.363262,149.1652373,609.08,0.004000000189989805,314.0820007324219,0.0,0.0,1
1778782251.59926319,134784398,0,6,411069600,2418,10,1.21,-35.363262,149.1652373,609.08,0.004000000189989805,316.855712890625,0.0,0.0,1
1778782251.80001616,134985151,0,6,411069800,2418,10,1.21,-35.363262,149.1652373,609.08,0.003000000026077032,321.88250732421875,0.0,0.0,1
1778782251.99993610,135185071,0,6,411070000,2418,10,1.21,-35.363262,149.1652373,609.08,0.003000000026077032,322.3461608886719,0.0,0.0,1
1778782252.19985604,135384991,0,6,411070200,2418,10,1.21,-35.363262,149.1652373,609.08,0.003000000026077032,315.27099609375,0.0,0.0,1
1778782252.39977622,135584911,0,6,411070400,2418,10,1.21,-35.363262,149.1652373,609.08,0.003000000026077032,306.9996643066406,0.0,0.0,1
1778782252.59969616,135784831,0,6,411070600,2418,10,1.21,-35.363262,149.1652373,609.08,0.003000000026077032,302.63311767578125,0.0,0.0,1
1778782252.79961610,135984751,0,6,411070800,2418,10,1.21,-35.363262,149.1652373,609.08,0.003000000026077032,302.9921569824219,0.0,0.0,1
1778782252.99953604,136184671,0,6,411071000,2418,10,1.21,-35.363262,149.1652373,609.08,0.003000000026077032,305.34576416015625,0.0,0.0,1
1778782253.19945621,136384591,0,6,411071200,2418,10,1.21,-35.363262,149.1652373,609.08,0.0020000000949949026,311.03826904296875,0.0,0.0,1
1778782253.39937615,136584511,0,6,411071400,2418,10,1.21,-35.363262,149.1652373,609.09,0.0020000000949949026,321.3742980957031,-0.0010000000474974513,0.0,1
1778782253.59929609,136784431,0,6,411071600,2418,10,1.21,-35.363262,149.1652373,609.09,0.0020000000949949026,325.998046875,-0.0010000000474974513,0.0,1
1778782253.80004907,136985184,0,6,411071800,2418,10,1.21,-35.363262,149.1652373,609.09,0.003000000026077032,325.45855712890625,0.0,0.0,1
1778782253.99996901,137185104,0,6,411072000,2418,10,1.21,-35.363262,149.1652373,609.09,0.004000000189989805,325.45037841796875,0.0,0.0,1
1778782254.19988918,137385024,0,6,411072200,2418,10,1.21,-35.363262,149.1652373,609.09,0.004000000189989805,324.29486083984375,0.0,0.0,1
1778782254.39980912,137584944,0,6,411072400,2418,10,1.21,-35.363262,149.1652373,609.09,0.005000000353902578,321.24395751953125,0.0,0.0,1
1778782254.59972906,137784864,0,6,411072600,2418,10,1.21,-35.363262,149.1652372,609.09,0.005000000353902578,317.6523742675781,0.0,0.0,1
1778782254.79964900,137984784,0,6,411072800,2418,10,1.21,-35.363262,149.1652372,609.09,0.005000000353902578,313.092041015625,0.0,0.0,1
1778782254.99956918,138184704,0,6,411073000,2418,10,1.21,-35.363262,149.1652372,609.09,0.005000000353902578,308.410400390625,0.0,0.0,1
1778782255.19948912,138384624,0,6,411073200,2418,10,1.21,-35.363262,149.1652372,609.09,0.004000000189989805,306.6846008300781,0.0,0.0,1
1778782255.39940906,138584544,0,6,411073400,2418,10,1.21,-35.363262,149.1652372,609.09,0.003000000026077032,309.4383544921875,0.0,0.0,1
1778782255.59932899,138784464,0,6,411073600,2418,10,1.21,-35.363262,149.1652372,609.09,0.0010000000474974513,318.7825927734375,0.0010000000474974513,0.0,1
1778782255.79924917,138984384,0,6,411073800,2418,10,1.21,-35.363262,149.1652372,609.08,0.0,1.912239909172058,0.0010000000474974513,0.0,1
1778782256.00000215,139185137,0,6,411074000,2418,10,1.21,-35.363262,149.1652372,609.08,0.0010000000474974513,51.54607009887695,0.0010000000474974513,0.0,1
1778782256.19992208,139385057,0,6,411074200,2418,10,1.21,-35.363262,149.1652372,609.08,0.0020000000949949026,50.33852005004883,0.0010000000474974513,0.0,1
1778782256.39984202,139584977,0,6,411074400,2418,10,1.21,-35.3632619,149.1652372,609.08,0.004000000189989805,46.930789947509766,0.0,0.0,1
1778782256.59976220,139784897,0,6,411074600,2418,10,1.21,-35.3632619,149.1652372,609.08,0.004000000189989805,47.460750579833984,0.0,0.0,1
1778782256.79968214,139984817,0,6,411074800,2418,10,1.21,-35.3632619,149.1652372,609.08,0.005000000353902578,50.0678596496582,0.0,0.0,1
1778782256.99960208,140184737,0,6,411075000,2418,10,1.21,-35.3632619,149.1652372,609.08,0.004000000189989805,54.74095916748047,0.0,0.0,1
1778782257.19952202,140384657,0,6,411075200,2418,10,1.21,-35.3632619,149.1652372,609.08,0.003000000026077032,64.29550170898438,0.0,0.0,1
1778782257.39944220,140584577,0,6,411075400,2418,10,1.21,-35.3632619,149.1652372,609.08,0.003000000026077032,80.1845703125,0.0,0.0,1
1778782257.59936213,140784497,0,6,411075600,2418,10,1.21,-35.3632619,149.1652372,609.08,0.003000000026077032,101.58350372314453,0.0,0.0,1
1778782257.79928207,140984417,0,6,411075800,2418,10,1.21,-35.3632619,149.1652372,609.08,0.003000000026077032,121.32731628417969,0.0,0.0,1
1778782258.00003505,141185170,0,6,411076000,2418,10,1.21,-35.3632619,149.1652372,609.08,0.003000000026077032,133.84056091308594,0.0,0.0,1
1778782258.19995522,141385090,0,6,411076200,2418,10,1.21,-35.3632619,149.1652372,609.08,0.003000000026077032,141.82382202148438,0.0,0.0,1
1778782258.39987516,141585010,0,6,411076400,2418,10,1.21,-35.3632619,149.1652372,609.08,0.004000000189989805,146.8907928466797,0.0,0.0,1
1778782258.59979510,141784930,0,6,411076600,2418,10,1.21,-35.3632619,149.1652372,609.08,0.004000000189989805,151.91380310058594,0.0,0.0,1
1778782258.79971504,141984850,0,6,411076800,2418,10,1.21,-35.3632619,149.1652372,609.08,0.005000000353902578,156.47488403320312,-0.0010000000474974513,0.0,1
1778782258.99963522,142184770,0,6,411077000,2418,10,1.21,-35.3632619,149.1652372,609.08,0.005000000353902578,155.9736328125,0.0,0.0,1
1778782259.19955516,142384690,0,6,411077200,2418,10,1.21,-35.3632619,149.1652372,609.08,0.006000000052154064,149.01881408691406,-0.0010000000474974513,0.0,1
1778782259.39947510,142584610,0,6,411077400,2418,10,1.21,-35.3632619,149.1652372,609.09,0.006000000052154064,139.82431030273438,-0.0010000000474974513,0.0,1
1778782259.59939504,142784530,0,6,411077600,2418,10,1.21,-35.3632619,149.1652372,609.09,0.006000000052154064,134.5079803466797,0.0,0.0,1
1778782259.79931521,142984450,0,6,411077800,2418,10,1.21,-35.3632619,149.1652372,609.09,0.005000000353902578,136.4403839111328,0.0,0.0,1
1778782259.99923515,143184370,0,6,411078000,2418,10,1.21,-35.3632619,149.1652372,609.09,0.005000000353902578,143.4530029296875,0.0,0.0,1
1778782260.19998813,143385123,0,6,411078200,2418,10,1.21,-35.3632619,149.1652373,609.09,0.005000000353902578,148.99069213867188,0.0,0.0,1
1778782260.39990807,143585043,0,6,411078400,2418,10,1.21,-35.3632619,149.1652373,609.09,0.005000000353902578,150.1663818359375,0.0,0.0,1
1778782260.59982800,143784963,0,6,411078600,2418,10,1.21,-35.3632619,149.1652373,609.09,0.005000000353902578,150.09210205078125,0.0,0.0,1
1778782260.79974818,143984883,0,6,411078800,2418,10,1.21,-35.3632619,149.1652373,609.09,0.005000000353902578,152.65419006347656,0.0,0.0,1
1778782260.99966812,144184803,0,6,411079000,2418,10,1.21,-35.363262,149.1652373,609.09,0.005000000353902578,158.5712127685547,0.0,0.0,1
1778782261.19958806,144384723,0,6,411079200,2418,10,1.21,-35.363262,149.1652373,609.08,0.005000000353902578,166.65866088867188,0.0010000000474974513,0.0,1
1778782261.39950800,144584643,0,6,411079400,2418,10,1.21,-35.363262,149.1652373,609.08,0.004000000189989805,175.71017456054688,0.0010000000474974513,0.0,1
1778782261.59942818,144784563,0,6,411079600,2418,10,1.21,-35.363262,149.1652373,609.08,0.004000000189989805,184.8363494873047,0.0010000000474974513,0.0,1
1778782261.79934812,144984483,0,6,411079800,2418,10,1.21,-35.363262,149.1652373,609.08,0.003000000026077032,194.417236328125,0.0010000000474974513,0.0,1
1778782261.99926805,145184403,0,6,411080000,2418,10,1.21,-35.363262,149.1652373,609.08,0.0020000000949949026,208.83021545410156,0.0010000000474974513,0.0,1
1778782262.20002103,145385156,0,6,411080200,2418,10,1.21,-35.363262,149.1652373,609.08,0.0020000000949949026,237.30169677734375,0.0,0.0,1
1778782262.39994121,145585076,0,6,411080400,2418,10,1.21,-35.363262,149.1652373,609.08,0.0010000000474974513,273.8780822753906,0.0,0.0,1
1778782262.59986115,145784996,0,6,411080600,2418,10,1.21,-35.363262,149.1652373,609.08,0.0020000000949949026,293.17218017578125,0.0,0.0,1
1778782262.79978108,145984916,0,6,411080800,2418,10,1.21,-35.363262,149.1652373,609.08,0.0020000000949949026,300.21502685546875,0.0,0.0,1
1778782262.99970102,146184836,0,6,411081000,2418,10,1.21,-35.363262,149.1652373,609.08,0.003000000026077032,301.6242980957031,0.0,0.0,1
1778782263.19962120,146384756,0,6,411081200,2418,10,1.21,-35.363262,149.1652373,609.08,0.003000000026077032,300.2454833984375,0.0,0.0,1
1778782263.39954114,146584676,0,6,411081400,2418,10,1.21,-35.363262,149.1652373,609.08,0.003000000026077032,297.320556640625,0.0,0.0,1
1778782263.59946108,146784596,0,6,411081600,2418,10,1.21,-35.363262,149.1652373,609.08,0.003000000026077032,294.6412658691406,0.0,0.0,1
1778782263.79938102,146984516,0,6,411081800,2418,10,1.21,-35.363262,149.1652373,609.08,0.003000000026077032,294.6644287109375,0.0,0.0,1
1778782263.99930120,147184436,0,6,411082000,2418,10,1.21,-35.363262,149.1652373,609.08,0.003000000026077032,296.0742492675781,-0.0010000000474974513,0.0,1
1778782264.20005417,147385189,0,6,411082200,2418,10,1.21,-35.363262,149.1652373,609.08,0.004000000189989805,297.9098205566406,-0.0010000000474974513,0.0,1
1778782264.39997411,147585109,0,6,411082400,2418,10,1.21,-35.363262,149.1652373,609.08,0.004000000189989805,301.000732421875,-0.0010000000474974513,0.0,1
1778782264.59989405,147785029,0,6,411082600,2418,10,1.21,-35.363262,149.1652373,609.09,0.004000000189989805,306.1424255371094,-0.0010000000474974513,0.0,1
1778782264.79981422,147984949,0,6,411082800,2418,10,1.21,-35.363262,149.1652373,609.09,0.004000000189989805,311.14337158203125,-0.0010000000474974513,0.0,1
1778782264.99973416,148184869,0,6,411083000,2418,10,1.21,-35.363262,149.1652373,609.09,0.004000000189989805,311.4062805175781,0.0,0.0,1
1778782265.19965410,148384789,0,6,411083200,2418,10,1.21,-35.363262,149.1652373,609.09,0.003000000026077032,308.41119384765625,0.0,0.0,1
1778782265.39957404,148584709,0,6,411083400,2418,10,1.21,-35.363262,149.1652373,609.09,0.003000000026077032,308.3511657714844,0.0,0.0,1
1778782265.59949422,148784629,0,6,411083600,2418,10,1.21,-35.363262,149.1652373,609.09,0.003000000026077032,311.04937744140625,0.0,0.0,1
1778782265.79941416,148984549,0,6,411083800,2418,10,1.21,-35.363262,149.1652373,609.09,0.003000000026077032,313.80438232421875,0.0,0.0,1
1778782265.99933410,149184469,0,6,411084000,2418,10,1.21,-35.363262,149.1652372,609.09,0.003000000026077032,314.6014709472656,0.0,0.0,1
1778782266.19925404,149384389,0,6,411084200,2418,10,1.21,-35.363262,149.1652372,609.09,0.004000000189989805,311.6545715332031,0.0,0.0,1
1778782266.40000701,149585142,0,6,411084400,2418,10,1.21,-35.363262,149.1652372,609.09,0.004000000189989805,308.82293701171875,0.0,0.0,1
1778782266.59992719,149785062,0,6,411084600,2418,10,1.21,-35.363262,149.1652372,609.09,0.005000000353902578,307.82818603515625,0.0,0.0,1
1778782266.79984713,149984982,0,6,411084800,2418,10,1.21,-35.363262,149.1652372,609.08,0.004000000189989805,308.7789306640625,0.0010000000474974513,0.0,1
1778782266.99976707,150184902,0,6,411085000,2418,10,1.21,-35.363262,149.1652372,609.08,0.003000000026077032,317.0555419921875,0.0010000000474974513,0.0,1
1778782267.19968700,150384822,0,6,411085200,2418,10,1.21,-35.363262,149.1652372,609.08,0.003000000026077032,336.51519775390625,0.0010000000474974513,0.0,1
1778782267.39960718,150584742,0,6,411085400,2418,10,1.21,-35.363262,149.1652372,609.08,0.003000000026077032,358.39990234375,0.0,0.0,1
1778782267.59952712,150784662,0,6,411085600,2418,10,1.21,-35.363262,149.1652372,609.08,0.003000000026077032,12.133810043334961,0.0,0.0,1
1778782267.79944706,150984582,0,6,411085800,2418,10,1.21,-35.363262,149.1652372,609.08,0.004000000189989805,18.829809188842773,0.0,0.0,1
1778782267.99936700,151184502,0,6,411086000,2418,10,1.21,-35.363262,149.1652372,609.08,0.003000000026077032,24.18552017211914,0.0,0.0,1
1778782268.19928718,151384422,0,6,411086200,2418,10,1.21,-35.363262,149.1652372,609.08,0.003000000026077032,30.771238327026367,0.0,0.0,1
1778782268.40004015,151585175,0,6,411086400,2418,10,1.21,-35.363262,149.1652372,609.08,0.003000000026077032,36.872169494628906,0.0,0.0,1
1778782268.59996009,151785095,0,6,411086600,2418,10,1.21,-35.363262,149.1652372,609.08,0.003000000026077032,38.9234504699707,0.0,0.0,1
1778782268.79988003,151985015,0,6,411086800,2418,10,1.21,-35.363262,149.1652372,609.08,0.003000000026077032,38.076637268066406,0.0,0.0,1
1778782268.99980021,152184935,0,6,411087000,2418,10,1.21,-35.3632619,149.1652372,609.08,0.003000000026077032,37.21508026123047,0.0,0.0,1
