timestamp,TimeUS,I,Alt,AltAMSL,Press,Temp,CRt,SMS,Offset,GndTemp,H,CPress
1778788392.76001596,65945278,0,0.00372314453125,584.0936889648438,94502.828125,30.51,0.0,65945,0.0,28.02182960510254,1,94502.828125
1778788392.76001596,65945278,1,0.00079345703125,584.0907592773438,94501.5859375,30.51,0.0,65945,0.0,28.02182960510254,1,94501.5859375
1778788392.85997605,66045238,0,0.00372314453125,584.0936889648438,94502.828125,30.52,0.0,66045,0.0,28.02182960510254,1,94502.828125
1778788392.85997605,66045238,1,0.08038330078125,584.1703491210938,94500.6875,30.52,0.0,66045,0.0,28.02182960510254,1,94500.6875
1778788392.95993614,66145198,0,0.00372314453125,584.0936889648438,94502.828125,30.52,0.0,66145,0.0,28.02182960510254,1,94502.828125
1778788392.95993614,66145198,1,-0.07830810546875,584.0116577148438,94502.4921875,30.52,0.0,66145,0.0,28.02182960510254,1,94502.4921875
1778788393.05989599,66245158,0,0.00372314453125,584.0936889648438,94502.828125,30.52,0.0,66245,0.0,28.02182960510254,1,94502.828125
1778788393.05989599,66245158,1,-0.0079345703125,584.08203125,94501.6953125,30.52,0.0,66245,0.0,28.02182960510254,1,94501.6953125
1778788393.15985608,66345118,0,0.00372314453125,584.0936889648438,94502.828125,30.52,0.0,66345,0.0,28.02182960510254,1,94502.828125
1778788393.15985608,66345118,1,-0.02264404296875,584.0673217773438,94501.8515625,30.52,0.0,66345,0.0,28.02182960510254,1,94501.8515625
1778788393.25981593,66445078,0,0.00372314453125,584.0936889648438,94502.828125,30.53,0.0,66445,0.0,28.02182960510254,1,94502.828125
1778788393.25981593,66445078,1,0.0863037109375,584.17626953125,94500.625,30.53,0.0,66445,0.0,28.02182960510254,1,94500.625
1778788393.35977602,66545038,0,0.00372314453125,584.0936889648438,94502.828125,30.53,0.0,66545,0.0,28.02182960510254,1,94502.828125
1778788393.35977602,66545038,1,-0.06365966796875,584.0263061523438,94502.3203125,30.53,0.0,66545,0.0,28.02182960510254,1,94502.3203125
1778788393.45973611,66644998,0,0.00372314453125,584.0936889648438,94502.828125,30.53,0.0,66644,0.0,28.02182960510254,1,94502.828125
1778788393.45973611,66644998,1,-0.10223388671875,583.9877319335938,94502.75,30.53,0.0,66644,0.0,28.02182960510254,1,94502.75
1778788393.55969596,66744958,0,0.00372314453125,584.0936889648438,94502.828125,30.53,0.0,66744,0.0,28.02182960510254,1,94502.828125
1778788393.55969596,66744958,1,-0.06951904296875,584.0204467773438,94502.390625,30.53,0.0,66744,0.0,28.02182960510254,1,94502.390625
1778788393.65965605,66844918,0,0.00372314453125,584.0936889648438,94502.828125,30.54,0.0,66844,0.0,28.02182960510254,1,94502.828125
1778788393.65965605,66844918,1,-0.24627685546875,583.8436889648438,94504.3984375,30.54,0.0,66844,0.0,28.02182960510254,1,94504.3984375
1778788393.75961614,66944878,0,0.00372314453125,584.0936889648438,94502.828125,30.54,0.0,66944,0.0,28.02182960510254,1,94502.828125
1778788393.75961614,66944878,1,-0.10809326171875,583.9818725585938,94502.828125,30.54,0.0,66944,0.0,28.02182960510254,1,94502.828125
1778788393.85957599,67044838,0,0.00372314453125,584.0936889648438,94502.828125,30.54,0.0,67044,0.0,28.02182960510254,1,94502.828125
1778788393.85957599,67044838,1,-0.16375732421875,583.9262084960938,94503.4609375,30.54,0.0,67044,0.0,28.02182960510254,1,94503.4609375
1778788393.95953608,67144798,0,0.00372314453125,584.0936889648438,94502.828125,30.54,0.0,67144,0.0,28.02182960510254,1,94502.828125
1778788393.95953608,67144798,1,-0.05487060546875,584.0350952148438,94502.2265625,30.54,0.0,67144,0.0,28.02182960510254,1,94502.2265625
1778788394.05949593,67244758,0,0.00372314453125,584.0936889648438,94502.828125,30.54,0.0,67244,0.0,28.02182960510254,1,94502.828125
1778788394.05949593,67244758,1,0.08038330078125,584.1703491210938,94500.6875,30.54,0.0,67244,0.0,28.02182960510254,1,94500.6875
1778788394.15945601,67344718,0,0.00372314453125,584.0936889648438,94502.828125,30.55,0.0,67344,0.0,28.02182960510254,1,94502.828125
1778788394.15945601,67344718,1,-0.24627685546875,583.8436889648438,94504.3984375,30.55,0.0,67344,0.0,28.02182960510254,1,94504.3984375
1778788394.25941610,67444678,0,0.00372314453125,584.0936889648438,94502.828125,30.55,0.0,67444,0.0,28.02182960510254,1,94502.828125
1778788394.25941610,67444678,1,-0.18719482421875,583.9027709960938,94503.7265625,30.55,0.0,67444,0.0,28.02182960510254,1,94503.7265625
1778788394.35937595,67544638,0,0.00372314453125,584.0936889648438,94502.828125,30.55,0.0,67544,0.0,28.02182960510254,1,94502.828125
1778788394.35937595,67544638,1,0.09210205078125,584.1820678710938,94500.546875,30.55,0.0,67544,0.0,28.02182960510254,1,94500.546875
1778788394.45933604,67644598,0,0.00372314453125,584.0936889648438,94502.828125,30.55,0.0,67644,0.0,28.02182960510254,1,94502.828125
1778788394.45933604,67644598,1,-0.21942138671875,583.8705444335938,94504.0859375,30.55,0.0,67644,0.0,28.02182960510254,1,94504.0859375
1778788394.55929613,67744558,0,0.00372314453125,584.0936889648438,94502.828125,30.56,0.0,67744,0.0,28.02182960510254,1,94502.828125
1778788394.55929613,67744558,1,-0.11981201171875,583.9701538085938,94502.953125,30.56,0.0,67744,0.0,28.02182960510254,1,94502.953125
1778788394.65925598,67844518,0,0.00372314453125,584.0936889648438,94502.828125,30.56,0.0,67844,0.0,28.02182960510254,1,94502.828125
1778788394.65925598,67844518,1,-0.19891357421875,583.8910522460938,94503.8515625,30.56,0.0,67844,0.0,28.02182960510254,1,94503.8515625
1778788394.75921607,67944478,0,0.00372314453125,584.0936889648438,94502.828125,30.56,0.0,67944,0.0,28.02182960510254,1,94502.828125
1778788394.75921607,67944478,1,-0.19598388671875,583.8939819335938,94503.8203125,30.56,0.0,67944,0.0,28.02182960510254,1,94503.8203125
1778788394.86000896,68045271,0,0.00372314453125,584.0936889648438,94502.828125,30.56,0.0,68045,0.0,28.02182960510254,1,94502.828125
1778788394.86000896,68045271,1,0.00665283203125,584.0966186523438,94501.5234375,30.56,0.0,68045,0.0,28.02182960510254,1,94501.5234375
1778788394.95996904,68145231,0,0.00372314453125,584.0936889648438,94502.828125,30.56,0.0,68145,0.0,28.02182960510254,1,94502.828125
1778788394.95996904,68145231,1,-0.07244873046875,584.0175170898438,94502.421875,30.56,0.0,68145,0.0,28.02182960510254,1,94502.421875
1778788395.05992913,68245191,0,0.00372314453125,584.0936889648438,94502.828125,30.57,0.0,68245,0.0,28.02182960510254,1,94502.828125
1778788395.05992913,68245191,1,-0.14910888671875,583.9408569335938,94503.296875,30.57,0.0,68245,0.0,28.02182960510254,1,94503.296875
1778788395.15988898,68345151,0,0.00372314453125,584.0936889648438,94502.828125,30.57,0.0,68345,0.0,28.02182960510254,1,94502.828125
1778788395.15988898,68345151,1,-0.17547607421875,583.9144897460938,94503.59375,30.57,0.0,68345,0.0,28.02182960510254,1,94503.59375
1778788395.25984907,68445111,0,0.00372314453125,584.0936889648438,94502.828125,30.57,0.0,68445,0.0,28.02182960510254,1,94502.828125
1778788395.25984907,68445111,1,-0.07830810546875,584.0116577148438,94502.4921875,30.57,0.0,68445,0.0,28.02182960510254,1,94502.4921875
1778788395.35980892,68545071,0,0.00372314453125,584.0936889648438,94502.828125,30.57,0.0,68545,0.0,28.02182960510254,1,94502.828125
1778788395.35980892,68545071,1,-0.04608154296875,584.0438842773438,94502.125,30.57,0.0,68545,0.0,28.02182960510254,1,94502.125
1778788395.45976901,68645031,0,0.00372314453125,584.0936889648438,94502.828125,30.57,0.0,68645,0.0,28.02182960510254,1,94502.828125
1778788395.45976901,68645031,1,0.03009033203125,584.1200561523438,94501.2578125,30.57,0.0,68645,0.0,28.02182960510254,1,94501.2578125
1778788395.55972910,68744991,0,0.00372314453125,584.0936889648438,94502.828125,30.58,0.0,68744,0.0,28.02182960510254,1,94502.828125
1778788395.55972910,68744991,1,0.05694580078125,584.1469116210938,94500.953125,30.58,0.0,68744,0.0,28.02182960510254,1,94500.953125
1778788395.65968895,68844951,0,0.00372314453125,584.0936889648438,94502.828125,30.58,0.0,68844,0.0,28.02182960510254,1,94502.828125
1778788395.65968895,68844951,1,-0.29315185546875,583.7968139648438,94504.921875,30.58,0.0,68844,0.0,28.02182960510254,1,94504.921875
1778788395.75964904,68944911,0,0.00372314453125,584.0936889648438,94502.828125,30.58,0.0,68944,0.0,28.02182960510254,1,94502.828125
1778788395.75964904,68944911,1,-0.22869873046875,583.8612670898438,94504.1953125,30.58,0.0,68944,0.0,28.02182960510254,1,94504.1953125
1778788395.85960913,69044871,0,0.00372314453125,584.0936889648438,94502.828125,30.58,0.0,69044,0.0,28.02182960510254,1,94502.828125
1778788395.85960913,69044871,1,-0.10809326171875,583.9818725585938,94502.828125,30.58,0.0,69044,0.0,28.02182960510254,1,94502.828125
1778788395.95956898,69144831,0,0.00372314453125,584.0936889648438,94502.828125,30.58,0.0,69144,0.0,28.02182960510254,1,94502.828125
1778788395.95956898,69144831,1,-0.11688232421875,583.9730834960938,94502.921875,30.58,0.0,69144,0.0,28.02182960510254,1,94502.921875
1778788396.05952907,69244791,0,0.00372314453125,584.0936889648438,94502.828125,30.59,0.0,69244,0.0,28.02182960510254,1,94502.828125
1778788396.05952907,69244791,1,0.00958251953125,584.0995483398438,94501.4921875,30.59,0.0,69244,0.0,28.02182960510254,1,94501.4921875
1778788396.15948892,69344751,0,0.00372314453125,584.0936889648438,94502.828125,30.59,0.0,69344,0.0,28.02182960510254,1,94502.828125
1778788396.15948892,69344751,1,-0.24334716796875,583.8466186523438,94504.359375,30.59,0.0,69344,0.0,28.02182960510254,1,94504.359375
1778788396.25944901,69444711,0,0.00372314453125,584.0936889648438,94502.828125,30.59,0.0,69444,0.0,28.02182960510254,1,94502.828125
1778788396.25944901,69444711,1,-0.25213623046875,583.8378295898438,94504.4609375,30.59,0.0,69444,0.0,28.02182960510254,1,94504.4609375
1778788396.35940909,69544671,0,0.00372314453125,584.0936889648438,94502.828125,30.59,0.0,69544,0.0,28.02182960510254,1,94502.828125
1778788396.35940909,69544671,1,-0.26971435546875,583.8202514648438,94504.65625,30.59,0.0,69544,0.0,28.02182960510254,1,94504.65625
1778788396.45936894,69644631,0,0.00372314453125,584.0936889648438,94502.828125,30.59,0.0,69644,0.0,28.02182960510254,1,94502.828125
1778788396.45936894,69644631,1,-0.23748779296875,583.8524780273438,94504.2890625,30.6,0.0,69644,0.0,28.02182960510254,1,94504.2890625
1778788396.55932903,69744591,0,0.00372314453125,584.0936889648438,94502.828125,30.6,0.0,69744,0.0,28.02182960510254,1,94502.828125
1778788396.55932903,69744591,1,-0.23748779296875,583.8524780273438,94504.2890625,30.6,0.0,69744,0.0,28.02182960510254,1,94504.2890625
1778788396.65928912,69844551,0,0.00372314453125,584.0936889648438,94502.828125,30.6,0.0,69844,0.0,28.02182960510254,1,94502.828125
1778788396.65928912,69844551,1,0.0540771484375,584.14404296875,94500.984375,30.6,0.0,69844,0.0,28.02182960510254,1,94500.984375
1778788396.75924897,69944511,0,0.00372314453125,584.0936889648438,94502.828125,30.6,0.0,69944,0.0,28.02182960510254,1,94502.828125
1778788396.75924897,69944511,1,0.02130126953125,584.1112670898438,94501.3515625,30.6,0.0,69944,0.0,28.02182960510254,1,94501.3515625
1778788396.85920906,70044471,0,0.00372314453125,584.0936889648438,94502.828125,30.6,0.0,70044,0.0,28.02182960510254,1,94502.828125
1778788396.85920906,70044471,1,-0.24334716796875,583.8466186523438,94504.359375,30.6,0.0,70044,0.0,28.02182960510254,1,94504.359375
1778788396.96000195,70145264,0,0.00372314453125,584.0936889648438,94502.828125,30.6,0.0,70145,0.0,28.02182960510254,1,94502.828125
1778788396.96000195,70145264,1,-0.06072998046875,584.0292358398438,94502.2890625,30.6,0.0,70145,0.0,28.02182960510254,1,94502.2890625
1778788397.05996203,70245224,0,0.00372314453125,584.0936889648438,94502.828125,30.61,0.0,70245,0.0,28.02182960510254,1,94502.828125
1778788397.05996203,70245224,1,-0.26971435546875,583.8202514648438,94504.65625,30.61,0.0,70245,0.0,28.02182960510254,1,94504.65625
1778788397.15992212,70345184,0,0.01544189453125,584.1054077148438,94502.6875,30.61,0.0036560159642249346,70345,0.0,28.02182960510254,1,94502.6875
1778788397.15992212,70345184,1,-0.09637451171875,583.9935913085938,94502.6875,30.61,0.0036560159642249346,70345,0.0,28.02182960510254,1,94502.6875
1778788397.25988197,70445144,0,0.01544189453125,584.1054077148438,94502.6875,30.61,0.018267923966050148,70445,0.0,28.02182960510254,1,94502.6875
1778788397.25988197,70445144,1,-0.21063232421875,583.8793334960938,94503.9921875,30.61,0.018267923966050148,70445,0.0,28.02182960510254,1,94503.9921875
1778788397.35984206,70545104,0,0.03350830078125,584.1234741210938,94502.4921875,30.61,0.042214829474687576,70545,0.0,28.02182960510254,1,94502.4921875
1778788397.35984206,70545104,1,0.07159423828125,584.1615600585938,94500.78125,30.61,0.042214829474687576,70545,0.0,28.02182960510254,1,94500.78125
1778788397.45980215,70645064,0,0.04815673828125,584.1381225585938,94502.3203125,30.61,0.06940438598394394,70645,0.0,28.02182960510254,1,94502.3203125
1778788397.45980215,70645064,1,-0.01678466796875,584.0731811523438,94501.7890625,30.61,0.06940438598394394,70645,0.0,28.02182960510254,1,94501.7890625
1778788397.55976200,70745024,0,0.07452392578125,584.1644897460938,94502.0234375,30.62,0.1058960035443306,70745,0.0,28.02182960510254,1,94502.0234375
1778788397.55976200,70745024,1,-0.00213623046875,584.0878295898438,94501.6171875,30.62,0.1058960035443306,70745,0.0,28.02182960510254,1,94501.6171875
1778788397.65972209,70844984,0,0.09503173828125,584.1849975585938,94501.7890625,30.62,0.15355107188224792,70844,0.0,28.02182960510254,1,94501.7890625
1778788397.65972209,70844984,1,-0.15789794921875,583.9320678710938,94503.390625,30.62,0.15355107188224792,70844,0.0,28.02182960510254,1,94503.390625
1778788397.75968194,70944944,0,0.13604736328125,584.2260131835938,94501.3203125,30.62,0.20157569646835327,70944,0.0,28.02182960510254,1,94501.3203125
1778788397.75968194,70944944,1,-0.10809326171875,583.9818725585938,94502.828125,30.62,0.20157569646835327,70944,0.0,28.02182960510254,1,94502.828125
1778788397.85964203,71044904,0,0.1981201171875,584.2880859375,94500.625,30.62,0.259287565946579,71044,0.0,28.02182960510254,1,94500.625
1778788397.85964203,71044904,1,-0.01385498046875,584.0761108398438,94501.7578125,30.62,0.259287565946579,71044,0.0,28.02182960510254,1,94501.7578125
1778788397.95960212,71144864,0,0.30706787109375,584.3970336914062,94499.3828125,30.62,0.3701675534248352,71144,0.0,28.02182960510254,1,94499.3828125
1778788397.95960212,71144864,1,0.25091552734375,584.3408813476562,94498.75,30.62,0.3701675534248352,71144,0.0,28.02182960510254,1,94498.75
1778788398.05956197,71244824,0,0.4271240234375,584.51708984375,94498.015625,30.62,0.5711089968681335,71244,0.0,28.02182960510254,1,94498.015625
1778788398.05956197,71244824,1,0.2362060546875,584.326171875,94498.921875,30.62,0.5711089968681335,71244,0.0,28.02182960510254,1,94498.921875
1778788398.15952206,71344784,0,0.54486083984375,584.6348266601562,94496.6875,30.63,0.8295605778694153,71344,0.0,28.02182960510254,1,94496.6875
1778788398.15952206,71344784,1,0.48919677734375,584.5791625976562,94496.046875,30.62,0.8295605778694153,71344,0.0,28.02182960510254,1,94496.046875
1778788398.25948215,71444744,0,0.66839599609375,584.7583618164062,94495.2734375,30.63,1.0480117797851562,71444,0.0,28.02182960510254,1,94495.2734375
1778788398.25948215,71444744,1,0.40081787109375,584.4907836914062,94497.046875,30.63,1.0480117797851562,71444,0.0,28.02182960510254,1,94497.046875
1778788398.35944200,71544704,0,0.7744140625,584.8643798828125,94494.078125,30.63,1.1588858366012573,71544,0.0,28.02182960510254,1,94494.078125
1778788398.35944200,71544704,1,0.8330078125,584.9229736328125,94492.140625,30.63,1.1588858366012573,71544,0.0,28.02182960510254,1,94492.140625
1778788398.45940208,71644664,0,0.90673828125,584.9967041015625,94492.578125,30.63,1.1826132535934448,71644,0.0,28.02182960510254,1,94492.578125
1778788398.45940208,71644664,1,0.96533203125,585.0552978515625,94490.640625,30.63,1.1826132535934448,71644,0.0,28.02182960510254,1,94490.640625
1778788398.55936193,71744624,0,1.0390625,585.1290283203125,94491.0703125,30.63,1.1869430541992188,71744,0.0,28.02182960510254,1,94491.0703125
1778788398.55936193,71744624,1,0.91265869140625,585.0026245117188,94491.2421875,30.63,1.1869430541992188,71744,0.0,28.02182960510254,1,94491.2421875
1778788398.65932202,71844584,0,1.17437744140625,585.2643432617188,94489.5390625,30.63,1.2236785888671875,71844,0.0,28.02182960510254,1,94489.5390625
1778788398.65932202,71844584,1,0.90673828125,584.9967041015625,94491.3046875,30.63,1.2236785888671875,71844,0.0,28.02182960510254,1,94491.3046875
1778788398.75928211,71944544,0,1.32427978515625,585.4142456054688,94487.828125,30.63,1.2895585298538208,71944,0.0,28.02182960510254,1,94487.828125
1778788398.75928211,71944544,1,1.3858642578125,585.475830078125,94485.875,30.63,1.2895585298538208,71944,0.0,28.02182960510254,1,94485.875
1778788398.85924196,72044504,0,1.48297119140625,585.5729370117188,94486.03125,30.63,1.3600730895996094,72044,0.0,28.02182960510254,1,94486.03125
1778788398.85924196,72044504,1,1.3682861328125,585.458251953125,94486.0625,30.63,1.3600730895996094,72044,0.0,28.02182960510254,1,94486.0625
1778788398.96003509,72145297,0,1.6597900390625,585.749755859375,94484.03125,30.63,1.4421627521514893,72145,0.0,28.02182960510254,1,94484.03125
1778788398.96003509,72145297,1,1.3682861328125,585.458251953125,94486.0625,30.63,1.4421627521514893,72145,0.0,28.02182960510254,1,94486.0625
1778788399.05999494,72245257,0,1.83612060546875,585.9260864257812,94482.0234375,30.63,1.5461009740829468,72245,0.0,28.02182960510254,1,94482.0234375
1778788399.05999494,72245257,1,1.71551513671875,585.8054809570312,94482.1328125,30.63,1.5461009740829468,72245,0.0,28.02182960510254,1,94482.1328125
1778788399.15995502,72345217,0,2.03289794921875,586.1228637695312,94479.7890625,30.64,1.656799554824829,72345,0.0,28.02182960510254,1,94479.7890625
1778788399.15995502,72345217,1,1.92108154296875,586.0110473632812,94479.7890625,30.64,1.656799554824829,72345,0.0,28.02182960510254,1,94479.7890625
1778788399.25991511,72445177,0,2.23614501953125,586.3261108398438,94477.484375,30.64,1.7638646364212036,72445,0.0,28.02182960510254,1,94477.484375
1778788399.25991511,72445177,1,2.02410888671875,586.1140747070312,94478.625,30.64,1.7638646364212036,72445,0.0,28.02182960510254,1,94478.625
1778788399.35987496,72545137,0,2.44757080078125,586.5375366210938,94475.0859375,30.64,1.8725448846817017,72545,0.0,28.02182960510254,1,94475.0859375
1778788399.35987496,72545137,1,2.35968017578125,586.4496459960938,94474.8125,30.64,1.8725448846817017,72545,0.0,28.02182960510254,1,94474.8125
1778788399.45983505,72645097,0,2.66241455078125,586.7523803710938,94472.65625,30.64,1.9777270555496216,72645,0.0,28.02182960510254,1,94472.65625
1778788399.45983505,72645097,1,2.53594970703125,586.6259155273438,94472.8125,30.64,1.9777270555496216,72645,0.0,28.02182960510254,1,94472.8125
1778788399.55979514,72745057,0,2.9066162109375,586.99658203125,94469.8828125,30.64,2.0704269409179688,72745,0.0,28.02182960510254,1,94469.8828125
1778788399.55979514,72745057,1,2.8240966796875,586.9140625,94469.5390625,30.64,2.0704269409179688,72745,0.0,28.02182960510254,1,94469.5390625
1778788399.65975499,72845017,0,3.1478271484375,587.23779296875,94467.1484375,30.64,2.168102264404297,72845,0.0,28.02182960510254,1,94467.1484375
1778788399.65975499,72845017,1,3.0828857421875,587.1728515625,94466.609375,30.64,2.168102264404297,72845,0.0,28.02182960510254,1,94466.609375
1778788399.75971508,72944977,0,3.39453125,587.4844970703125,94464.34375,30.64,2.2830817699432373,72944,0.0,28.02182960510254,1,94464.34375
1778788399.75971508,72944977,1,3.0946044921875,587.1845703125,94466.4765625,30.64,2.2830817699432373,72944,0.0,28.02182960510254,1,94466.4765625
1778788399.85967493,73044937,0,3.64453125,587.7344970703125,94461.5,30.64,2.3859798908233643,73044,0.0,28.02182960510254,1,94461.5
1778788399.85967493,73044937,1,3.400390625,587.4903564453125,94463.0078125,30.64,2.3859798908233643,73044,0.0,28.02182960510254,1,94463.0078125
1778788399.95963502,73144897,0,3.89459228515625,587.9845581054688,94458.6640625,30.64,2.4498701095581055,73144,0.0,28.02182960510254,1,94458.6640625
1778788399.95963502,73144897,1,3.76226806640625,587.8522338867188,94458.8984375,30.64,2.4498701095581055,73144,0.0,28.02182960510254,1,94458.8984375
1778788400.05959511,73244857,0,4.14752197265625,588.2374877929688,94455.7890625,30.64,2.482936143875122,73244,0.0,28.02182960510254,1,94455.7890625
1778788400.05959511,73244857,1,4.08258056640625,588.1725463867188,94455.265625,30.64,2.482936143875122,73244,0.0,28.02182960510254,1,94455.265625
1778788400.15955496,73344817,0,4.40643310546875,588.4963989257812,94452.859375,30.64,2.503571033477783,73344,0.0,28.02182960510254,1,94452.859375
1778788400.15955496,73344817,1,4.26531982421875,588.3552856445312,94453.1875,30.64,2.503571033477783,73344,0.0,28.02182960510254,1,94453.1875
1778788400.25951505,73444777,0,4.65350341796875,588.7434692382812,94450.0546875,30.64,2.5221095085144043,73444,0.0,28.02182960510254,1,94450.0546875
1778788400.25951505,73444777,1,4.51824951171875,588.6082153320312,94450.328125,30.64,2.5221095085144043,73444,0.0,28.02182960510254,1,94450.328125
1778788400.35947514,73544737,0,4.906494140625,588.9964599609375,94447.1796875,30.64,2.5334548950195312,73544,0.0,28.02182960510254,1,94447.1796875
1778788400.35947514,73544737,1,4.823974609375,588.9139404296875,94446.8515625,30.64,2.5334548950195312,73544,0.0,28.02182960510254,1,94446.8515625
1778788400.45943499,73644697,0,5.156494140625,589.2464599609375,94444.3515625,30.64,2.527961492538452,73644,0.0,28.02182960510254,1,94444.3515625
1778788400.45943499,73644697,1,5.09747314453125,589.1874389648438,94443.75,30.64,2.527961492538452,73644,0.0,28.02182960510254,1,94443.75
1778788400.55939507,73744657,0,5.4061279296875,589.49609375,94441.515625,30.64,2.5149154663085938,73744,0.0,28.02182960510254,1,94441.515625
1778788400.55939507,73744657,1,5.3592529296875,589.44921875,94440.7734375,30.64,2.5149154663085938,73744,0.0,28.02182960510254,1,94440.7734375
1778788400.65935493,73844617,0,5.6531982421875,589.7431640625,94438.7109375,30.64,2.5060651302337646,73844,0.0,28.02182960510254,1,94438.7109375
1778788400.65935493,73844617,1,5.67376708984375,589.7637329101562,94437.203125,30.64,2.5060651302337646,73844,0.0,28.02182960510254,1,94437.203125
1778788400.75931501,73944577,0,5.90325927734375,589.9932250976562,94435.875,30.64,2.4980545043945312,73944,0.0,28.02182960510254,1,94435.875
1778788400.75931501,73944577,1,5.97357177734375,590.0635375976562,94433.8046875,30.64,2.4980545043945312,73944,0.0,28.02182960510254,1,94433.8046875
1778788400.85927510,74044537,0,6.15618896484375,590.2461547851562,94433.0,30.64,2.4916458129882812,74044,0.0,28.02182960510254,1,94433.0
1778788400.85927510,74044537,1,6.14752197265625,590.2374877929688,94431.8359375,30.64,2.4916458129882812,74044,0.0,28.02182960510254,1,94431.8359375
1778788400.95923495,74144497,0,6.40631103515625,590.4962768554688,94430.171875,30.64,2.4950788021087646,74144,0.0,28.02182960510254,1,94430.171875
1778788400.95923495,74144497,1,6.37359619140625,590.4635620117188,94429.2734375,30.64,2.4950788021087646,74144,0.0,28.02182960510254,1,94429.2734375
1778788401.06002808,74245290,0,6.64459228515625,590.7345581054688,94427.4609375,30.64,2.500408887863159,74245,0.0,28.02182960510254,1,94427.4609375
1778788401.06002808,74245290,1,6.7208251953125,590.810791015625,94425.3359375,30.64,2.500408887863159,74245,0.0,28.02182960510254,1,94425.3359375
1778788401.15998793,74345250,0,6.8941650390625,590.984130859375,94424.6328125,30.64,2.486408233642578,74345,0.0,28.02182960510254,1,94424.6328125
1778788401.15998793,74345250,1,6.7886962890625,590.878662109375,94424.5625,30.64,2.486408233642578,74345,0.0,28.02182960510254,1,94424.5625
1778788401.25994802,74445210,0,7.1324462890625,591.222412109375,94421.9375,30.64,2.4563727378845215,74445,0.0,28.02182960510254,1,94421.9375
1778788401.25994802,74445210,1,7.144287109375,591.2342529296875,94420.5234375,30.64,2.4563727378845215,74445,0.0,28.02182960510254,1,94420.5234375
1778788401.35990810,74545170,0,7.388427734375,591.4783935546875,94419.03125,30.64,2.439100980758667,74545,0.0,28.02182960510254,1,94419.03125
1778788401.35990810,74545170,1,7.218017578125,591.3079833984375,94419.6953125,30.64,2.439100980758667,74545,0.0,28.02182960510254,1,94419.6953125
1778788401.45986795,74645130,0,7.635498046875,591.7254638671875,94416.2265625,30.64,2.448371171951294,74645,0.0,28.02182960510254,1,94416.2265625
1778788401.45986795,74645130,1,7.67071533203125,591.7606811523438,94414.5546875,30.64,2.448371171951294,74645,0.0,28.02182960510254,1,94414.5546875
1778788401.55982804,74745090,0,7.87677001953125,591.9667358398438,94413.4921875,30.64,2.4696717262268066,74745,0.0,28.02182960510254,1,94413.4921875
1778788401.55982804,74745090,1,7.68243408203125,591.7723999023438,94414.421875,30.64,2.4696717262268066,74745,0.0,28.02182960510254,1,94414.421875
1778788401.65978813,74845050,0,8.12384033203125,592.2138061523438,94410.6875,30.64,2.4765396118164062,74845,0.0,28.02182960510254,1,94410.6875
1778788401.65978813,74845050,1,8.12054443359375,592.2105102539062,94409.4609375,30.64,2.4765396118164062,74845,0.0,28.02182960510254,1,94409.4609375
1778788401.75974798,74945010,0,8.36468505859375,592.4546508789062,94407.953125,30.64,2.4618148803710938,74945,0.0,28.02182960510254,1,94407.953125
1778788401.75974798,74945010,1,8.37933349609375,592.4692993164062,94406.515625,30.64,2.4618148803710938,74945,0.0,28.02182960510254,1,94406.515625
1778788401.85970807,75044970,0,8.61761474609375,592.7075805664062,94405.0859375,30.64,2.4482462406158447,75044,0.0,28.02182960510254,1,94405.0859375
1778788401.85970807,75044970,1,8.45013427734375,592.5401000976562,94405.71875,30.64,2.4482462406158447,75044,0.0,28.02182960510254,1,94405.71875
1778788401.95966792,75144930,0,8.86767578125,592.9576416015625,94402.2421875,30.64,2.4561266899108887,75144,0.0,28.02182960510254,1,94402.2421875
1778788401.95966792,75144930,1,8.63818359375,592.7281494140625,94403.578125,30.64,2.4561266899108887,75144,0.0,28.02182960510254,1,94403.578125
1778788402.05962801,75244890,0,9.10601806640625,593.1959838867188,94399.546875,30.64,2.4774410724639893,75244,0.0,28.02182960510254,1,94399.546875
1778788402.05962801,75244890,1,9.07965087890625,593.1696166992188,94398.578125,30.64,2.4774410724639893,75244,0.0,28.02182960510254,1,94398.578125
1778788402.15958810,75344850,0,9.3560791015625,593.446044921875,94396.703125,30.64,2.48372745513916,75344,0.0,28.02182960510254,1,94396.703125
1778788402.15958810,75344850,1,9.1676025390625,593.257568359375,94397.578125,30.64,2.48372745513916,75344,0.0,28.02182960510254,1,94397.578125
1778788402.25954795,75444810,0,9.6031494140625,593.693115234375,94393.90625,30.64,2.468534469604492,75444,0.0,28.02182960510254,1,94393.90625
1778788402.25954795,75444810,1,9.4586181640625,593.548583984375,94394.28125,30.64,2.468534469604492,75444,0.0,28.02182960510254,1,94394.28125
1778788402.35950804,75544770,0,9.84686279296875,593.9368286132812,94391.1484375,30.64,2.4590022563934326,75544,0.0,28.02182960510254,1,94391.1484375
1778788402.35950804,75544770,1,9.78826904296875,593.8782348632812,94390.5390625,30.64,2.4590022563934326,75544,0.0,28.02182960510254,1,94390.5390625
1778788402.45946813,75644730,0,10.096923828125,594.1868896484375,94388.3046875,30.64,2.4630355834960938,75644,0.0,28.02182960510254,1,94388.3046875
1778788402.45946813,75644730,1,9.979248046875,594.0692138671875,94388.3671875,30.64,2.4630355834960938,75644,0.0,28.02182960510254,1,94388.3671875
1778788402.55942798,75744690,0,10.34698486328125,594.4369506835938,94385.46875,30.65,2.4677658081054688,75744,0.0,28.02182960510254,1,94385.46875
1778788402.55942798,75744690,1,10.073486328125,594.1634521484375,94387.3046875,30.65,2.4677658081054688,75744,0.0,28.02182960510254,1,94387.3046875
1778788402.65938807,75844650,0,10.58526611328125,594.6752319335938,94382.765625,30.65,2.4724197387695312,75844,0.0,28.02182960510254,1,94382.765625
1778788402.65938807,75844650,1,10.46759033203125,594.5575561523438,94382.828125,30.65,2.4724197387695312,75844,0.0,28.02182960510254,1,94382.828125
1778788402.75934815,75944610,0,10.8353271484375,594.92529296875,94379.9296875,30.65,2.4713518619537354,75944,0.0,28.02182960510254,1,94379.9296875
1778788402.75934815,75944610,1,10.8734130859375,594.96337890625,94378.234375,30.64,2.4713518619537354,75944,0.0,28.02182960510254,1,94378.234375
1778788402.85930800,76044570,0,11.0882568359375,595.17822265625,94377.0703125,30.65,2.4627110958099365,76044,0.0,28.02182960510254,1,94377.0703125
1778788402.85930800,76044570,1,11.02337646484375,595.1133422851562,94376.53125,30.65,2.4627110958099365,76044,0.0,28.02182960510254,1,94376.53125
1778788402.95926809,76144530,0,11.326171875,595.4161376953125,94374.3671875,30.65,2.4644851684570312,76144,0.0,28.02182960510254,1,94374.3671875
1778788402.95926809,76144530,1,11.33203125,595.4219970703125,94373.03125,30.65,2.4644851684570312,76144,0.0,28.02182960510254,1,94373.03125
1778788403.05922794,76244490,0,11.576171875,595.6661376953125,94371.53125,30.65,2.4721717834472656,76244,0.0,28.02182960510254,1,94371.53125
1778788403.05922794,76244490,1,11.62310791015625,595.7130737304688,94369.734375,30.64,2.4721717834472656,76244,0.0,28.02182960510254,1,94369.734375
1778788403.16002107,76345283,0,11.8145751953125,595.904541015625,94368.828125,30.65,2.4634358882904053,76345,0.0,28.02182960510254,1,94368.828125
1778788403.16002107,76345283,1,11.576171875,595.6661376953125,94370.2578125,30.65,2.4634358882904053,76345,0.0,28.02182960510254,1,94370.2578125
1778788403.25998092,76445243,0,12.0557861328125,596.145751953125,94366.1015625,30.65,2.4421474933624268,76445,0.0,28.02182960510254,1,94366.1015625
1778788403.25998092,76445243,1,11.7701416015625,595.860107421875,94368.0703125,30.65,2.4421474933624268,76445,0.0,28.02182960510254,1,94368.0703125
1778788403.35994101,76545203,0,12.29412841796875,596.3840942382812,94363.3984375,30.65,2.4208462238311768,76545,0.0,28.02182960510254,1,94363.3984375
1778788403.35994101,76545203,1,12.0084228515625,596.098388671875,94365.3671875,30.65,2.4208462238311768,76545,0.0,28.02182960510254,1,94365.3671875
1778788403.45990109,76645163,0,12.51434326171875,596.6043090820312,94360.8984375,30.65,2.397507905960083,76645,0.0,28.02182960510254,1,94360.8984375
1778788403.45990109,76645163,1,12.40252685546875,596.4924926757812,94360.8984375,30.65,2.397507905960083,76645,0.0,28.02182960510254,1,94360.8984375
1778788403.55986094,76745123,0,12.73516845703125,596.8251342773438,94358.3984375,30.65,2.358670473098755,76745,0.0,28.02182960510254,1,94358.3984375
1778788403.55986094,76745123,1,12.620361328125,596.7103271484375,94358.4296875,30.65,2.358670473098755,76745,0.0,28.02182960510254,1,94358.4296875
1778788403.65982103,76845083,0,12.946533203125,597.0364990234375,94355.9921875,30.65,2.29476261138916,76845,0.0,28.02182960510254,1,94355.9921875
1778788403.65982103,76845083,1,12.684814453125,596.7747802734375,94357.6875,30.65,2.29476261138916,76845,0.0,28.02182960510254,1,94357.6875
1778788403.75978112,76945043,0,13.13507080078125,597.2250366210938,94353.8515625,30.65,2.2152137756347656,76945,0.0,28.02182960510254,1,94353.8515625
1778788403.75978112,76945043,1,12.92022705078125,597.0101928710938,94355.03125,30.65,2.2152137756347656,76945,0.0,28.02182960510254,1,94355.03125
1778788403.85974097,77045003,0,13.3260498046875,597.416015625,94351.6953125,30.65,2.123432159423828,77045,0.0,28.02182960510254,1,94351.6953125
1778788403.85974097,77045003,1,13.3055419921875,597.3955078125,94350.65625,30.65,2.123432159423828,77045,0.0,28.02182960510254,1,94350.65625
1778788403.95970106,77144963,0,13.5057373046875,597.595703125,94349.6640625,30.65,2.018740653991699,77144,0.0,28.02182960510254,1,94349.6640625
1778788403.95970106,77144963,1,13.2733154296875,597.36328125,94351.0234375,30.65,2.018740653991699,77144,0.0,28.02182960510254,1,94351.0234375
1778788404.05966115,77244923,0,13.66448974609375,597.7544555664062,94347.859375,30.65,1.9186406135559082,77244,0.0,28.02182960510254,1,94347.859375
1778788404.05966115,77244923,1,13.5584716796875,597.6484375,94347.7890625,30.65,1.9186406135559082,77244,0.0,28.02182960510254,1,94347.7890625
1778788404.15962100,77344883,0,13.8173828125,597.9073486328125,94346.125,30.65,1.820528268814087,77344,0.0,28.02182960510254,1,94346.125
1778788404.15962100,77344883,1,13.60540771484375,597.6953735351562,94347.2578125,30.65,1.820528268814087,77344,0.0,28.02182960510254,1,94347.2578125
1778788404.25958109,77444843,0,13.96728515625,598.0572509765625,94344.421875,30.65,1.70601487159729,77444,0.0,28.02182960510254,1,94344.421875
1778788404.25958109,77444843,1,13.66748046875,597.7574462890625,94346.5546875,30.65,1.70601487159729,77444,0.0,28.02182960510254,1,94346.5546875
1778788404.35954094,77544803,0,14.09375,598.1837158203125,94342.9921875,30.65,1.5905866622924805,77544,0.0,28.02182960510254,1,94342.9921875
1778788404.35954094,77544803,1,14.16998291015625,598.2599487304688,94340.859375,30.65,1.5905866622924805,77544,0.0,28.02182960510254,1,94340.859375
1778788404.45950103,77644763,0,14.21435546875,598.3043212890625,94341.625,30.65,1.4861925840377808,77644,0.0,28.02182960510254,1,94341.625
1778788404.45950103,77644763,1,13.93798828125,598.0279541015625,94343.484375,30.65,1.4861925840377808,77644,0.0,28.02182960510254,1,94343.484375
1778788404.55946112,77744723,0,14.32916259765625,598.4191284179688,94340.3203125,30.65,1.3764764070510864,77744,0.0,28.02182960510254,1,94340.3203125
1778788404.55946112,77744723,1,14.12310791015625,598.2130737304688,94341.390625,30.65,1.3764764070510864,77744,0.0,28.02182960510254,1,94341.390625
1778788404.65942097,77844683,0,14.42584228515625,598.5158081054688,94339.21875,30.65,1.2636947631835938,77844,0.0,28.02182960510254,1,94339.21875
1778788404.65942097,77844683,1,14.19635009765625,598.2863159179688,94340.5546875,30.65,1.2636947631835938,77844,0.0,28.02182960510254,1,94340.5546875
1778788404.75938106,77944643,0,14.51422119140625,598.6041870117188,94338.21875,30.65,1.1587905883789062,77944,0.0,28.02182960510254,1,94338.21875
1778788404.75938106,77944643,1,14.50836181640625,598.5983276367188,94337.0234375,30.65,1.1587905883789062,77944,0.0,28.02182960510254,1,94337.0234375
1778788404.85934114,78044603,0,14.59674072265625,598.6867065429688,94337.2890625,30.66,1.0527420043945312,78044,0.0,28.02182960510254,1,94337.2890625
1778788404.85934114,78044603,1,14.6378173828125,598.727783203125,94335.5546875,30.65,1.0527420043945312,78044,0.0,28.02182960510254,1,94335.5546875
1778788404.95930099,78144563,0,14.66705322265625,598.7570190429688,94336.484375,30.66,0.9462928771972656,78144,0.0,28.02182960510254,1,94336.484375
1778788404.95930099,78144563,1,14.69354248046875,598.7835083007812,94334.921875,30.66,0.9462928771972656,78144,0.0,28.02182960510254,1,94334.921875
1778788405.05926108,78244523,0,14.73504638671875,598.8250122070312,94335.7265625,30.66,0.8521080017089844,78244,0.0,28.02182960510254,1,94335.7265625
1778788405.05926108,78244523,1,14.5728759765625,598.662841796875,94336.28125,30.66,0.8521080017089844,78244,0.0,28.02182960510254,1,94336.28125
1778788405.15922093,78344483,0,14.78778076171875,598.8777465820312,94335.1171875,30.66,0.7686232924461365,78344,0.0,28.02182960510254,1,94335.1171875
1778788405.15922093,78344483,1,14.65838623046875,598.7483520507812,94335.3203125,30.66,0.7686232924461365,78344,0.0,28.02182960510254,1,94335.3203125
1778788405.26001406,78445276,0,14.82586669921875,598.9158325195312,94334.6875,30.66,0.6828517317771912,78445,0.0,28.02182960510254,1,94334.6875
1778788405.26001406,78445276,1,14.5347900390625,598.624755859375,94336.71875,30.66,0.6828517317771912,78445,0.0,28.02182960510254,1,94336.71875
1778788405.35997415,78545236,0,14.85272216796875,598.9426879882812,94334.390625,30.66,0.579935610294342,78545,0.0,28.02182960510254,1,94334.390625
1778788405.35997415,78545236,1,14.69940185546875,598.7893676757812,94334.8515625,30.66,0.579935610294342,78545,0.0,28.02182960510254,1,94334.8515625
1778788405.45993400,78645196,0,14.87615966796875,598.9661254882812,94334.125,30.66,0.4598812758922577,78645,0.0,28.02182960510254,1,94334.125
1778788405.45993400,78645196,1,14.65838623046875,598.7483520507812,94335.3203125,30.66,0.4598812758922577,78645,0.0,28.02182960510254,1,94335.3203125
1778788405.55989408,78745156,0,14.88787841796875,598.9778442382812,94333.984375,30.66,0.3458108603954315,78745,0.0,28.02182960510254,1,94333.984375
1778788405.55989408,78745156,1,14.71697998046875,598.8069458007812,94334.65625,30.66,0.3458108603954315,78745,0.0,28.02182960510254,1,94334.65625
1778788405.65985394,78845116,0,14.89666748046875,598.9866333007812,94333.890625,30.67,0.2538153827190399,78845,0.0,28.02182960510254,1,94333.890625
1778788405.65985394,78845116,1,14.7081298828125,598.798095703125,94334.7578125,30.67,0.2538153827190399,78845,0.0,28.02182960510254,1,94334.7578125
1778788405.75981402,78945076,0,14.89666748046875,598.9866333007812,94333.890625,30.67,0.17740309238433838,78945,0.0,28.02182960510254,1,94333.890625
1778788405.75981402,78945076,1,14.93475341796875,599.0247192382812,94332.1875,30.67,0.17740309238433838,78945,0.0,28.02182960510254,1,94332.1875
1778788405.85977411,79045036,0,14.88787841796875,598.9778442382812,94333.984375,30.67,0.106353759765625,79045,0.0,28.02182960510254,1,94333.984375
1778788405.85977411,79045036,1,14.86395263671875,598.9539184570312,94332.9921875,30.67,0.106353759765625,79045,0.0,28.02182960510254,1,94332.9921875
1778788405.95973396,79144996,0,14.88787841796875,598.9778442382812,94333.984375,30.67,0.039386019110679626,79144,0.0,28.02182960510254,1,94333.984375
1778788405.95973396,79144996,1,14.90252685546875,598.9924926757812,94332.5546875,30.67,0.039386019110679626,79144,0.0,28.02182960510254,1,94332.5546875
1778788406.05969405,79244956,0,14.87615966796875,598.9661254882812,94334.125,30.67,-0.01373291015625,79244,0.0,28.02182960510254,1,94334.125
1778788406.05969405,79244956,1,14.6143798828125,598.704345703125,94335.8203125,30.67,-0.01373291015625,79244,0.0,28.02182960510254,1,94335.8203125
1778788406.15965414,79344916,0,14.87615966796875,598.9661254882812,94334.125,30.67,-0.043169159442186356,79344,0.0,28.02182960510254,1,94334.125
1778788406.15965414,79344916,1,14.89373779296875,598.9837036132812,94332.6484375,30.67,-0.043169159442186356,79344,0.0,28.02182960510254,1,94332.6484375
1778788406.25961399,79444876,0,14.87615966796875,598.9661254882812,94334.125,30.67,-0.050520963966846466,79444,0.0,28.02182960510254,1,94334.125
1778788406.25961399,79444876,1,14.5963134765625,598.686279296875,94336.0234375,30.68,-0.050520963966846466,79444,0.0,28.02182960510254,1,94336.0234375
1778788406.35957408,79544836,0,14.86444091796875,598.9544067382812,94334.25,30.68,-0.0430833101272583,79544,0.0,28.02182960510254,1,94334.25
1778788406.35957408,79544836,1,14.61151123046875,598.7014770507812,94335.859375,30.68,-0.0430833101272583,79544,0.0,28.02182960510254,1,94335.859375
1778788406.45953393,79644796,0,14.86444091796875,598.9544067382812,94334.25,30.68,-0.03663332015275955,79644,0.0,28.02182960510254,1,94334.25
1778788406.45953393,79644796,1,14.76434326171875,598.8543090820312,94334.125,30.68,-0.03663332015275955,79644,0.0,28.02182960510254,1,94334.125
1778788406.55949402,79744756,0,14.86444091796875,598.9544067382812,94334.25,30.68,-0.040283203125,79744,0.0,28.02182960510254,1,94334.25
1778788406.55949402,79744756,1,14.71697998046875,598.8069458007812,94334.65625,30.68,-0.040283203125,79744,0.0,28.02182960510254,1,94334.65625
1778788406.65945411,79844716,0,14.86444091796875,598.9544067382812,94334.25,30.68,-0.03662109375,79844,0.0,28.02182960510254,1,94334.25
1778788406.65945411,79844716,1,14.78485107421875,598.8748168945312,94333.890625,30.68,-0.03662109375,79844,0.0,28.02182960510254,1,94333.890625
1778788406.75941396,79944676,0,14.86444091796875,598.9544067382812,94334.25,30.68,-0.01831054501235485,79944,0.0,28.02182960510254,1,94334.25
1778788406.75941396,79944676,1,14.6524658203125,598.742431640625,94335.3828125,30.68,-0.01831054501235485,79944,0.0,28.02182960510254,1,94335.3828125
1778788406.85937405,80044636,0,14.87615966796875,598.9661254882812,94334.125,30.68,0.0,80044,0.0,28.02182960510254,1,94334.125
1778788406.85937405,80044636,1,14.7081298828125,598.798095703125,94334.7578125,30.68,0.0,80044,0.0,28.02182960510254,1,94334.7578125
1778788406.95933414,80144596,0,14.87615966796875,598.9661254882812,94334.125,30.68,0.01831054501235485,80144,0.0,28.02182960510254,1,94334.125
1778788406.95933414,80144596,1,14.70526123046875,598.7952270507812,94334.7890625,30.69,0.01831054501235485,80144,0.0,28.02182960510254,1,94334.7890625
1778788407.05929399,80244556,0,14.87615966796875,598.9661254882812,94334.125,30.69,0.03662109375,80244,0.0,28.02182960510254,1,94334.125
1778788407.05929399,80244556,1,14.57867431640625,598.6686401367188,94336.21875,30.69,0.03662109375,80244,0.0,28.02182960510254,1,94336.21875
1778788407.15925407,80344516,0,14.88787841796875,598.9778442382812,94333.984375,30.69,0.040283203125,80344,0.0,28.02182960510254,1,94333.984375
1778788407.15925407,80344516,1,14.77606201171875,598.8660278320312,94333.984375,30.69,0.040283203125,80344,0.0,28.02182960510254,1,94333.984375
1778788407.25921392,80444476,0,14.88787841796875,598.9778442382812,94333.984375,30.69,0.0366210900247097,80444,0.0,28.02182960510254,1,94333.984375
1778788407.25921392,80444476,1,14.80242919921875,598.8923950195312,94333.6875,30.69,0.0366210900247097,80444,0.0,28.02182960510254,1,94333.6875
1778788407.36000705,80545269,0,14.89666748046875,598.9866333007812,94333.890625,30.69,0.04301303252577782,80545,0.0,28.02182960510254,1,94333.890625
1778788407.36000705,80545269,1,14.79364013671875,598.8836059570312,94333.78125,30.69,0.04301303252577782,80545,0.0,28.02182960510254,1,94333.78125
1778788407.45996714,80645229,0,14.89666748046875,598.9866333007812,94333.890625,30.69,0.0502794124186039,80645,0.0,28.02182960510254,1,94333.890625
1778788407.45996714,80645229,1,14.89666748046875,598.9866333007812,94332.6171875,30.69,0.0502794124186039,80645,0.0,28.02182960510254,1,94332.6171875
1778788407.55992699,80745189,0,14.90545654296875,598.9954223632812,94333.78125,30.69,0.04837546497583389,80745,0.0,28.02182960510254,1,94333.78125
1778788407.55992699,80745189,1,14.80828857421875,598.8982543945312,94333.625,30.69,0.04837546497583389,80745,0.0,28.02182960510254,1,94333.625
1778788407.65988708,80845149,0,14.90545654296875,598.9954223632812,94333.78125,30.69,0.04472249001264572,80845,0.0,28.02182960510254,1,94333.78125
1778788407.65988708,80845149,1,14.97576904296875,599.0657348632812,94331.71875,30.69,0.04472249001264572,80845,0.0,28.02182960510254,1,94331.71875
1778788407.75984693,80945109,0,14.91424560546875,599.0042114257812,94333.6875,30.7,0.04387681186199188,80945,0.0,28.02182960510254,1,94333.6875
1778788407.75984693,80945109,1,14.6290283203125,598.718994140625,94335.65625,30.7,0.04387681186199188,80945,0.0,28.02182960510254,1,94335.65625
1778788407.85980701,81045069,0,14.91424560546875,599.0042114257812,94333.6875,30.7,0.04393160715699196,81045,0.0,28.02182960510254,1,94333.6875
1778788407.85980701,81045069,1,14.85809326171875,598.9480590820312,94333.0546875,30.7,0.04393160715699196,81045,0.0,28.02182960510254,1,94333.0546875
1778788407.95976710,81145029,0,14.91424560546875,599.0042114257812,94333.6875,30.7,0.0411987341940403,81145,0.0,28.02182960510254,1,94333.6875
1778788407.95976710,81145029,1,14.72283935546875,598.8128051757812,94334.59375,30.7,0.0411987341940403,81145,0.0,28.02182960510254,1,94334.59375
1778788408.05972695,81244989,0,14.92303466796875,599.0130004882812,94333.5859375,30.7,0.03297274187207222,81244,0.0,28.02182960510254,1,94333.5859375
1778788408.05972695,81244989,1,14.77020263671875,598.8601684570312,94334.0625,30.7,0.03297274187207222,81244,0.0,28.02182960510254,1,94334.0625
1778788408.15968704,81344949,0,14.92303466796875,599.0130004882812,94333.5859375,30.7,0.027530059218406677,81344,0.0,28.02182960510254,1,94333.5859375
1778788408.15968704,81344949,1,14.62030029296875,598.7102661132812,94335.7578125,30.7,0.027530059218406677,81344,0.0,28.02182960510254,1,94335.7578125
1778788408.25964713,81444909,0,14.92303466796875,599.0130004882812,94333.5859375,30.7,0.030318114906549454,81444,0.0,28.02182960510254,1,94333.5859375
1778788408.25964713,81444909,1,14.64666748046875,598.7366333007812,94335.4609375,30.7,0.030318114906549454,81444,0.0,28.02182960510254,1,94335.4609375
1778788408.35960698,81544869,0,14.93475341796875,599.0247192382812,94333.453125,30.7,0.03123517334461212,81544,0.0,28.02182960510254,1,94333.453125
1778788408.35960698,81544869,1,14.98455810546875,599.0745239257812,94331.625,30.7,0.03123517334461212,81544,0.0,28.02182960510254,1,94331.625
1778788408.45956707,81644829,0,14.93475341796875,599.0247192382812,94333.453125,30.71,0.032118406146764755,81644,0.0,28.02182960510254,1,94333.453125
1778788408.45956707,81644829,1,14.90252685546875,598.9924926757812,94332.5546875,30.7,0.032118406146764755,81644,0.0,28.02182960510254,1,94332.5546875
1778788408.55952692,81744789,0,14.93475341796875,599.0247192382812,94333.453125,30.71,0.03937837854027748,81744,0.0,28.02182960510254,1,94333.453125
1778788408.55952692,81744789,1,14.77606201171875,598.8660278320312,94333.984375,30.71,0.03937837854027748,81744,0.0,28.02182960510254,1,94333.984375
1778788408.65948701,81844749,0,14.93475341796875,599.0247192382812,94333.453125,30.71,0.03662109375,81844,0.0,28.02182960510254,1,94333.453125
1778788408.65948701,81844749,1,14.64666748046875,598.7366333007812,94335.4609375,30.71,0.03662109375,81844,0.0,28.02182960510254,1,94335.4609375
1778788408.75944710,81944709,0,14.93475341796875,599.0247192382812,94333.453125,30.71,0.01831054501235485,81944,0.0,28.02182960510254,1,94333.453125
1778788408.75944710,81944709,1,14.75262451171875,598.8425903320312,94334.25,30.71,0.01831054501235485,81944,0.0,28.02182960510254,1,94334.25
1778788408.85940695,82044669,0,14.94647216796875,599.0364379882812,94333.3203125,30.71,0.00732421875,82044,0.0,28.02182960510254,1,94333.3203125
1778788408.85940695,82044669,1,14.7315673828125,598.821533203125,94334.484375,30.71,0.00732421875,82044,0.0,28.02182960510254,1,94334.484375
1778788408.95936704,82144629,0,14.94647216796875,599.0364379882812,94333.3203125,30.71,0.01831054501235485,82144,0.0,28.02182960510254,1,94333.3203125
1778788408.95936704,82144629,1,14.90545654296875,598.9954223632812,94332.5234375,30.71,0.01831054501235485,82144,0.0,28.02182960510254,1,94332.5234375
1778788409.05932713,82244589,0,14.94647216796875,599.0364379882812,94333.3203125,30.71,0.03662109375,82244,0.0,28.02182960510254,1,94333.3203125
1778788409.05932713,82244589,1,14.6378173828125,598.727783203125,94335.5546875,30.71,0.03662109375,82244,0.0,28.02182960510254,1,94335.5546875
1778788409.15928698,82344549,0,14.94647216796875,599.0364379882812,94333.3203125,30.71,0.03662109375,82344,0.0,28.02182960510254,1,94333.3203125
1778788409.15928698,82344549,1,14.95819091796875,599.0481567382812,94331.921875,30.71,0.03662109375,82344,0.0,28.02182960510254,1,94331.921875
1778788409.25924706,82444509,0,14.94647216796875,599.0364379882812,94333.3203125,30.72,0.01831054501235485,82444,0.0,28.02182960510254,1,94333.3203125
1778788409.25924706,82444509,1,14.97283935546875,599.0628051757812,94331.75,30.71,0.01831054501235485,82444,0.0,28.02182960510254,1,94331.75
1778788409.35920715,82544469,0,14.95819091796875,599.0481567382812,94333.1953125,30.72,0.00732421875,82544,0.0,28.02182960510254,1,94333.1953125
1778788409.35920715,82544469,1,14.89373779296875,598.9837036132812,94332.6484375,30.72,0.00732421875,82544,0.0,28.02182960510254,1,94332.6484375
1778788409.46000004,82645262,0,14.95819091796875,599.0481567382812,94333.1953125,30.72,0.018304454162716866,82645,0.0,28.02182960510254,1,94333.1953125
1778788409.46000004,82645262,1,14.85516357421875,598.9451293945312,94333.0859375,30.72,0.018304454162716866,82645,0.0,28.02182960510254,1,94333.0859375
1778788409.55996013,82745222,0,14.95819091796875,599.0481567382812,94333.1953125,30.72,0.0365784727036953,82745,0.0,28.02182960510254,1,94333.1953125
1778788409.55996013,82745222,1,14.93768310546875,599.0276489257812,94332.15625,30.72,0.0365784727036953,82745,0.0,28.02182960510254,1,94332.15625
1778788409.65991998,82845182,0,14.95819091796875,599.0481567382812,94333.1953125,30.72,0.03648737072944641,82845,0.0,28.02182960510254,1,94333.1953125
1778788409.65991998,82845182,1,14.96697998046875,599.0569458007812,94331.828125,30.72,0.03648737072944641,82845,0.0,28.02182960510254,1,94331.828125
1778788409.75988007,82945142,0,14.95819091796875,599.0481567382812,94333.1953125,30.72,0.018267923966050148,82945,0.0,28.02182960510254,1,94333.1953125
1778788409.75988007,82945142,1,14.88787841796875,598.9778442382812,94332.7265625,30.72,0.018267923966050148,82945,0.0,28.02182960510254,1,94332.7265625
1778788409.85983992,83045102,0,14.95819091796875,599.0481567382812,94333.1953125,30.72,0.0036560159642249346,83045,0.0,28.02182960510254,1,94333.1953125
1778788409.85983992,83045102,1,14.6612548828125,598.751220703125,94335.2890625,30.72,0.0036560159642249346,83045,0.0,28.02182960510254,1,94335.2890625
1778788409.95980000,83145062,0,14.96697998046875,599.0569458007812,94333.0859375,30.72,0.002742012031376362,83145,0.0,28.02182960510254,1,94333.0859375
1778788409.95980000,83145062,1,14.6846923828125,598.774658203125,94335.0234375,30.73,0.002742012031376362,83145,0.0,28.02182960510254,1,94335.0234375
1778788410.05976009,83245022,0,14.96697998046875,599.0569458007812,94333.0859375,30.73,0.013732911087572575,83245,0.0,28.02182960510254,1,94333.0859375
1778788410.05976009,83245022,1,15.02899169921875,599.1189575195312,94331.125,30.72,0.013732911087572575,83245,0.0,28.02182960510254,1,94331.125
1778788410.15971994,83344982,0,14.96697998046875,599.0569458007812,94333.0859375,30.73,0.027470406144857407,83344,0.0,28.02182960510254,1,94333.0859375
1778788410.15971994,83344982,1,14.75262451171875,598.8425903320312,94334.25,30.73,0.027470406144857407,83344,0.0,28.02182960510254,1,94334.25
1778788410.25968003,83444942,0,14.96697998046875,599.0569458007812,94333.0859375,30.73,0.02749793976545334,83444,0.0,28.02182960510254,1,94333.0859375
1778788410.25968003,83444942,1,14.91424560546875,599.0042114257812,94332.421875,30.73,0.02749793976545334,83444,0.0,28.02182960510254,1,94332.421875
1778788410.35964012,83544902,0,14.96697998046875,599.0569458007812,94333.0859375,30.73,0.013765029609203339,83544,0.0,28.02182960510254,1,94333.0859375
1778788410.35964012,83544902,1,15.04364013671875,599.1336059570312,94330.9609375,30.73,0.013765029609203339,83544,0.0,28.02182960510254,1,94330.9609375
1778788410.45959997,83644862,0,14.96697998046875,599.0569458007812,94333.0859375,30.73,0.0027511673979461193,83644,0.0,28.02182960510254,1,94333.0859375
1778788410.45959997,83644862,1,14.81707763671875,598.9070434570312,94333.5234375,30.73,0.0027511673979461193,83644,0.0,28.02182960510254,1,94333.5234375
1778788410.55956006,83744822,0,14.96697998046875,599.0569458007812,94333.0859375,30.73,0.0,83744,0.0,28.02182960510254,1,94333.0859375
1778788410.55956006,83744822,1,14.76141357421875,598.8513793945312,94334.15625,30.73,0.0,83744,0.0,28.02182960510254,1,94334.15625
1778788410.65952015,83844782,0,14.96697998046875,599.0569458007812,94333.0859375,30.73,0.0,83844,0.0,28.02182960510254,1,94333.0859375
1778788410.65952015,83844782,1,14.79949951171875,598.8894653320312,94333.71875,30.73,0.0,83844,0.0,28.02182960510254,1,94333.71875
1778788410.75948000,83944742,0,14.97576904296875,599.0657348632812,94332.9921875,30.73,0.00274658203125,83944,0.0,28.02182960510254,1,94332.9921875
1778788410.75948000,83944742,1,14.90252685546875,598.9924926757812,94332.5546875,30.73,0.00274658203125,83944,0.0,28.02182960510254,1,94332.5546875
1778788410.85944009,84044702,0,14.97576904296875,599.0657348632812,94332.9921875,30.74,0.013732911087572575,84044,0.0,28.02182960510254,1,94332.9921875
1778788410.85944009,84044702,1,14.7081298828125,598.798095703125,94334.7578125,30.74,0.013732911087572575,84044,0.0,28.02182960510254,1,94334.7578125
1778788410.95939994,84144662,0,14.97576904296875,599.0657348632812,94332.9921875,30.74,0.0274658203125,84144,0.0,28.02182960510254,1,94332.9921875
1778788410.95939994,84144662,1,14.85516357421875,598.9451293945312,94333.0859375,30.74,0.0274658203125,84144,0.0,28.02182960510254,1,94333.0859375
1778788411.05936003,84244622,0,14.97576904296875,599.0657348632812,94332.9921875,30.74,0.0274658203125,84244,0.0,28.02182960510254,1,94332.9921875
1778788411.05936003,84244622,1,14.68182373046875,598.7717895507812,94335.0546875,30.74,0.0274658203125,84244,0.0,28.02182960510254,1,94335.0546875
1778788411.15932012,84344582,0,14.97576904296875,599.0657348632812,94332.9921875,30.74,0.013732911087572575,84344,0.0,28.02182960510254,1,94332.9921875
1778788411.15932012,84344582,1,14.69354248046875,598.7835083007812,94334.921875,30.74,0.013732911087572575,84344,0.0,28.02182960510254,1,94334.921875
1778788411.25927997,84444542,0,14.97576904296875,599.0657348632812,94332.9921875,30.74,0.00274658203125,84444,0.0,28.02182960510254,1,94332.9921875
1778788411.25927997,84444542,1,14.7081298828125,598.798095703125,94334.7578125,30.74,0.00274658203125,84444,0.0,28.02182960510254,1,94334.7578125
1778788411.35924006,84544502,0,14.97576904296875,599.0657348632812,94332.9921875,30.74,0.0,84544,0.0,28.02182960510254,1,94332.9921875
1778788411.35924006,84544502,1,14.71697998046875,598.8069458007812,94334.65625,30.74,0.0,84544,0.0,28.02182960510254,1,94334.65625
1778788411.46003294,84645295,0,14.97576904296875,599.0657348632812,94332.9921875,30.74,0.0,84645,0.0,28.02182960510254,1,94332.9921875
1778788411.46003294,84645295,1,15.05242919921875,599.1423950195312,94330.8515625,30.74,0.0,84645,0.0,28.02182960510254,1,94330.8515625
1778788411.55999303,84745255,0,14.97576904296875,599.0657348632812,94332.9921875,30.74,0.0,84745,0.0,28.02182960510254,1,94332.9921875
1778788411.55999303,84745255,1,14.78778076171875,598.8777465820312,94333.859375,30.74,0.0,84745,0.0,28.02182960510254,1,94333.859375
1778788411.65995312,84845215,0,14.98455810546875,599.0745239257812,94332.8828125,30.75,0.002742012031376362,84845,0.0,28.02182960510254,1,94332.8828125
1778788411.65995312,84845215,1,14.77606201171875,598.8660278320312,94333.984375,30.75,0.002742012031376362,84845,0.0,28.02182960510254,1,94333.984375
1778788411.75991297,84945175,0,14.98455810546875,599.0745239257812,94332.8828125,30.75,0.013700942508876324,84945,0.0,28.02182960510254,1,94332.8828125
1778788411.75991297,84945175,1,14.7554931640625,598.845458984375,94334.21875,30.75,0.013700942508876324,84945,0.0,28.02182960510254,1,94334.21875
1778788411.85987306,85045135,0,14.98455810546875,599.0745239257812,94332.8828125,30.75,0.0274338535964489,85045,0.0,28.02182960510254,1,94332.8828125
1778788411.85987306,85045135,1,14.71405029296875,598.8040161132812,94334.6875,30.75,0.0274338535964489,85045,0.0,28.02182960510254,1,94334.6875
1778788411.95983315,85145095,0,14.98455810546875,599.0745239257812,94332.8828125,30.75,0.027461249381303787,85145,0.0,28.02182960510254,1,94332.8828125
1778788411.95983315,85145095,1,14.72283935546875,598.8128051757812,94334.59375,30.75,0.027461249381303787,85145,0.0,28.02182960510254,1,94334.59375
1778788412.05979300,85245055,0,14.98455810546875,599.0745239257812,94332.8828125,30.75,0.013732911087572575,85245,0.0,28.02182960510254,1,94332.8828125
1778788412.05979300,85245055,1,14.94940185546875,599.0393676757812,94332.0234375,30.75,0.013732911087572575,85245,0.0,28.02182960510254,1,94332.0234375
1778788412.15975308,85345015,0,14.98455810546875,599.0745239257812,94332.8828125,30.75,0.00274658203125,85345,0.0,28.02182960510254,1,94332.8828125
1778788412.15975308,85345015,1,15.02899169921875,599.1189575195312,94331.125,30.75,0.00274658203125,85345,0.0,28.02182960510254,1,94331.125
1778788412.25971293,85444975,0,14.98455810546875,599.0745239257812,94332.8828125,30.75,0.0,85444,0.0,28.02182960510254,1,94332.8828125
1778788412.25971293,85444975,1,15.04364013671875,599.1336059570312,94330.9609375,30.75,0.0,85444,0.0,28.02182960510254,1,94330.9609375
1778788412.35967302,85544935,0,14.98455810546875,599.0745239257812,94332.8828125,30.75,0.0,85544,0.0,28.02182960510254,1,94332.8828125
1778788412.35967302,85544935,1,14.97576904296875,599.0657348632812,94331.71875,30.75,0.0,85544,0.0,28.02182960510254,1,94331.71875
1778788412.45963311,85644895,0,14.98455810546875,599.0745239257812,94332.8828125,30.75,0.0,85644,0.0,28.02182960510254,1,94332.8828125
1778788412.45963311,85644895,1,14.71405029296875,598.8040161132812,94334.6875,30.76,0.0,85644,0.0,28.02182960510254,1,94334.6875
1778788412.55959296,85744855,0,14.98455810546875,599.0745239257812,94332.8828125,30.76,0.0,85744,0.0,28.02182960510254,1,94332.8828125
1778788412.55959296,85744855,1,15.00506591796875,599.0950317382812,94331.390625,30.76,0.0,85744,0.0,28.02182960510254,1,94331.390625
1778788412.65955305,85844815,0,14.98455810546875,599.0745239257812,94332.8828125,30.76,0.0,85844,0.0,28.02182960510254,1,94332.8828125
1778788412.65955305,85844815,1,14.82586669921875,598.9158325195312,94333.421875,30.76,0.0,85844,0.0,28.02182960510254,1,94333.421875
1778788412.75951314,85944775,0,14.99383544921875,599.0838012695312,94332.7890625,30.76,0.0029040100052952766,85944,0.0,28.02182960510254,1,94332.7890625
1778788412.75951314,85944775,1,14.77020263671875,598.8601684570312,94334.0625,30.76,0.0029040100052952766,85944,0.0,28.02182960510254,1,94334.0625
1778788412.85947299,86044735,0,14.99383544921875,599.0838012695312,94332.7890625,30.76,0.014495849609375,86044,0.0,28.02182960510254,1,94332.7890625
1778788412.85947299,86044735,1,14.87274169921875,598.9627075195312,94332.8828125,30.76,0.014495849609375,86044,0.0,28.02182960510254,1,94332.8828125
1778788412.95943308,86144695,0,14.99383544921875,599.0838012695312,94332.7890625,30.76,0.02899170108139515,86144,0.0,28.02182960510254,1,94332.7890625
1778788412.95943308,86144695,1,14.84051513671875,598.9304809570312,94333.2578125,30.76,0.02899170108139515,86144,0.0,28.02182960510254,1,94333.2578125
1778788413.05939293,86244655,0,14.99383544921875,599.0838012695312,94332.7890625,30.76,0.02899170108139515,86244,0.0,28.02182960510254,1,94332.7890625
1778788413.05939293,86244655,1,14.69354248046875,598.7835083007812,94334.921875,30.76,0.02899170108139515,86244,0.0,28.02182960510254,1,94334.921875
1778788413.15935302,86344615,0,14.99383544921875,599.0838012695312,94332.7890625,30.76,0.014495849609375,86344,0.0,28.02182960510254,1,94332.7890625
1778788413.15935302,86344615,1,14.70526123046875,598.7952270507812,94334.7890625,30.76,0.014495849609375,86344,0.0,28.02182960510254,1,94334.7890625
1778788413.25931311,86444575,0,14.99383544921875,599.0838012695312,94332.7890625,30.76,0.002899169921875,86444,0.0,28.02182960510254,1,94332.7890625
1778788413.25931311,86444575,1,15.03192138671875,599.1218872070312,94331.0859375,30.76,0.002899169921875,86444,0.0,28.02182960510254,1,94331.0859375
1778788413.35927296,86544535,0,14.99383544921875,599.0838012695312,94332.7890625,30.77,0.0,86544,0.0,28.02182960510254,1,94332.7890625
1778788413.35927296,86544535,1,14.7789306640625,598.868896484375,94333.953125,30.77,0.0,86544,0.0,28.02182960510254,1,94333.953125
1778788413.45923305,86644495,0,14.99383544921875,599.0838012695312,94332.7890625,30.77,0.0,86644,0.0,28.02182960510254,1,94332.7890625
1778788413.45923305,86644495,1,14.80828857421875,598.8982543945312,94333.625,30.77,0.0,86644,0.0,28.02182960510254,1,94333.625
1778788413.56002593,86745288,0,14.99383544921875,599.0838012695312,94332.7890625,30.77,0.0,86745,0.0,28.02182960510254,1,94332.7890625
1778788413.56002593,86745288,1,14.99041748046875,599.0803833007812,94331.546875,30.77,0.0,86745,0.0,28.02182960510254,1,94331.546875
1778788413.65998602,86845248,0,14.99383544921875,599.0838012695312,94332.7890625,30.77,0.0,86845,0.0,28.02182960510254,1,94332.7890625
1778788413.65998602,86845248,1,14.80828857421875,598.8982543945312,94333.625,30.77,0.0,86845,0.0,28.02182960510254,1,94333.625
