timestamp,TimeUS,I,Alt,AltAMSL,Press,Temp,CRt,SMS,Offset,GndTemp,H,CPress
1778785729.95918298,71144031,0,0.00372314453125,584.0936889648438,94502.828125,30.62,0.0,71144,0.0,28.02182960510254,1,94502.828125
1778785729.95918298,71144031,1,-0.04901123046875,584.0409545898438,94502.1640625,30.62,0.0,71144,0.0,28.02182960510254,1,94502.1640625
1778785730.05997586,71244824,0,0.00372314453125,584.0936889648438,94502.828125,30.63,0.0,71244,0.0,28.02182960510254,1,94502.828125
1778785730.05997586,71244824,1,-0.18133544921875,583.9086303710938,94503.6640625,30.63,0.0,71244,0.0,28.02182960510254,1,94503.6640625
1778785730.15993595,71344784,0,0.00372314453125,584.0936889648438,94502.828125,30.63,0.0,71344,0.0,28.02182960510254,1,94502.828125
1778785730.15993595,71344784,1,-0.04901123046875,584.0409545898438,94502.1640625,30.63,0.0,71344,0.0,28.02182960510254,1,94502.1640625
1778785730.25989604,71444744,0,0.00372314453125,584.0936889648438,94502.828125,30.63,0.0,71444,0.0,28.02182960510254,1,94502.828125
1778785730.25989604,71444744,1,-0.26092529296875,583.8290405273438,94504.5625,30.63,0.0,71444,0.0,28.02182960510254,1,94504.5625
1778785730.35985589,71544704,0,0.00372314453125,584.0936889648438,94502.828125,30.63,0.0,71544,0.0,28.02182960510254,1,94502.828125
1778785730.35985589,71544704,1,0.0628662109375,584.15283203125,94500.890625,30.63,0.0,71544,0.0,28.02182960510254,1,94500.890625
1778785730.45981598,71644664,0,0.00372314453125,584.0936889648438,94502.828125,30.63,0.0,71644,0.0,28.02182960510254,1,94502.828125
1778785730.45981598,71644664,1,0.06866455078125,584.1586303710938,94500.828125,30.63,0.0,71644,0.0,28.02182960510254,1,94500.828125
1778785730.55977583,71744624,0,0.00372314453125,584.0936889648438,94502.828125,30.64,0.0,71744,0.0,28.02182960510254,1,94502.828125
1778785730.55977583,71744624,1,-0.11688232421875,583.9730834960938,94502.921875,30.64,0.0,71744,0.0,28.02182960510254,1,94502.921875
1778785730.65973592,71844584,0,0.00372314453125,584.0936889648438,94502.828125,30.64,0.0,71844,0.0,28.02182960510254,1,94502.828125
1778785730.65973592,71844584,1,-0.26678466796875,583.8231811523438,94504.625,30.64,0.0,71844,0.0,28.02182960510254,1,94504.625
1778785730.75969601,71944544,0,0.00372314453125,584.0936889648438,94502.828125,30.64,0.0,71944,0.0,28.02182960510254,1,94502.828125
1778785730.75969601,71944544,1,0.06866455078125,584.1586303710938,94500.828125,30.64,0.0,71944,0.0,28.02182960510254,1,94500.828125
1778785730.85965586,72044504,0,0.00372314453125,584.0936889648438,94502.828125,30.64,0.0,72044,0.0,28.02182960510254,1,94502.828125
1778785730.85965586,72044504,1,-0.11102294921875,583.9789428710938,94502.859375,30.64,0.0,72044,0.0,28.02182960510254,1,94502.859375
1778785730.95961595,72144464,0,0.00372314453125,584.0936889648438,94502.828125,30.64,0.0,72144,0.0,28.02182960510254,1,94502.828125
1778785730.95961595,72144464,1,-0.28143310546875,583.8085327148438,94504.796875,30.64,0.0,72144,0.0,28.02182960510254,1,94504.796875
1778785731.05957603,72244424,0,0.00372314453125,584.0936889648438,94502.828125,30.65,0.0,72244,0.0,28.02182960510254,1,94502.828125
1778785731.05957603,72244424,1,-0.11688232421875,583.9730834960938,94502.921875,30.65,0.0,72244,0.0,28.02182960510254,1,94502.921875
1778785731.15953588,72344384,0,0.00372314453125,584.0936889648438,94502.828125,30.65,0.0,72344,0.0,28.02182960510254,1,94502.828125
1778785731.15953588,72344384,1,-0.10809326171875,583.9818725585938,94502.828125,30.65,0.0,72344,0.0,28.02182960510254,1,94502.828125
1778785731.25949597,72444344,0,0.00372314453125,584.0936889648438,94502.828125,30.65,0.0,72444,0.0,28.02182960510254,1,94502.828125
1778785731.25949597,72444344,1,-0.19891357421875,583.8910522460938,94503.8515625,30.65,0.0,72444,0.0,28.02182960510254,1,94503.8515625
1778785731.35945582,72544304,0,0.00372314453125,584.0936889648438,94502.828125,30.65,0.0,72544,0.0,28.02182960510254,1,94502.828125
1778785731.35945582,72544304,1,-0.07830810546875,584.0116577148438,94502.4921875,30.65,0.0,72544,0.0,28.02182960510254,1,94502.4921875
1778785731.45941591,72644264,0,0.00372314453125,584.0936889648438,94502.828125,30.65,0.0,72644,0.0,28.02182960510254,1,94502.828125
1778785731.45941591,72644264,1,-0.12567138671875,583.9642944335938,94503.03125,30.65,0.0,72644,0.0,28.02182960510254,1,94503.03125
1778785731.55937600,72744224,0,0.00372314453125,584.0936889648438,94502.828125,30.65,0.0,72744,0.0,28.02182960510254,1,94502.828125
1778785731.55937600,72744224,1,-0.07830810546875,584.0116577148438,94502.4921875,30.65,0.0,72744,0.0,28.02182960510254,1,94502.4921875
1778785731.65933585,72844184,0,0.00372314453125,584.0936889648438,94502.828125,30.66,0.0,72844,0.0,28.02182960510254,1,94502.828125
1778785731.65933585,72844184,1,-0.06072998046875,584.0292358398438,94502.2890625,30.66,0.0,72844,0.0,28.02182960510254,1,94502.2890625
1778785731.75929594,72944144,0,0.00372314453125,584.0936889648438,94502.828125,30.66,0.0,72944,0.0,28.02182960510254,1,94502.828125
1778785731.75929594,72944144,1,-0.29315185546875,583.7968139648438,94504.921875,30.66,0.0,72944,0.0,28.02182960510254,1,94504.921875
1778785731.85925603,73044104,0,0.00372314453125,584.0936889648438,94502.828125,30.66,0.0,73044,0.0,28.02182960510254,1,94502.828125
1778785731.85925603,73044104,1,-0.23748779296875,583.8524780273438,94504.2890625,30.66,0.0,73044,0.0,28.02182960510254,1,94504.2890625
1778785731.95921588,73144064,0,0.00372314453125,584.0936889648438,94502.828125,30.66,0.0,73144,0.0,28.02182960510254,1,94502.828125
1778785731.95921588,73144064,1,-0.12567138671875,583.9642944335938,94503.03125,30.66,0.0,73144,0.0,28.02182960510254,1,94503.03125
1778785732.05917597,73244024,0,0.00372314453125,584.0936889648438,94502.828125,30.66,0.0,73244,0.0,28.02182960510254,1,94502.828125
1778785732.05917597,73244024,1,-0.06072998046875,584.0292358398438,94502.2890625,30.66,0.0,73244,0.0,28.02182960510254,1,94502.2890625
1778785732.15996885,73344817,0,0.00372314453125,584.0936889648438,94502.828125,30.67,0.0,73344,0.0,28.02182960510254,1,94502.828125
1778785732.15996885,73344817,1,-0.13446044921875,583.9555053710938,94503.125,30.67,0.0,73344,0.0,28.02182960510254,1,94503.125
1778785732.25992894,73444777,0,0.00372314453125,584.0936889648438,94502.828125,30.67,0.0,73444,0.0,28.02182960510254,1,94502.828125
1778785732.25992894,73444777,1,-0.13446044921875,583.9555053710938,94503.125,30.67,0.0,73444,0.0,28.02182960510254,1,94503.125
1778785732.35988903,73544737,0,0.00372314453125,584.0936889648438,94502.828125,30.67,0.0,73544,0.0,28.02182960510254,1,94502.828125
1778785732.35988903,73544737,1,-0.07830810546875,584.0116577148438,94502.4921875,30.67,0.0,73544,0.0,28.02182960510254,1,94502.4921875
1778785732.45984888,73644697,0,0.00372314453125,584.0936889648438,94502.828125,30.67,0.0,73644,0.0,28.02182960510254,1,94502.828125
1778785732.45984888,73644697,1,-0.05487060546875,584.0350952148438,94502.2265625,30.67,0.0,73644,0.0,28.02182960510254,1,94502.2265625
1778785732.55980897,73744657,0,0.00372314453125,584.0936889648438,94502.828125,30.67,0.0,73744,0.0,28.02182960510254,1,94502.828125
1778785732.55980897,73744657,1,-0.03729248046875,584.0526733398438,94502.0234375,30.67,0.0,73744,0.0,28.02182960510254,1,94502.0234375
1778785732.65976882,73844617,0,0.00372314453125,584.0936889648438,94502.828125,30.67,0.0,73844,0.0,28.02182960510254,1,94502.828125
1778785732.65976882,73844617,1,0.02423095703125,584.1141967773438,94501.3203125,30.67,0.0,73844,0.0,28.02182960510254,1,94501.3203125
1778785732.75972891,73944577,0,0.00372314453125,584.0936889648438,94502.828125,30.68,0.0,73944,0.0,28.02182960510254,1,94502.828125
1778785732.75972891,73944577,1,0.07745361328125,584.1674194335938,94500.71875,30.68,0.0,73944,0.0,28.02182960510254,1,94500.71875
1778785732.85968900,74044537,0,0.00372314453125,584.0936889648438,94502.828125,30.68,0.0,74044,0.0,28.02182960510254,1,94502.828125
1778785732.85968900,74044537,1,-0.00213623046875,584.0878295898438,94501.6171875,30.68,0.0,74044,0.0,28.02182960510254,1,94501.6171875
1778785732.95964885,74144497,0,0.00372314453125,584.0936889648438,94502.828125,30.68,0.0,74144,0.0,28.02182960510254,1,94502.828125
1778785732.95964885,74144497,1,-0.02557373046875,584.0643920898438,94501.8828125,30.68,0.0,74144,0.0,28.02182960510254,1,94501.8828125
1778785733.05960894,74244457,0,0.00372314453125,584.0936889648438,94502.828125,30.68,0.0,74244,0.0,28.02182960510254,1,94502.828125
1778785733.05960894,74244457,1,0.08038330078125,584.1703491210938,94500.6875,30.68,0.0,74244,0.0,28.02182960510254,1,94500.6875
1778785733.15956903,74344417,0,0.00372314453125,584.0936889648438,94502.828125,30.68,0.0,74344,0.0,28.02182960510254,1,94502.828125
1778785733.15956903,74344417,1,-0.10809326171875,583.9818725585938,94502.828125,30.68,0.0,74344,0.0,28.02182960510254,1,94502.828125
1778785733.25952888,74444377,0,0.00372314453125,584.0936889648438,94502.828125,30.68,0.0,74444,0.0,28.02182960510254,1,94502.828125
1778785733.25952888,74444377,1,0.00958251953125,584.0995483398438,94501.4921875,30.68,0.0,74444,0.0,28.02182960510254,1,94501.4921875
1778785733.35948896,74544337,0,0.00372314453125,584.0936889648438,94502.828125,30.69,0.0,74544,0.0,28.02182960510254,1,94502.828125
1778785733.35948896,74544337,1,-0.16375732421875,583.9262084960938,94503.4609375,30.69,0.0,74544,0.0,28.02182960510254,1,94503.4609375
1778785733.45944881,74644297,0,0.00372314453125,584.0936889648438,94502.828125,30.69,0.0,74644,0.0,28.02182960510254,1,94502.828125
1778785733.45944881,74644297,1,0.04473876953125,584.1347045898438,94501.09375,30.69,0.0,74644,0.0,28.02182960510254,1,94501.09375
1778785733.55940890,74744257,0,0.00372314453125,584.0936889648438,94502.828125,30.69,0.0,74744,0.0,28.02182960510254,1,94502.828125
1778785733.55940890,74744257,1,-0.18719482421875,583.9027709960938,94503.7265625,30.69,0.0,74744,0.0,28.02182960510254,1,94503.7265625
1778785733.65936899,74844217,0,0.00372314453125,584.0936889648438,94502.828125,30.69,0.0,74844,0.0,28.02182960510254,1,94502.828125
1778785733.65936899,74844217,1,0.00079345703125,584.0907592773438,94501.5859375,30.69,0.0,74844,0.0,28.02182960510254,1,94501.5859375
1778785733.75932884,74944177,0,0.00372314453125,584.0936889648438,94502.828125,30.69,0.0,74944,0.0,28.02182960510254,1,94502.828125
1778785733.75932884,74944177,1,0.02130126953125,584.1112670898438,94501.3515625,30.69,0.0,74944,0.0,28.02182960510254,1,94501.3515625
1778785733.85928893,75044137,0,0.00372314453125,584.0936889648438,94502.828125,30.7,0.0,75044,0.0,28.02182960510254,1,94502.828125
1778785733.85928893,75044137,1,-0.15789794921875,583.9320678710938,94503.390625,30.7,0.0,75044,0.0,28.02182960510254,1,94503.390625
1778785733.95924902,75144097,0,0.00372314453125,584.0936889648438,94502.828125,30.7,0.0,75144,0.0,28.02182960510254,1,94502.828125
1778785733.95924902,75144097,1,-0.21942138671875,583.8705444335938,94504.0859375,30.7,0.0,75144,0.0,28.02182960510254,1,94504.0859375
1778785734.05920887,75244057,0,0.00372314453125,584.0936889648438,94502.828125,30.7,0.0,75244,0.0,28.02182960510254,1,94502.828125
1778785734.05920887,75244057,1,-0.02264404296875,584.0673217773438,94501.8515625,30.7,0.0,75244,0.0,28.02182960510254,1,94501.8515625
1778785734.16000199,75344850,0,0.00372314453125,584.0936889648438,94502.828125,30.7,0.0,75344,0.0,28.02182960510254,1,94502.828125
1778785734.16000199,75344850,1,-0.18133544921875,583.9086303710938,94503.6640625,30.7,0.0,75344,0.0,28.02182960510254,1,94503.6640625
1778785734.25996184,75444810,0,0.00372314453125,584.0936889648438,94502.828125,30.7,0.0,75444,0.0,28.02182960510254,1,94502.828125
1778785734.25996184,75444810,1,-0.14324951171875,583.9467163085938,94503.2265625,30.7,0.0,75444,0.0,28.02182960510254,1,94503.2265625
1778785734.35992193,75544770,0,0.00372314453125,584.0936889648438,94502.828125,30.7,0.0,75544,0.0,28.02182960510254,1,94502.828125
1778785734.35992193,75544770,1,-0.05487060546875,584.0350952148438,94502.2265625,30.7,0.0,75544,0.0,28.02182960510254,1,94502.2265625
1778785734.45988202,75644730,0,0.00372314453125,584.0936889648438,94502.828125,30.71,0.0,75644,0.0,28.02182960510254,1,94502.828125
1778785734.45988202,75644730,1,-0.11102294921875,583.9789428710938,94502.859375,30.71,0.0,75644,0.0,28.02182960510254,1,94502.859375
1778785734.55984187,75744690,0,0.00372314453125,584.0936889648438,94502.828125,30.71,0.0,75744,0.0,28.02182960510254,1,94502.828125
1778785734.55984187,75744690,1,-0.26678466796875,583.8231811523438,94504.625,30.71,0.0,75744,0.0,28.02182960510254,1,94504.625
1778785734.65980196,75844650,0,0.00372314453125,584.0936889648438,94502.828125,30.71,0.0,75844,0.0,28.02182960510254,1,94502.828125
1778785734.65980196,75844650,1,-0.11102294921875,583.9789428710938,94502.859375,30.71,0.0,75844,0.0,28.02182960510254,1,94502.859375
1778785734.75976205,75944610,0,0.00372314453125,584.0936889648438,94502.828125,30.71,0.0,75944,0.0,28.02182960510254,1,94502.828125
1778785734.75976205,75944610,1,0.04473876953125,584.1347045898438,94501.09375,30.71,0.0,75944,0.0,28.02182960510254,1,94501.09375
1778785734.85972190,76044570,0,0.00372314453125,584.0936889648438,94502.828125,30.71,0.0,76044,0.0,28.02182960510254,1,94502.828125
1778785734.85972190,76044570,1,-0.05487060546875,584.0350952148438,94502.2265625,30.71,0.0,76044,0.0,28.02182960510254,1,94502.2265625
1778785734.95968199,76144530,0,0.00372314453125,584.0936889648438,94502.828125,30.71,0.0,76144,0.0,28.02182960510254,1,94502.828125
1778785734.95968199,76144530,1,0.0155029296875,584.10546875,94501.421875,30.71,0.0,76144,0.0,28.02182960510254,1,94501.421875
1778785735.05964184,76244490,0,0.00372314453125,584.0936889648438,94502.828125,30.72,0.0,76244,0.0,28.02182960510254,1,94502.828125
1778785735.05964184,76244490,1,0.05694580078125,584.1469116210938,94500.953125,30.71,0.0,76244,0.0,28.02182960510254,1,94500.953125
1778785735.15960193,76344450,0,0.00372314453125,584.0936889648438,94502.828125,30.72,0.0,76344,0.0,28.02182960510254,1,94502.828125
1778785735.15960193,76344450,1,-0.23455810546875,583.8554077148438,94504.2578125,30.72,0.0,76344,0.0,28.02182960510254,1,94504.2578125
1778785735.25956202,76444410,0,0.00372314453125,584.0936889648438,94502.828125,30.72,0.0,76444,0.0,28.02182960510254,1,94502.828125
1778785735.25956202,76444410,1,-0.28143310546875,583.8085327148438,94504.796875,30.72,0.0,76444,0.0,28.02182960510254,1,94504.796875
1778785735.35952187,76544370,0,0.00372314453125,584.0936889648438,94502.828125,30.72,0.0,76544,0.0,28.02182960510254,1,94502.828125
1778785735.35952187,76544370,1,-0.28143310546875,583.8085327148438,94504.796875,30.72,0.0,76544,0.0,28.02182960510254,1,94504.796875
1778785735.45948195,76644330,0,0.00372314453125,584.0936889648438,94502.828125,30.72,0.0,76644,0.0,28.02182960510254,1,94502.828125
1778785735.45948195,76644330,1,-0.10809326171875,583.9818725585938,94502.828125,30.72,0.0,76644,0.0,28.02182960510254,1,94502.828125
1778785735.55944204,76744290,0,0.00372314453125,584.0936889648438,94502.828125,30.72,0.0,76744,0.0,28.02182960510254,1,94502.828125
1778785735.55944204,76744290,1,-0.11102294921875,583.9789428710938,94502.859375,30.72,0.0,76744,0.0,28.02182960510254,1,94502.859375
1778785735.65940189,76844250,0,0.00372314453125,584.0936889648438,94502.828125,30.72,0.0,76844,0.0,28.02182960510254,1,94502.828125
1778785735.65940189,76844250,1,-0.25799560546875,583.8319702148438,94504.5234375,30.73,0.0,76844,0.0,28.02182960510254,1,94504.5234375
1778785735.75936198,76944210,0,0.00372314453125,584.0936889648438,94502.828125,30.73,0.0,76944,0.0,28.02182960510254,1,94502.828125
1778785735.75936198,76944210,1,-0.21063232421875,583.8793334960938,94503.9921875,30.73,0.0,76944,0.0,28.02182960510254,1,94503.9921875
1778785735.85932183,77044170,0,0.00372314453125,584.0936889648438,94502.828125,30.73,0.0,77044,0.0,28.02182960510254,1,94502.828125
1778785735.85932183,77044170,1,-0.01678466796875,584.0731811523438,94501.7890625,30.73,0.0,77044,0.0,28.02182960510254,1,94501.7890625
1778785735.95928192,77144130,0,0.00372314453125,584.0936889648438,94502.828125,30.73,0.0,77144,0.0,28.02182960510254,1,94502.828125
1778785735.95928192,77144130,1,-0.22869873046875,583.8612670898438,94504.1953125,30.73,0.0,77144,0.0,28.02182960510254,1,94504.1953125
1778785736.05924201,77244090,0,0.00372314453125,584.0936889648438,94502.828125,30.73,0.0,77244,0.0,28.02182960510254,1,94502.828125
1778785736.05924201,77244090,1,-0.10223388671875,583.9877319335938,94502.75,30.73,0.0,77244,0.0,28.02182960510254,1,94502.75
1778785736.15920186,77344050,0,0.00372314453125,584.0936889648438,94502.828125,30.73,0.0,77344,0.0,28.02182960510254,1,94502.828125
1778785736.15920186,77344050,1,-0.20477294921875,583.8851928710938,94503.9296875,30.73,0.0,77344,0.0,28.02182960510254,1,94503.9296875
1778785736.25999498,77444843,0,0.00372314453125,584.0936889648438,94502.828125,30.73,0.0,77444,0.0,28.02182960510254,1,94502.828125
1778785736.25999498,77444843,1,-0.29315185546875,583.7968139648438,94504.921875,30.74,0.0,77444,0.0,28.02182960510254,1,94504.921875
1778785736.35995483,77544803,0,0.00372314453125,584.0936889648438,94502.828125,30.74,0.0,77544,0.0,28.02182960510254,1,94502.828125
1778785736.35995483,77544803,1,0.07745361328125,584.1674194335938,94500.71875,30.73,0.0,77544,0.0,28.02182960510254,1,94500.71875
1778785736.45991492,77644763,0,0.00372314453125,584.0936889648438,94502.828125,30.74,0.0,77644,0.0,28.02182960510254,1,94502.828125
1778785736.45991492,77644763,1,-0.26971435546875,583.8202514648438,94504.65625,30.74,0.0,77644,0.0,28.02182960510254,1,94504.65625
1778785736.55987501,77744723,0,0.00372314453125,584.0936889648438,94502.828125,30.74,0.0,77744,0.0,28.02182960510254,1,94502.828125
1778785736.55987501,77744723,1,-0.19891357421875,583.8910522460938,94503.8515625,30.74,0.0,77744,0.0,28.02182960510254,1,94503.8515625
1778785736.65983486,77844683,0,0.01544189453125,584.1054077148438,94502.6875,30.74,0.003662109375,77844,0.0,28.02182960510254,1,94502.6875
1778785736.65983486,77844683,1,-0.21063232421875,583.8793334960938,94503.9921875,30.74,0.003662109375,77844,0.0,28.02182960510254,1,94503.9921875
1778785736.75979495,77944643,0,0.01544189453125,584.1054077148438,94502.6875,30.74,0.01831054501235485,77944,0.0,28.02182960510254,1,94502.6875
1778785736.75979495,77944643,1,0.00665283203125,584.0966186523438,94501.5234375,30.74,0.01831054501235485,77944,0.0,28.02182960510254,1,94501.5234375
1778785736.85975504,78044603,0,0.02423095703125,584.1141967773438,94502.59375,30.74,0.0393676795065403,78044,0.0,28.02182960510254,1,94502.59375
1778785736.85975504,78044603,1,0.07159423828125,584.1615600585938,94500.78125,30.74,0.0393676795065403,78044,0.0,28.02182960510254,1,94500.78125
1778785736.95971489,78144563,0,0.04815673828125,584.1381225585938,94502.3203125,30.74,0.0578308142721653,78144,0.0,28.02182960510254,1,94502.3203125
1778785736.95971489,78144563,1,0.07745361328125,584.1674194335938,94500.71875,30.74,0.0578308142721653,78144,0.0,28.02182960510254,1,94500.71875
1778785737.05967498,78244523,0,0.06573486328125,584.1557006835938,94502.125,30.75,0.088653564453125,78244,0.0,28.02182960510254,1,94502.125
1778785737.05967498,78244523,1,-0.09637451171875,583.9935913085938,94502.6875,30.75,0.088653564453125,78244,0.0,28.02182960510254,1,94502.6875
1778785737.15963483,78344483,0,0.09503173828125,584.1849975585938,94501.7890625,30.75,0.14251708984375,78344,0.0,28.02182960510254,1,94501.7890625
1778785737.15963483,78344483,1,-0.03729248046875,584.0526733398438,94502.0234375,30.75,0.14251708984375,78344,0.0,28.02182960510254,1,94502.0234375
1778785737.25959492,78444443,0,0.1273193359375,584.21728515625,94501.421875,30.75,0.19929887354373932,78444,0.0,28.02182960510254,1,94501.421875
1778785737.25959492,78444443,1,-0.16375732421875,583.9262084960938,94503.4609375,30.75,0.19929887354373932,78444,0.0,28.02182960510254,1,94503.4609375
1778785737.35955501,78544403,0,0.1746826171875,584.2646484375,94500.890625,30.75,0.2518653869628906,78544,0.0,28.02182960510254,1,94500.890625
1778785737.35955501,78544403,1,0.02130126953125,584.1112670898438,94501.3515625,30.75,0.2518653869628906,78544,0.0,28.02182960510254,1,94501.3515625
1778785737.45951486,78644363,0,0.2772216796875,584.3671875,94499.7265625,30.75,0.33344265818595886,78644,0.0,28.02182960510254,1,94499.7265625
1778785737.45951486,78644363,1,0.05694580078125,584.1469116210938,94500.953125,30.75,0.33344265818595886,78644,0.0,28.02182960510254,1,94500.953125
1778785737.55947495,78744323,0,0.39495849609375,584.4849243164062,94498.3828125,30.75,0.49718859791755676,78744,0.0,28.02182960510254,1,94498.3828125
1778785737.55947495,78744323,1,0.22747802734375,584.3174438476562,94499.015625,30.75,0.49718859791755676,78744,0.0,28.02182960510254,1,94499.015625
1778785737.65943503,78844283,0,0.5184326171875,584.6083984375,94496.984375,30.75,0.7505988478660583,78844,0.0,28.02182960510254,1,94496.984375
1778785737.65943503,78844283,1,0.33050537109375,584.4204711914062,94497.8515625,30.75,0.7505988478660583,78844,0.0,28.02182960510254,1,94497.8515625
1778785737.75939488,78944243,0,0.63323974609375,584.7232055664062,94495.6796875,30.75,1.0012626647949219,78944,0.0,28.02182960510254,1,94495.6796875
1778785737.75939488,78944243,1,0.67431640625,584.7642822265625,94493.9453125,30.75,1.0012626647949219,78944,0.0,28.02182960510254,1,94493.9453125
1778785737.85935497,79044203,0,0.7568359375,584.8468017578125,94494.28125,30.75,1.1468124389648438,79044,0.0,28.02182960510254,1,94494.28125
1778785737.85935497,79044203,1,0.7333984375,584.8233642578125,94493.2734375,30.75,1.1468124389648438,79044,0.0,28.02182960510254,1,94493.2734375
1778785737.95931482,79144163,0,0.87451171875,584.9644775390625,94492.9453125,30.75,1.1905289888381958,79144,0.0,28.02182960510254,1,94492.9453125
1778785737.95931482,79144163,1,0.88916015625,584.9791259765625,94491.5078125,30.75,1.1905289888381958,79144,0.0,28.02182960510254,1,94491.5078125
1778785738.05927491,79244123,0,0.9951171875,585.0850830078125,94491.5703125,30.76,1.1962890625,79244,0.0,28.02182960510254,1,94491.5703125
1778785738.05927491,79244123,1,0.7333984375,584.8233642578125,94493.2734375,30.76,1.1962890625,79244,0.0,28.02182960510254,1,94493.2734375
1778785738.15923500,79344083,0,1.13623046875,585.2261962890625,94489.96875,30.76,1.2044906616210938,79344,0.0,28.02182960510254,1,94489.96875
1778785738.15923500,79344083,1,1.15093994140625,585.2409057617188,94488.5390625,30.76,1.2044906616210938,79344,0.0,28.02182960510254,1,94488.5390625
1778785738.25919485,79444043,0,1.28619384765625,585.3761596679688,94488.265625,30.76,1.2409782409667969,79444,0.0,28.02182960510254,1,94488.265625
1778785738.25919485,79444043,1,1.00689697265625,585.0968627929688,94490.171875,30.76,1.2409782409667969,79444,0.0,28.02182960510254,1,94490.171875
1778785738.35998797,79544836,0,1.4332275390625,585.523193359375,94486.6015625,30.76,1.3206291198730469,79544,0.0,28.02182960510254,1,94486.6015625
1778785738.35998797,79544836,1,1.1802978515625,585.270263671875,94488.203125,30.76,1.3206291198730469,79544,0.0,28.02182960510254,1,94488.203125
1778785738.45994782,79644796,0,1.6065673828125,585.696533203125,94484.6328125,30.76,1.4187430143356323,79644,0.0,28.02182960510254,1,94484.6328125
1778785738.45994782,79644796,1,1.5035400390625,585.593505859375,94484.5234375,30.76,1.4187430143356323,79644,0.0,28.02182960510254,1,94484.5234375
1778785738.55990791,79744756,0,1.78631591796875,585.8762817382812,94482.6015625,30.76,1.5133095979690552,79744,0.0,28.02182960510254,1,94482.6015625
1778785738.55990791,79744756,1,1.63592529296875,585.7258911132812,94483.03125,30.76,1.5133095979690552,79744,0.0,28.02182960510254,1,94483.03125
1778785738.65986800,79844716,0,1.97723388671875,586.0671997070312,94480.4296875,30.76,1.6201019287109375,79844,0.0,28.02182960510254,1,94480.4296875
1778785738.65986800,79844716,1,1.89471435546875,585.9846801757812,94480.0859375,30.76,1.6201019287109375,79844,0.0,28.02182960510254,1,94480.0859375
1778785738.75982785,79944676,0,2.16522216796875,586.2551879882812,94478.2890625,30.76,1.737060546875,79944,0.0,28.02182960510254,1,94478.2890625
1778785738.75982785,79944676,1,1.95086669921875,586.0408325195312,94479.453125,30.76,1.737060546875,79944,0.0,28.02182960510254,1,94479.453125
1778785738.85978794,80044636,0,2.37725830078125,586.4672241210938,94475.8828125,30.76,1.8351173400878906,80044,0.0,28.02182960510254,1,94475.8828125
1778785738.85978794,80044636,1,2.209716796875,586.2996826171875,94476.515625,30.76,1.8351173400878906,80044,0.0,28.02182960510254,1,94476.515625
1778785738.95974803,80144596,0,2.59796142578125,586.6879272460938,94473.3828125,30.76,1.9193840026855469,80144,0.0,28.02182960510254,1,94473.3828125
1778785738.95974803,80144596,1,2.42413330078125,586.5140991210938,94474.0859375,30.76,1.9193840026855469,80144,0.0,28.02182960510254,1,94474.0859375
1778785739.05970788,80244556,0,2.8270263671875,586.9169921875,94470.78125,30.76,2.0209884643554688,80244,0.0,28.02182960510254,1,94470.78125
1778785739.05970788,80244556,1,2.52716064453125,586.6171264648438,94472.921875,30.76,2.0209884643554688,80244,0.0,28.02182960510254,1,94472.921875
1778785739.15966797,80344516,0,3.0682373046875,587.158203125,94468.046875,30.76,2.138996124267578,80344,0.0,28.02182960510254,1,94468.046875
1778785739.15966797,80344516,1,2.9564208984375,587.04638671875,94468.046875,30.76,2.138996124267578,80344,0.0,28.02182960510254,1,94468.046875
1778785739.25962782,80444476,0,3.3154296875,587.4053955078125,94465.2421875,30.76,2.2497177124023438,80444,0.0,28.02182960510254,1,94465.2421875
1778785739.25962782,80444476,1,3.23284912109375,587.3228149414062,94464.8984375,30.76,2.2497177124023438,80444,0.0,28.02182960510254,1,94464.8984375
1778785739.35958791,80544436,0,3.5654296875,587.6553955078125,94462.3984375,30.76,2.3450851440429688,80544,0.0,28.02182960510254,1,94462.3984375
1778785739.35958791,80544436,1,3.46240234375,587.5523681640625,94462.3046875,30.76,2.3450851440429688,80544,0.0,28.02182960510254,1,94462.3046875
1778785739.45954800,80644396,0,3.81842041015625,587.9083862304688,94459.53125,30.76,2.4228286743164062,80644,0.0,28.02182960510254,1,94459.53125
1778785739.45954800,80644396,1,3.81500244140625,587.9049682617188,94458.3046875,30.76,2.4228286743164062,80644,0.0,28.02182960510254,1,94458.3046875
1778785739.55950785,80744356,0,4.06793212890625,588.1578979492188,94456.6953125,30.76,2.4754714965820312,80744,0.0,28.02182960510254,1,94456.6953125
1778785739.55950785,80744356,1,3.96539306640625,588.0553588867188,94456.6015625,30.76,2.4754714965820312,80744,0.0,28.02182960510254,1,94456.6015625
1778785739.65946794,80844316,0,4.3238525390625,588.413818359375,94453.7890625,30.76,2.5032997131347656,80844,0.0,28.02182960510254,1,94453.7890625
1778785739.65946794,80844316,1,4.3975830078125,588.487548828125,94451.6953125,30.76,2.5032997131347656,80844,0.0,28.02182960510254,1,94451.6953125
1778785739.75942802,80944276,0,4.57391357421875,588.6638793945312,94450.953125,30.76,2.5162124633789062,80944,0.0,28.02182960510254,1,94450.953125
1778785739.75942802,80944276,1,4.28875732421875,588.3787231445312,94452.921875,30.76,2.5162124633789062,80944,0.0,28.02182960510254,1,94452.921875
1778785739.85938787,81044236,0,4.823974609375,588.9139404296875,94448.125,30.76,2.5217628479003906,81044,0.0,28.02182960510254,1,94448.125
1778785739.85938787,81044236,1,4.768310546875,588.8582763671875,94447.4921875,30.76,2.5217628479003906,81044,0.0,28.02182960510254,1,94447.4921875
1778785739.95934796,81144196,0,5.076904296875,589.1668701171875,94445.2578125,30.76,2.5198745727539062,81144,0.0,28.02182960510254,1,94445.2578125
1778785739.95934796,81144196,1,4.879638671875,588.9696044921875,94446.21875,30.76,2.5198745727539062,81144,0.0,28.02182960510254,1,94446.21875
1778785740.05930781,81244156,0,5.33575439453125,589.4257202148438,94442.3125,30.76,2.516822576522827,81244,0.0,28.02182960510254,1,94442.3125
1778785740.05930781,81244156,1,5.17999267578125,589.2699584960938,94442.8203125,30.76,2.516822576522827,81244,0.0,28.02182960510254,1,94442.8203125
1778785740.15926790,81344116,0,5.5828857421875,589.6728515625,94439.515625,30.76,2.5242230892181396,81344,0.0,28.02182960510254,1,94439.515625
1778785740.15926790,81344116,1,5.2855224609375,589.37548828125,94441.609375,30.76,2.5242230892181396,81344,0.0,28.02182960510254,1,94441.609375
1778785740.25922799,81444076,0,5.83880615234375,589.9287719726562,94436.609375,30.76,2.5342941284179688,81444,0.0,28.02182960510254,1,94436.609375
1778785740.25922799,81444076,1,5.5560302734375,589.64599609375,94438.5390625,30.76,2.5342941284179688,81444,0.0,28.02182960510254,1,94438.5390625
1778785740.35918784,81544036,0,6.07659912109375,590.1665649414062,94433.8984375,30.76,2.5287246704101562,81544,0.0,28.02182960510254,1,94433.8984375
1778785740.35918784,81544036,1,6.12408447265625,590.2140502929688,94432.1015625,30.76,2.5287246704101562,81544,0.0,28.02182960510254,1,94432.1015625
1778785740.45998096,81644829,0,6.32672119140625,590.4166870117188,94431.0703125,30.76,2.5052452087402344,81644,0.0,28.02182960510254,1,94431.0703125
1778785740.45998096,81644829,1,6.28863525390625,590.3786010742188,94430.234375,30.76,2.5052452087402344,81644,0.0,28.02182960510254,1,94430.234375
1778785740.55994081,81744789,0,6.57379150390625,590.6637573242188,94428.265625,30.76,2.4779129028320312,81744,0.0,28.02182960510254,1,94428.265625
1778785740.55994081,81744789,1,6.41510009765625,590.5050659179688,94428.796875,30.76,2.4779129028320312,81744,0.0,28.02182960510254,1,94428.796875
1778785740.65990090,81844749,0,6.8238525390625,590.913818359375,94425.4296875,30.76,2.4660303592681885,81844,0.0,28.02182960510254,1,94425.4296875
1778785740.65990090,81844749,1,6.53863525390625,590.6286010742188,94427.3984375,30.76,2.4660303592681885,81844,0.0,28.02182960510254,1,94427.3984375
1778785740.75986099,81944709,0,7.0679931640625,591.157958984375,94422.6640625,30.76,2.472266912460327,81944,0.0,28.02182960510254,1,94422.6640625
1778785740.75986099,81944709,1,6.8795166015625,590.969482421875,94423.53125,30.76,2.472266912460327,81944,0.0,28.02182960510254,1,94423.53125
1778785740.85982084,82044669,0,7.318115234375,591.4080810546875,94419.828125,30.76,2.4782943725585938,82044,0.0,28.02182960510254,1,94419.828125
1778785740.85982084,82044669,1,7.10028076171875,591.1902465820312,94421.03125,30.76,2.4782943725585938,82044,0.0,28.02182960510254,1,94421.03125
1778785740.95978093,82144629,0,7.555908203125,591.6458740234375,94417.125,30.76,2.4737167358398438,82144,0.0,28.02182960510254,1,94417.125
1778785740.95978093,82144629,1,7.520751953125,591.6107177734375,94416.2578125,30.76,2.4737167358398438,82144,0.0,28.02182960510254,1,94416.2578125
1778785741.05974102,82244589,0,7.80596923828125,591.8959350585938,94414.2890625,30.76,2.4621963500976562,82244,0.0,28.02182960510254,1,94414.2890625
1778785741.05974102,82244589,1,7.497314453125,591.5872802734375,94416.5234375,30.76,2.4621963500976562,82244,0.0,28.02182960510254,1,94416.5234375
1778785741.15970087,82344549,0,8.05303955078125,592.1430053710938,94411.4921875,30.76,2.4522783756256104,82344,0.0,28.02182960510254,1,94411.4921875
1778785741.15970087,82344549,1,8.0677490234375,592.15771484375,94410.046875,30.76,2.4522783756256104,82344,0.0,28.02182960510254,1,94410.046875
1778785741.25966096,82444509,0,8.29730224609375,592.3872680664062,94408.71875,30.76,2.4540328979492188,82444,0.0,28.02182960510254,1,94408.71875
1778785741.25966096,82444509,1,8.32366943359375,592.4136352539062,94407.1484375,30.76,2.4540328979492188,82444,0.0,28.02182960510254,1,94407.1484375
1778785741.35962105,82544469,0,8.54730224609375,592.6372680664062,94405.890625,30.76,2.4630355834960938,82544,0.0,28.02182960510254,1,94405.890625
1778785741.35962105,82544469,1,8.48236083984375,592.5723266601562,94405.3515625,30.76,2.4630355834960938,82544,0.0,28.02182960510254,1,94405.3515625
1778785741.45958090,82644429,0,8.78515625,592.8751220703125,94403.1796875,30.76,2.4654006958007812,82644,0.0,28.02182960510254,1,94403.1796875
1778785741.45958090,82644429,1,8.685546875,592.7755126953125,94403.046875,30.76,2.4654006958007812,82644,0.0,28.02182960510254,1,94403.046875
1778785741.55954099,82744389,0,9.03521728515625,593.1251831054688,94400.3515625,30.76,2.4585533142089844,82744,0.0,28.02182960510254,1,94400.3515625
1778785741.55954099,82744389,1,9.0234375,593.1134033203125,94399.21875,30.75,2.4585533142089844,82744,0.0,28.02182960510254,1,94399.21875
1778785741.65950084,82844349,0,9.2735595703125,593.363525390625,94397.6484375,30.76,2.448615789413452,82844,0.0,28.02182960510254,1,94397.6484375
1778785741.65950084,82844349,1,9.2852783203125,593.375244140625,94396.2421875,30.75,2.448615789413452,82844,0.0,28.02182960510254,1,94396.2421875
1778785741.75946093,82944309,0,9.5235595703125,593.613525390625,94394.8125,30.75,2.4422261714935303,82944,0.0,28.02182960510254,1,94394.8125
1778785741.75946093,82944309,1,9.4527587890625,593.542724609375,94394.34375,30.75,2.4422261714935303,82944,0.0,28.02182960510254,1,94394.34375
1778785741.85942101,83044269,0,9.77655029296875,593.8665161132812,94391.9375,30.75,2.4457168579101562,83044,0.0,28.02182960510254,1,94391.9375
1778785741.85942101,83044269,1,9.4820556640625,593.572021484375,94394.0078125,30.76,2.4457168579101562,83044,0.0,28.02182960510254,1,94394.0078125
1778785741.95938087,83144229,0,10.01776123046875,594.1077270507812,94389.2109375,30.75,2.4617960453033447,83144,0.0,28.02182960510254,1,94389.2109375
1778785741.95938087,83144229,1,9.73504638671875,593.8250122070312,94391.1484375,30.76,2.4617960453033447,83144,0.0,28.02182960510254,1,94391.1484375
1778785742.05934095,83244189,0,10.264404296875,594.3543701171875,94386.3984375,30.75,2.476367950439453,83244,0.0,28.02182960510254,1,94386.3984375
1778785742.05934095,83244189,1,10.32647705078125,594.4164428710938,94384.4453125,30.75,2.476367950439453,83244,0.0,28.02182960510254,1,94384.4453125
1778785742.15930104,83344149,0,10.51446533203125,594.6044311523438,94383.5703125,30.75,2.473011016845703,83344,0.0,28.02182960510254,1,94383.5703125
1778785742.15930104,83344149,1,10.30010986328125,594.3900756835938,94384.734375,30.75,2.473011016845703,83344,0.0,28.02182960510254,1,94384.734375
1778785742.25926089,83444109,0,10.7674560546875,594.857421875,94380.703125,30.75,2.4677467346191406,83444,0.0,28.02182960510254,1,94380.703125
1778785742.25926089,83444109,1,10.7176513671875,594.8076171875,94380.0078125,30.75,2.4677467346191406,83444,0.0,28.02182960510254,1,94380.0078125
1778785742.35922098,83544069,0,11.0174560546875,595.107421875,94377.8671875,30.75,2.4815750122070312,83544,0.0,28.02182960510254,1,94377.8671875
1778785742.35922098,83544069,1,11.09368896484375,595.1836547851562,94375.734375,30.75,2.4815750122070312,83544,0.0,28.02182960510254,1,94375.734375
1778785742.45918083,83644029,0,11.26458740234375,595.3545532226562,94375.0703125,30.75,2.5006484985351562,83644,0.0,28.02182960510254,1,94375.0703125
1778785742.45918083,83644029,1,11.11761474609375,595.2075805664062,94375.46875,30.75,2.5006484985351562,83644,0.0,28.02182960510254,1,94375.46875
1778785742.55997396,83744822,0,11.505859375,595.5958251953125,94372.3359375,30.75,2.501182794570923,83744,0.0,28.02182960510254,1,94372.3359375
1778785742.55997396,83744822,1,11.2998046875,595.3897705078125,94373.3984375,30.75,2.501182794570923,83744,0.0,28.02182960510254,1,94373.3984375
1778785742.65993404,83844782,0,11.75592041015625,595.8458862304688,94369.5,30.75,2.4821090698242188,83844,0.0,28.02182960510254,1,94369.5
1778785742.65993404,83844782,1,11.58502197265625,595.6749877929688,94370.1640625,30.75,2.4821090698242188,83844,0.0,28.02182960510254,1,94370.1640625
1778785742.75989389,83944742,0,11.9996337890625,596.089599609375,94366.734375,30.75,2.4628257751464844,83944,0.0,28.02182960510254,1,94366.734375
1778785742.75989389,83944742,1,11.9234619140625,596.013427734375,94366.328125,30.75,2.4628257751464844,83944,0.0,28.02182960510254,1,94366.328125
1778785742.85985398,84044702,0,12.23211669921875,596.3220825195312,94364.09375,30.75,2.4531362056732178,84044,0.0,28.02182960510254,1,94364.09375
1778785742.85985398,84044702,1,11.9674072265625,596.057373046875,94365.8359375,30.75,2.4531362056732178,84044,0.0,28.02182960510254,1,94365.8359375
1778785742.95981383,84144662,0,12.46746826171875,596.5574340820312,94361.4296875,30.75,2.434063196182251,84144,0.0,28.02182960510254,1,94361.4296875
1778785742.95981383,84144662,1,12.34686279296875,596.4368286132812,94361.5234375,30.75,2.434063196182251,84144,0.0,28.02182960510254,1,94361.5234375
1778785743.05977392,84244622,0,12.684814453125,596.7747802734375,94358.9609375,30.75,2.3898887634277344,84244,0.0,28.02182960510254,1,94358.9609375
1778785743.05977392,84244622,1,12.39373779296875,596.4837036132812,94360.9921875,30.75,2.3898887634277344,84244,0.0,28.02182960510254,1,94360.9921875
1778785743.15973401,84344582,0,12.89678955078125,596.9867553710938,94356.5546875,30.75,2.3267745971679688,84344,0.0,28.02182960510254,1,94356.5546875
1778785743.15973401,84344582,1,12.614501953125,596.7044677734375,94358.4921875,30.75,2.3267745971679688,84344,0.0,28.02182960510254,1,94358.4921875
1778785743.25969386,84444542,0,13.09649658203125,597.1864624023438,94354.2890625,30.75,2.2477152347564697,84444,0.0,28.02182960510254,1,94354.2890625
1778785743.25969386,84444542,1,12.83184814453125,596.9218139648438,94356.0234375,30.75,2.2477152347564697,84444,0.0,28.02182960510254,1,94356.0234375
1778785743.35965395,84544502,0,13.2850341796875,597.375,94352.1640625,30.75,2.1529769897460938,84544,0.0,28.02182960510254,1,94352.1640625
1778785743.35965395,84544502,1,13.03204345703125,597.1220092773438,94353.7578125,30.75,2.1529769897460938,84544,0.0,28.02182960510254,1,94353.7578125
1778785743.45961404,84644462,0,13.46429443359375,597.5542602539062,94350.125,30.75,2.0502660274505615,84644,0.0,28.02182960510254,1,94350.125
1778785743.45961404,84644462,1,13.54095458984375,597.6309204101562,94347.984375,30.75,2.0502660274505615,84644,0.0,28.02182960510254,1,94347.984375
1778785743.55957389,84744422,0,13.63763427734375,597.7276000976562,94348.15625,30.75,1.9466590881347656,84744,0.0,28.02182960510254,1,94348.15625
1778785743.55957389,84744422,1,13.4495849609375,597.53955078125,94349.0234375,30.75,1.9466590881347656,84744,0.0,28.02182960510254,1,94349.0234375
1778785743.65953398,84844382,0,13.79681396484375,597.8867797851562,94346.359375,30.75,1.848239779472351,84844,0.0,28.02182960510254,1,94346.359375
1778785743.65953398,84844382,1,13.58782958984375,597.6777954101562,94347.4609375,30.75,1.848239779472351,84844,0.0,28.02182960510254,1,94347.4609375
1778785743.75949383,84944342,0,13.94677734375,598.0367431640625,94344.6640625,30.75,1.7544554471969604,84944,0.0,28.02182960510254,1,94344.6640625
1778785743.75949383,84944342,1,13.71728515625,597.8072509765625,94345.984375,30.75,1.7544554471969604,84944,0.0,28.02182960510254,1,94345.984375
1778785743.85945392,85044302,0,14.0732421875,598.1632080078125,94343.21875,30.75,1.6519737243652344,85044,0.0,28.02182960510254,1,94343.21875
1778785743.85945392,85044302,1,13.80267333984375,597.8926391601562,94345.0234375,30.75,1.6519737243652344,85044,0.0,28.02182960510254,1,94345.0234375
1778785743.95941401,85144262,0,14.20556640625,598.2955322265625,94341.7265625,30.75,1.5318869352340698,85144,0.0,28.02182960510254,1,94341.7265625
1778785743.95941401,85144262,1,13.94384765625,598.0338134765625,94343.421875,30.75,1.5318869352340698,85144,0.0,28.02182960510254,1,94343.421875
1778785744.05937386,85244222,0,14.31744384765625,598.4074096679688,94340.4609375,30.75,1.408443570137024,85244,0.0,28.02182960510254,1,94340.4609375
1778785744.05937386,85244222,1,14.27593994140625,598.3659057617188,94339.65625,30.75,1.408443570137024,85244,0.0,28.02182960510254,1,94339.65625
1778785744.15933394,85344182,0,14.4171142578125,598.507080078125,94339.3203125,30.75,1.298732876777649,85344,0.0,28.02182960510254,1,94339.3203125
1778785744.15933394,85344182,1,14.4552001953125,598.545166015625,94337.6171875,30.75,1.298732876777649,85344,0.0,28.02182960510254,1,94337.6171875
1778785744.25929403,85444142,0,14.51422119140625,598.6041870117188,94338.21875,30.76,1.1936758756637573,85444,0.0,28.02182960510254,1,94338.21875
1778785744.25929403,85444142,1,14.5728759765625,598.662841796875,94336.28125,30.75,1.1936758756637573,85444,0.0,28.02182960510254,1,94336.28125
1778785744.35925388,85544102,0,14.59674072265625,598.6867065429688,94337.2890625,30.76,1.0848808288574219,85544,0.0,28.02182960510254,1,94337.2890625
1778785744.35925388,85544102,1,14.5875244140625,598.677490234375,94336.125,30.76,1.0848808288574219,85544,0.0,28.02182960510254,1,94336.125
1778785744.45921397,85644062,0,14.66705322265625,598.7570190429688,94336.484375,30.76,0.9819983839988708,85644,0.0,28.02182960510254,1,94336.484375
1778785744.45921397,85644062,1,14.39361572265625,598.4835815429688,94338.3203125,30.76,0.9819983839988708,85644,0.0,28.02182960510254,1,94338.3203125
1778785744.56000686,85744855,0,14.73504638671875,598.8250122070312,94335.7265625,30.76,0.8831405639648438,85744,0.0,28.02182960510254,1,94335.7265625
1778785744.56000686,85744855,1,14.7554931640625,598.845458984375,94334.21875,30.76,0.8831405639648438,85744,0.0,28.02182960510254,1,94334.21875
1778785744.65996695,85844815,0,14.78778076171875,598.8777465820312,94335.1171875,30.76,0.7831954956054688,85844,0.0,28.02182960510254,1,94335.1171875
1778785744.65996695,85844815,1,14.62322998046875,598.7131958007812,94335.7265625,30.76,0.7831954956054688,85844,0.0,28.02182960510254,1,94335.7265625
1778785744.75992703,85944775,0,14.82586669921875,598.9158325195312,94334.6875,30.76,0.6857872605323792,85944,0.0,28.02182960510254,1,94334.6875
1778785744.75992703,85944775,1,14.5963134765625,598.686279296875,94336.0234375,30.76,0.6857872605323792,85944,0.0,28.02182960510254,1,94336.0234375
1778785744.85988688,86044735,0,14.86444091796875,598.9544067382812,94334.25,30.76,0.5844879150390625,86044,0.0,28.02182960510254,1,94334.25
1778785744.85988688,86044735,1,14.74676513671875,598.8367309570312,94334.328125,30.76,0.5844879150390625,86044,0.0,28.02182960510254,1,94334.328125
1778785744.95984697,86144695,0,14.88787841796875,598.9778442382812,94333.984375,30.76,0.47962188720703125,86144,0.0,28.02182960510254,1,94333.984375
1778785744.95984697,86144695,1,14.7315673828125,598.821533203125,94334.484375,30.76,0.47962188720703125,86144,0.0,28.02182960510254,1,94334.484375
1778785745.05980682,86244655,0,14.89666748046875,598.9866333007812,94333.890625,30.76,0.38257598876953125,86244,0.0,28.02182960510254,1,94333.890625
1778785745.05980682,86244655,1,14.5963134765625,598.686279296875,94336.0234375,30.76,0.38257598876953125,86244,0.0,28.02182960510254,1,94336.0234375
1778785745.15976691,86344615,0,14.90545654296875,598.9954223632812,94333.78125,30.76,0.2862548828125,86344,0.0,28.02182960510254,1,94333.78125
1778785745.15976691,86344615,1,14.61151123046875,598.7014770507812,94335.859375,30.76,0.2862548828125,86344,0.0,28.02182960510254,1,94335.859375
1778785745.25972700,86444575,0,14.90545654296875,598.9954223632812,94333.78125,30.76,0.186614990234375,86444,0.0,28.02182960510254,1,94333.78125
1778785745.25972700,86444575,1,14.94354248046875,599.0335083007812,94332.09375,30.76,0.186614990234375,86444,0.0,28.02182960510254,1,94332.09375
1778785745.35968685,86544535,0,14.90545654296875,598.9954223632812,94333.78125,30.77,0.103607177734375,86544,0.0,28.02182960510254,1,94333.78125
1778785745.35968685,86544535,1,14.69061279296875,598.7805786132812,94334.9609375,30.77,0.103607177734375,86544,0.0,28.02182960510254,1,94334.9609375
1778785745.45964694,86644495,0,14.89666748046875,598.9866333007812,94333.890625,30.77,0.0457763709127903,86644,0.0,28.02182960510254,1,94333.890625
1778785745.45964694,86644495,1,14.7081298828125,598.798095703125,94334.7578125,30.77,0.0457763709127903,86644,0.0,28.02182960510254,1,94334.7578125
1778785745.55960703,86744455,0,14.89666748046875,598.9866333007812,94333.890625,30.77,0.00274658203125,86744,0.0,28.02182960510254,1,94333.890625
1778785745.55960703,86744455,1,14.89373779296875,598.9837036132812,94332.6484375,30.77,0.00274658203125,86744,0.0,28.02182960510254,1,94332.6484375
1778785745.65956688,86844415,0,14.88787841796875,598.9778442382812,94333.984375,30.77,-0.0274658203125,86844,0.0,28.02182960510254,1,94333.984375
1778785745.65956688,86844415,1,14.69940185546875,598.7893676757812,94334.8515625,30.77,-0.0274658203125,86844,0.0,28.02182960510254,1,94334.8515625
1778785745.75952697,86944375,0,14.88787841796875,598.9778442382812,94333.984375,30.77,-0.0411987341940403,86944,0.0,28.02182960510254,1,94333.984375
1778785745.75952697,86944375,1,14.96697998046875,599.0569458007812,94331.828125,30.77,-0.0411987341940403,86944,0.0,28.02182960510254,1,94331.828125
1778785745.85948682,87044335,0,14.87615966796875,598.9661254882812,94334.125,30.77,-0.04486083984375,87044,0.0,28.02182960510254,1,94334.125
1778785745.85948682,87044335,1,14.6612548828125,598.751220703125,94335.2890625,30.77,-0.04486083984375,87044,0.0,28.02182960510254,1,94335.2890625
1778785745.95944691,87144295,0,14.87615966796875,598.9661254882812,94334.125,30.77,-0.0485229454934597,87144,0.0,28.02182960510254,1,94334.125
1778785745.95944691,87144295,1,14.64666748046875,598.7366333007812,94335.4609375,30.77,-0.0485229454934597,87144,0.0,28.02182960510254,1,94335.4609375
1778785746.05940700,87244255,0,14.87615966796875,598.9661254882812,94334.125,30.77,-0.0503540076315403,87244,0.0,28.02182960510254,1,94334.125
1778785746.05940700,87244255,1,14.95233154296875,599.0422973632812,94331.984375,30.77,-0.0503540076315403,87244,0.0,28.02182960510254,1,94331.984375
1778785746.15936685,87344215,0,14.87615966796875,598.9661254882812,94334.125,30.77,-0.0393676795065403,87344,0.0,28.02182960510254,1,94334.125
1778785746.15936685,87344215,1,14.74676513671875,598.8367309570312,94334.328125,30.77,-0.0393676795065403,87344,0.0,28.02182960510254,1,94334.328125
1778785746.25932693,87444175,0,14.87615966796875,598.9661254882812,94334.125,30.78,-0.01831054501235485,87444,0.0,28.02182960510254,1,94334.125
1778785746.25932693,87444175,1,14.91424560546875,599.0042114257812,94332.421875,30.78,-0.01831054501235485,87444,0.0,28.02182960510254,1,94332.421875
1778785746.35928702,87544135,0,14.87615966796875,598.9661254882812,94334.125,30.78,-0.003662109375,87544,0.0,28.02182960510254,1,94334.125
1778785746.35928702,87544135,1,14.71697998046875,598.8069458007812,94334.65625,30.78,-0.003662109375,87544,0.0,28.02182960510254,1,94334.65625
1778785746.45924687,87644095,0,14.87615966796875,598.9661254882812,94334.125,30.78,0.0,87644,0.0,28.02182960510254,1,94334.125
1778785746.45924687,87644095,1,14.93475341796875,599.0247192382812,94332.1875,30.78,0.0,87644,0.0,28.02182960510254,1,94332.1875
1778785746.55920696,87744055,0,14.88787841796875,598.9778442382812,94333.984375,30.78,0.003662109375,87744,0.0,28.02182960510254,1,94333.984375
1778785746.55920696,87744055,1,14.71405029296875,598.8040161132812,94334.6875,30.78,0.003662109375,87744,0.0,28.02182960510254,1,94334.6875
1778785746.65999985,87844848,0,14.88787841796875,598.9778442382812,94333.984375,30.78,0.01831054501235485,87844,0.0,28.02182960510254,1,94333.984375
1778785746.65999985,87844848,1,14.62322998046875,598.7131958007812,94335.7265625,30.78,0.01831054501235485,87844,0.0,28.02182960510254,1,94335.7265625
1778785746.75995994,87944808,0,14.89666748046875,598.9866333007812,94333.890625,30.78,0.0393676795065403,87944,0.0,28.02182960510254,1,94333.890625
1778785746.75995994,87944808,1,14.65838623046875,598.7483520507812,94335.3203125,30.78,0.0393676795065403,87944,0.0,28.02182960510254,1,94335.3203125
1778785746.85992002,88044768,0,14.89666748046875,598.9866333007812,94333.890625,30.78,0.0503540076315403,88044,0.0,28.02182960510254,1,94333.890625
1778785746.85992002,88044768,1,14.97576904296875,599.0657348632812,94331.71875,30.78,0.0503540076315403,88044,0.0,28.02182960510254,1,94331.71875
1778785746.95987988,88144728,0,14.89666748046875,598.9866333007812,94333.890625,30.78,0.0457763671875,88144,0.0,28.02182960510254,1,94333.890625
1778785746.95987988,88144728,1,14.77020263671875,598.8601684570312,94334.0625,30.78,0.0457763671875,88144,0.0,28.02182960510254,1,94334.0625
1778785747.05983996,88244688,0,14.90545654296875,598.9954223632812,94333.78125,30.78,0.03387451171875,88244,0.0,28.02182960510254,1,94333.78125
1778785747.05983996,88244688,1,14.94940185546875,599.0393676757812,94332.0234375,30.78,0.03387451171875,88244,0.0,28.02182960510254,1,94332.0234375
1778785747.15979981,88344648,0,14.90545654296875,598.9954223632812,94333.78125,30.79,0.02746582217514515,88344,0.0,28.02182960510254,1,94333.78125
1778785747.15979981,88344648,1,14.6524658203125,598.742431640625,94335.3828125,30.79,0.02746582217514515,88344,0.0,28.02182960510254,1,94335.3828125
1778785747.25975990,88444608,0,14.91424560546875,599.0042114257812,94333.6875,30.79,0.032958984375,88444,0.0,28.02182960510254,1,94333.6875
1778785747.25975990,88444608,1,14.98162841796875,599.0715942382812,94331.65625,30.79,0.032958984375,88444,0.0,28.02182960510254,1,94331.65625
1778785747.35971999,88544568,0,14.91424560546875,599.0042114257812,94333.6875,30.79,0.0411987341940403,88544,0.0,28.02182960510254,1,94333.6875
1778785747.35971999,88544568,1,14.84051513671875,598.9304809570312,94333.2578125,30.79,0.0411987341940403,88544,0.0,28.02182960510254,1,94333.2578125
1778785747.45967984,88644528,0,14.92303466796875,599.0130004882812,94333.5859375,30.79,0.0439453125,88644,0.0,28.02182960510254,1,94333.5859375
1778785747.45967984,88644528,1,14.7315673828125,598.821533203125,94334.484375,30.79,0.0439453125,88644,0.0,28.02182960510254,1,94334.484375
1778785747.55963993,88744488,0,14.92303466796875,599.0130004882812,94333.5859375,30.79,0.0439453125,88744,0.0,28.02182960510254,1,94333.5859375
1778785747.55963993,88744488,1,14.91131591796875,599.0012817382812,94332.453125,30.79,0.0439453125,88744,0.0,28.02182960510254,1,94332.453125
1778785747.65960002,88844448,0,14.92303466796875,599.0130004882812,94333.5859375,30.79,0.0411987341940403,88844,0.0,28.02182960510254,1,94333.5859375
1778785747.65960002,88844448,1,14.99627685546875,599.0862426757812,94331.484375,30.79,0.0411987341940403,88844,0.0,28.02182960510254,1,94331.484375
1778785747.75955987,88944408,0,14.92303466796875,599.0130004882812,94333.5859375,30.79,0.03021240234375,88944,0.0,28.02182960510254,1,94333.5859375
1778785747.75955987,88944408,1,14.77606201171875,598.8660278320312,94333.984375,30.79,0.03021240234375,88944,0.0,28.02182960510254,1,94333.984375
1778785747.85951996,89044368,0,14.93475341796875,599.0247192382812,94333.453125,30.79,0.01739501953125,89044,0.0,28.02182960510254,1,94333.453125
1778785747.85951996,89044368,1,14.93768310546875,599.0276489257812,94332.15625,30.79,0.01739501953125,89044,0.0,28.02182960510254,1,94332.15625
1778785747.95948005,89144328,0,14.93475341796875,599.0247192382812,94333.453125,30.79,0.02105712890625,89144,0.0,28.02182960510254,1,94333.453125
1778785747.95948005,89144328,1,14.72283935546875,598.8128051757812,94334.59375,30.79,0.02105712890625,89144,0.0,28.02182960510254,1,94334.59375
1778785748.05943990,89244288,0,14.93475341796875,599.0247192382812,94333.453125,30.79,0.03662109375,89244,0.0,28.02182960510254,1,94333.453125
1778785748.05943990,89244288,1,14.97283935546875,599.0628051757812,94331.75,30.79,0.03662109375,89244,0.0,28.02182960510254,1,94331.75
1778785748.15939999,89344248,0,14.93475341796875,599.0247192382812,94333.453125,30.8,0.03662109375,89344,0.0,28.02182960510254,1,94333.453125
1778785748.15939999,89344248,1,14.86395263671875,598.9539184570312,94332.9921875,30.8,0.03662109375,89344,0.0,28.02182960510254,1,94332.9921875
1778785748.25935984,89444208,0,14.94647216796875,599.0364379882812,94333.3203125,30.8,0.02197265438735485,89444,0.0,28.02182960510254,1,94333.3203125
1778785748.25935984,89444208,1,14.95233154296875,599.0422973632812,94331.984375,30.8,0.02197265438735485,89444,0.0,28.02182960510254,1,94331.984375
1778785748.35931993,89544168,0,14.94647216796875,599.0364379882812,94333.3203125,30.8,0.02197265438735485,89544,0.0,28.02182960510254,1,94333.3203125
1778785748.35931993,89544168,1,14.99041748046875,599.0803833007812,94331.546875,30.8,0.02197265438735485,89544,0.0,28.02182960510254,1,94331.546875
1778785748.45928001,89644128,0,14.94647216796875,599.0364379882812,94333.3203125,30.8,0.03662109375,89644,0.0,28.02182960510254,1,94333.3203125
1778785748.45928001,89644128,1,14.88201904296875,598.9719848632812,94332.7890625,30.8,0.03662109375,89644,0.0,28.02182960510254,1,94332.7890625
1778785748.55923986,89744088,0,14.94647216796875,599.0364379882812,94333.3203125,30.8,0.03662109375,89744,0.0,28.02182960510254,1,94333.3203125
1778785748.55923986,89744088,1,14.63494873046875,598.7249145507812,94335.5859375,30.8,0.03662109375,89744,0.0,28.02182960510254,1,94335.5859375
1778785748.65919995,89844048,0,14.94647216796875,599.0364379882812,94333.3203125,30.8,0.01831054501235485,89844,0.0,28.02182960510254,1,94333.3203125
1778785748.65919995,89844048,1,14.80828857421875,598.8982543945312,94333.625,30.8,0.01831054501235485,89844,0.0,28.02182960510254,1,94333.625
1778785748.75999284,89944841,0,14.95819091796875,599.0481567382812,94333.1953125,30.8,0.00732421875,89944,0.0,28.02182960510254,1,94333.1953125
1778785748.75999284,89944841,1,14.81707763671875,598.9070434570312,94333.5234375,30.8,0.00732421875,89944,0.0,28.02182960510254,1,94333.5234375
1778785748.85995293,90044801,0,14.95819091796875,599.0481567382812,94333.1953125,30.8,0.01831054501235485,90044,0.0,28.02182960510254,1,94333.1953125
1778785748.85995293,90044801,1,14.88201904296875,598.9719848632812,94332.7890625,30.8,0.01831054501235485,90044,0.0,28.02182960510254,1,94332.7890625
1778785748.95991302,90144761,0,14.95819091796875,599.0481567382812,94333.1953125,30.8,0.03662109375,90144,0.0,28.02182960510254,1,94333.1953125
1778785748.95991302,90144761,1,15.02899169921875,599.1189575195312,94331.125,30.8,0.03662109375,90144,0.0,28.02182960510254,1,94331.125
1778785749.05987287,90244721,0,14.95819091796875,599.0481567382812,94333.1953125,30.8,0.03662109375,90244,0.0,28.02182960510254,1,94333.1953125
1778785749.05987287,90244721,1,14.83172607421875,598.9216918945312,94333.3515625,30.81,0.03662109375,90244,0.0,28.02182960510254,1,94333.3515625
1778785749.15983295,90344681,0,14.95819091796875,599.0481567382812,94333.1953125,30.81,0.01831054501235485,90344,0.0,28.02182960510254,1,94333.1953125
1778785749.15983295,90344681,1,14.90252685546875,598.9924926757812,94332.5546875,30.81,0.01831054501235485,90344,0.0,28.02182960510254,1,94332.5546875
1778785749.25979304,90444641,0,14.95819091796875,599.0481567382812,94333.1953125,30.81,0.003662109375,90444,0.0,28.02182960510254,1,94333.1953125
1778785749.25979304,90444641,1,14.6846923828125,598.774658203125,94335.0234375,30.81,0.003662109375,90444,0.0,28.02182960510254,1,94335.0234375
1778785749.35975289,90544601,0,14.95819091796875,599.0481567382812,94333.1953125,30.81,0.0,90544,0.0,28.02182960510254,1,94333.1953125
1778785749.35975289,90544601,1,14.84930419921875,598.9392700195312,94333.15625,30.81,0.0,90544,0.0,28.02182960510254,1,94333.15625
1778785749.45971298,90644561,0,14.96697998046875,599.0569458007812,94333.0859375,30.81,0.00274658203125,90644,0.0,28.02182960510254,1,94333.0859375
1778785749.45971298,90644561,1,14.88787841796875,598.9778442382812,94332.7265625,30.81,0.00274658203125,90644,0.0,28.02182960510254,1,94332.7265625
1778785749.55967283,90744521,0,14.96697998046875,599.0569458007812,94333.0859375,30.81,0.013732911087572575,90744,0.0,28.02182960510254,1,94333.0859375
1778785749.55967283,90744521,1,14.99627685546875,599.0862426757812,94331.484375,30.81,0.013732911087572575,90744,0.0,28.02182960510254,1,94331.484375
1778785749.65963292,90844481,0,14.96697998046875,599.0569458007812,94333.0859375,30.81,0.0274658203125,90844,0.0,28.02182960510254,1,94333.0859375
1778785749.65963292,90844481,1,15.05242919921875,599.1423950195312,94330.8515625,30.81,0.0274658203125,90844,0.0,28.02182960510254,1,94330.8515625
1778785749.75959301,90944441,0,14.96697998046875,599.0569458007812,94333.0859375,30.81,0.0274658203125,90944,0.0,28.02182960510254,1,94333.0859375
1778785749.75959301,90944441,1,14.80828857421875,598.8982543945312,94333.625,30.81,0.0274658203125,90944,0.0,28.02182960510254,1,94333.625
1778785749.85955286,91044401,0,14.96697998046875,599.0569458007812,94333.0859375,30.81,0.013732911087572575,91044,0.0,28.02182960510254,1,94333.0859375
1778785749.85955286,91044401,1,14.91424560546875,599.0042114257812,94332.421875,30.81,0.013732911087572575,91044,0.0,28.02182960510254,1,94332.421875
1778785749.95951295,91144361,0,14.96697998046875,599.0569458007812,94333.0859375,30.81,0.00274658203125,91144,0.0,28.02182960510254,1,94333.0859375
1778785749.95951295,91144361,1,14.96112060546875,599.0510864257812,94331.890625,30.81,0.00274658203125,91144,0.0,28.02182960510254,1,94331.890625
1778785750.05947304,91244321,0,14.96697998046875,599.0569458007812,94333.0859375,30.81,0.0,91244,0.0,28.02182960510254,1,94333.0859375
1778785750.05947304,91244321,1,14.90252685546875,598.9924926757812,94332.5546875,30.81,0.0,91244,0.0,28.02182960510254,1,94332.5546875
1778785750.15943289,91344281,0,14.96697998046875,599.0569458007812,94333.0859375,30.82,0.0,91344,0.0,28.02182960510254,1,94333.0859375
1778785750.15943289,91344281,1,14.87274169921875,598.9627075195312,94332.8828125,30.82,0.0,91344,0.0,28.02182960510254,1,94332.8828125
1778785750.25939298,91444241,0,14.97576904296875,599.0657348632812,94332.9921875,30.82,0.00274658203125,91444,0.0,28.02182960510254,1,94332.9921875
1778785750.25939298,91444241,1,14.85516357421875,598.9451293945312,94333.0859375,30.82,0.00274658203125,91444,0.0,28.02182960510254,1,94333.0859375
1778785750.35935283,91544201,0,14.97576904296875,599.0657348632812,94332.9921875,30.82,0.013732911087572575,91544,0.0,28.02182960510254,1,94332.9921875
1778785750.35935283,91544201,1,14.95819091796875,599.0481567382812,94331.921875,30.82,0.013732911087572575,91544,0.0,28.02182960510254,1,94331.921875
1778785750.45931292,91644161,0,14.97576904296875,599.0657348632812,94332.9921875,30.82,0.0274658203125,91644,0.0,28.02182960510254,1,94332.9921875
1778785750.45931292,91644161,1,15.05535888671875,599.1453247070312,94330.8203125,30.82,0.0274658203125,91644,0.0,28.02182960510254,1,94330.8203125
1778785750.55927300,91744121,0,14.97576904296875,599.0657348632812,94332.9921875,30.82,0.0274658203125,91744,0.0,28.02182960510254,1,94332.9921875
1778785750.55927300,91744121,1,14.79364013671875,598.8836059570312,94333.78125,30.82,0.0274658203125,91744,0.0,28.02182960510254,1,94333.78125
1778785750.65923285,91844081,0,14.97576904296875,599.0657348632812,94332.9921875,30.82,0.013732911087572575,91844,0.0,28.02182960510254,1,94332.9921875
1778785750.65923285,91844081,1,14.88201904296875,598.9719848632812,94332.7890625,30.82,0.013732911087572575,91844,0.0,28.02182960510254,1,94332.7890625
1778785750.75919294,91944041,0,14.97576904296875,599.0657348632812,94332.9921875,30.82,0.00274658203125,91944,0.0,28.02182960510254,1,94332.9921875
1778785750.75919294,91944041,1,15.05535888671875,599.1453247070312,94330.8203125,30.82,0.00274658203125,91944,0.0,28.02182960510254,1,94330.8203125
1778785750.85998583,92044834,0,14.97576904296875,599.0657348632812,94332.9921875,30.82,0.0,92044,0.0,28.02182960510254,1,94332.9921875
1778785750.85998583,92044834,1,15.01434326171875,599.1043090820312,94331.2890625,30.82,0.0,92044,0.0,28.02182960510254,1,94331.2890625
1778785750.95994592,92144794,0,14.97576904296875,599.0657348632812,94332.9921875,30.82,0.0,92144,0.0,28.02182960510254,1,94332.9921875
1778785750.95994592,92144794,1,15.04656982421875,599.1365356445312,94330.921875,30.82,0.0,92144,0.0,28.02182960510254,1,94330.921875
1778785751.05990601,92244754,0,14.97576904296875,599.0657348632812,94332.9921875,30.82,0.0,92244,0.0,28.02182960510254,1,94332.9921875
