timestamp,TimeUS,I,Status,GMS,GWk,NSats,HDop,Lat,Lng,Alt,Spd,GCrs,VZ,Yaw,U
1778782973.20000005,52384038,0,6,411791200,2418,10,1.21,-35.3632621,149.1652374,584.09,0.0,0.0,0.0,0.0,1
1778782973.40075302,52584791,0,6,411791400,2418,10,1.21,-35.3632621,149.1652374,584.09,0.0,0.0,0.0,0.0,1
1778782973.60067296,52784711,0,6,411791600,2418,10,1.21,-35.3632621,149.1652374,584.09,0.0,0.0,0.0,0.0,1
1778782973.80059314,52984631,0,6,411791800,2418,10,1.21,-35.3632621,149.1652374,584.09,0.0,0.0,0.0,0.0,1
1778782974.00051308,53184551,0,6,411792000,2418,10,1.21,-35.3632621,149.1652374,584.09,0.0,0.0,0.0,0.0,1
1778782974.20043302,53384471,0,6,411792200,2418,10,1.21,-35.3632621,149.1652374,584.09,0.0,0.0,0.0,0.0,1
1778782974.40035319,53584391,0,6,411792400,2418,10,1.21,-35.3632621,149.1652374,584.09,0.0,0.0,0.0,0.0,1
1778782974.60027313,53784311,0,6,411792600,2418,10,1.21,-35.3632621,149.1652374,584.09,0.0,0.0,0.0,0.0,1
1778782974.80019307,53984231,0,6,411792800,2418,10,1.21,-35.3632621,149.1652374,584.09,0.0,0.0,0.0,0.0,1
1778782975.00011301,54184151,0,6,411793000,2418,10,1.21,-35.3632621,149.1652374,584.09,0.0,0.0,0.0,0.0,1
1778782975.20003319,54384071,0,6,411793200,2418,10,1.21,-35.3632621,149.1652374,584.09,0.0,0.0,0.0,0.0,1
1778782975.40078616,54584824,0,6,411793400,2418,10,1.21,-35.3632621,149.1652374,584.09,0.0,0.0,0.0,0.0,1
1778782975.60070610,54784744,0,6,411793600,2418,10,1.21,-35.3632621,149.1652374,584.09,0.0,0.0,0.0,0.0,1
1778782975.80062604,54984664,0,6,411793800,2418,10,1.21,-35.3632621,149.1652374,584.09,0.0,0.0,0.0,0.0,1
1778782976.00054598,55184584,0,6,411794000,2418,10,1.21,-35.3632621,149.1652374,584.09,0.0,0.0,0.0,0.0,1
1778782976.20046616,55384504,0,6,411794200,2418,10,1.21,-35.3632621,149.1652374,584.09,0.0,0.0,0.0,0.0,1
1778782976.40038610,55584424,0,6,411794400,2418,10,1.21,-35.3632621,149.1652374,584.09,0.0,0.0,0.0,0.0,1
1778782976.60030603,55784344,0,6,411794600,2418,10,1.21,-35.3632621,149.1652374,584.09,0.0,0.0,0.0,0.0,1
1778782976.80022597,55984264,0,6,411794800,2418,10,1.21,-35.3632621,149.1652374,584.09,0.0,0.0,0.0,0.0,1
1778782977.00014615,56184184,0,6,411795000,2418,10,1.21,-35.3632621,149.1652374,584.09,0.0,0.0,0.0,0.0,1
1778782977.20006609,56384104,0,6,411795200,2418,10,1.21,-35.3632621,149.1652374,584.09,0.0,0.0,0.0,0.0,1
1778782977.39998603,56584024,0,6,411795400,2418,10,1.21,-35.3632621,149.1652374,584.09,0.0,0.0,0.0,0.0,1
1778782977.60073900,56784777,0,6,411795600,2418,10,1.21,-35.3632621,149.1652374,584.09,0.0,0.0,0.0,0.0,1
1778782977.80065918,56984697,0,6,411795800,2418,10,1.21,-35.3632621,149.1652374,584.09,0.0,0.0,0.0,0.0,1
1778782978.00057912,57184617,0,6,411796000,2418,10,1.21,-35.3632621,149.1652374,584.09,0.0,0.0,0.0,0.0,1
1778782978.20049906,57384537,0,6,411796200,2418,10,1.21,-35.3632621,149.1652374,584.09,0.0,0.0,0.0,0.0,1
1778782978.40041900,57584457,0,6,411796400,2418,10,1.21,-35.3632621,149.1652374,584.09,0.0,0.0,0.0,0.0,1
1778782978.60033917,57784377,0,6,411796600,2418,10,1.21,-35.3632621,149.1652374,584.09,0.0,0.0,0.0,0.0,1
1778782978.80025911,57984297,0,6,411796800,2418,10,1.21,-35.3632621,149.1652374,584.09,0.0,0.0,0.0,0.0,1
1778782979.00017905,58184217,0,6,411797000,2418,10,1.21,-35.3632621,149.1652374,584.09,0.0,0.0,0.0,0.0,1
1778782979.20009899,58384137,0,6,411797200,2418,10,1.21,-35.3632621,149.1652374,584.09,0.0,0.0,0.0,0.0,1
1778782979.40001917,58584057,0,6,411797400,2418,10,1.21,-35.3632621,149.1652374,584.09,0.0,0.0,0.0,0.0,1
1778782979.60077214,58784810,0,6,411797600,2418,10,1.21,-35.3632621,149.1652374,584.09,0.0,0.0,0.0,0.0,1
1778782979.80069208,58984730,0,6,411797800,2418,10,1.21,-35.3632621,149.1652374,584.09,0.0,0.0,0.0,0.0,1
1778782980.00061202,59184650,0,6,411798000,2418,10,1.21,-35.3632621,149.1652374,584.09,0.0,0.0,0.0,0.0,1
1778782980.20053196,59384570,0,6,411798200,2418,10,1.21,-35.3632621,149.1652374,584.09,0.0,0.0,0.0,0.0,1
1778782980.40045214,59584490,0,6,411798400,2418,10,1.21,-35.3632621,149.1652374,584.09,0.0,0.0,0.0,0.0,1
1778782980.60037208,59784410,0,6,411798600,2418,10,1.21,-35.3632621,149.1652374,584.09,0.0,0.0,0.0,0.0,1
1778782980.80029202,59984330,0,6,411798800,2418,10,1.21,-35.3632621,149.1652374,584.09,0.0,0.0,0.0,0.0,1
1778782981.00021219,60184250,0,6,411799000,2418,10,1.21,-35.3632621,149.1652374,584.09,0.0,125.95819854736328,0.0,0.0,1
1778782981.20013213,60384170,0,6,411799200,2418,10,1.21,-35.3632621,149.1652374,584.09,0.0,127.14177703857422,0.0,0.0,1
1778782981.40005207,60584090,0,6,411799400,2418,10,1.21,-35.3632621,149.1652374,584.09,0.0,305.437255859375,0.0,0.0,1
1778782981.60080504,60784843,0,6,411799600,2418,10,1.21,-35.3632621,149.1652374,584.09,0.0,306.41424560546875,-0.003000000026077032,0.0,1
1778782981.80072498,60984763,0,6,411799800,2418,10,1.21,-35.3632621,149.1652374,584.1,0.0,306.13177490234375,-0.06599999964237213,0.0,1
1778782982.00064516,61184683,0,6,411800000,2418,10,1.21,-35.3632621,149.1652374,584.12,0.0,307.5481262207031,-0.17800000309944153,0.0,1
1778782982.20056510,61384603,0,6,411800200,2418,10,1.21,-35.3632621,149.1652374,584.17,0.0,307.5451965332031,-0.2900000214576721,0.0,1
1778782982.40048504,61584523,0,6,411800400,2418,10,1.21,-35.3632621,149.1652374,584.27,0.003000000026077032,307.04718017578125,-0.7160000205039978,0.0,1
1778782982.60040498,61784443,0,6,411800600,2418,10,1.21,-35.3632621,149.1652374,584.46,0.013000000268220901,307.2846984863281,-1.1510000228881836,0.0,1
1778782982.80032516,61984363,0,6,411800800,2418,10,1.21,-35.3632621,149.1652374,584.69,0.02800000086426735,307.3674621582031,-1.1890000104904175,0.0,1
1778782983.00024509,62184283,0,6,411801000,2418,10,1.21,-35.3632621,149.1652373,584.93,0.04100000113248825,307.37890625,-1.2350000143051147,0.0,1
1778782983.20016503,62384203,0,6,411801200,2418,10,1.21,-35.363262,149.1652372,585.2,0.04400000348687172,307.5097351074219,-1.4100000858306885,0.0,1
1778782983.40008497,62584123,0,6,411801400,2418,10,1.21,-35.363262,149.1652371,585.5,0.04000000283122063,307.91522216796875,-1.6100001335144043,0.0,1
1778782983.60000515,62784043,0,6,411801600,2418,10,1.21,-35.3632619,149.165237,585.83,0.03100000135600567,308.795166015625,-1.812000036239624,0.0,1
1778782983.80075812,62984796,0,6,411801800,2418,10,1.21,-35.3632619,149.165237,586.22,0.021000001579523087,310.996337890625,-2.0199999809265137,0.0,1
1778782984.00067806,63184716,0,6,411802000,2418,10,1.21,-35.3632619,149.165237,586.65,0.01100000087171793,317.4419860839844,-2.2280001640319824,0.0,1
1778782984.20059800,63384636,0,6,411802200,2418,10,1.21,-35.3632619,149.165237,587.12,0.004000000189989805,348.8775634765625,-2.3970000743865967,0.0,1
1778782984.40051818,63584556,0,6,411802400,2418,10,1.21,-35.3632619,149.165237,587.61,0.004000000189989805,88.97000122070312,-2.491000175476074,0.0,1
1778782984.60043812,63784476,0,6,411802600,2418,10,1.21,-35.3632619,149.165237,588.11,0.00800000037997961,109.81261444091797,-2.5250000953674316,0.0,1
1778782984.80035806,63984396,0,6,411802800,2418,10,1.21,-35.3632619,149.165237,588.61,0.01100000087171793,116.22298431396484,-2.5260000228881836,0.0,1
1778782985.00027800,64184316,0,6,411803000,2418,10,1.21,-35.3632619,149.165237,589.12,0.012000000104308128,118.53666687011719,-2.51200008392334,0.0,1
1778782985.20019817,64384236,0,6,411803200,2418,10,1.21,-35.3632619,149.165237,589.62,0.012000000104308128,118.79826354980469,-2.494000196456909,0.0,1
1778782985.40011811,64584156,0,6,411803400,2418,10,1.21,-35.3632619,149.165237,590.11,0.01100000087171793,118.70893859863281,-2.4790000915527344,0.0,1
1778782985.60003805,64784076,0,6,411803600,2418,10,1.21,-35.3632619,149.165237,590.61,0.01100000087171793,118.80550384521484,-2.4690001010894775,0.0,1
1778782985.80079103,64984829,0,6,411803800,2418,10,1.21,-35.3632619,149.165237,591.1,0.012000000104308128,120.55088806152344,-2.4630000591278076,0.0,1
1778782986.00071096,65184749,0,6,411804000,2418,10,1.21,-35.3632619,149.165237,591.59,0.013000000268220901,123.53099060058594,-2.4610002040863037,0.0,1
1778782986.20063114,65384669,0,6,411804200,2418,10,1.21,-35.3632619,149.1652371,592.09,0.01600000075995922,125.34190368652344,-2.4620001316070557,0.0,1
1778782986.40055108,65584589,0,6,411804400,2418,10,1.21,-35.3632619,149.1652372,592.58,0.01900000125169754,125.78031921386719,-2.4640002250671387,0.0,1
1778782986.60047102,65784509,0,6,411804600,2418,10,1.21,-35.3632619,149.1652372,593.07,0.02200000174343586,125.73303985595703,-2.4660000801086426,0.0,1
1778782986.80039096,65984429,0,6,411804800,2418,10,1.21,-35.3632619,149.1652372,593.56,0.02500000037252903,126.84317779541016,-2.4670000076293945,0.0,1
1778782987.00031114,66184349,0,6,411805000,2418,10,1.21,-35.3632619,149.1652373,594.06,0.027000000700354576,129.66539001464844,-2.4680001735687256,0.0,1
1778782987.20023108,66384269,0,6,411805200,2418,10,1.21,-35.363262,149.1652373,594.55,0.026000000536441803,132.3643035888672,-2.4690001010894775,0.0,1
1778782987.40015101,66584189,0,6,411805400,2418,10,1.21,-35.363262,149.1652374,595.05,0.02500000037252903,133.95367431640625,-2.4710001945495605,0.0,1
1778782987.60007119,66784109,0,6,411805600,2418,10,1.21,-35.363262,149.1652374,595.54,0.02200000174343586,135.76834106445312,-2.4590001106262207,0.0,1
1778782987.79999113,66984029,0,6,411805800,2418,10,1.21,-35.3632621,149.1652374,596.03,0.01900000125169754,138.7334442138672,-2.392000198364258,0.0,1
1778782988.00074410,67184782,0,6,411806000,2418,10,1.21,-35.3632621,149.1652375,596.49,0.017000000923871994,142.718994140625,-2.251000165939331,0.0,1
1778782988.20066404,67384702,0,6,411806200,2418,10,1.21,-35.3632621,149.1652375,596.92,0.014000000432133675,147.17359924316406,-2.065000057220459,0.0,1
1778782988.40058398,67584622,0,6,411806400,2418,10,1.21,-35.3632621,149.1652375,597.32,0.012000000104308128,151.39108276367188,-1.8550001382827759,0.0,1
1778782988.60050416,67784542,0,6,411806600,2418,10,1.21,-35.3632622,149.1652375,597.67,0.010000000707805157,155.88243103027344,-1.6390000581741333,0.0,1
1778782988.80042410,67984462,0,6,411806800,2418,10,1.21,-35.3632622,149.1652375,597.97,0.00800000037997961,161.99937438964844,-1.4220000505447388,0.0,1
1778782989.00034404,68184382,0,6,411807000,2418,10,1.21,-35.3632622,149.1652375,598.24,0.007000000216066837,170.32379150390625,-1.2100000381469727,0.0,1
1778782989.20026398,68384302,0,6,411807200,2418,10,1.21,-35.3632622,149.1652375,598.45,0.005000000353902578,179.31443786621094,-1.0040000677108765,0.0,1
1778782989.40018415,68584222,0,6,411807400,2418,10,1.21,-35.3632622,149.1652375,598.64,0.003000000026077032,190.31495666503906,-0.8030000329017639,0.0,1
1778782989.60010409,68784142,0,6,411807600,2418,10,1.21,-35.3632622,149.1652375,598.78,0.0010000000474974513,214.09780883789062,-0.6050000190734863,0.0,1
1778782989.80002403,68984062,0,6,411807800,2418,10,1.21,-35.3632622,149.1652375,598.88,0.0010000000474974513,295.8631896972656,-0.4100000262260437,0.0,1
1778782990.00077701,69184815,0,6,411808000,2418,10,1.21,-35.3632622,149.1652375,598.94,0.003000000026077032,322.9010314941406,-0.2160000056028366,0.0,1
1778782990.20069718,69384735,0,6,411808200,2418,10,1.21,-35.3632622,149.1652375,598.97,0.004000000189989805,323.36236572265625,-0.05900000408291817,0.0,1
1778782990.40061712,69584655,0,6,411808400,2418,10,1.21,-35.3632622,149.1652375,598.97,0.005000000353902578,321.7957763671875,0.024000000208616257,0.0,1
1778782990.60053706,69784575,0,6,411808600,2418,10,1.21,-35.3632622,149.1652375,598.96,0.007000000216066837,320.3457336425781,0.04700000211596489,0.0,1
1778782990.80045700,69984495,0,6,411808800,2418,10,1.21,-35.3632622,149.1652375,598.95,0.00800000037997961,318.788330078125,0.03800000250339508,0.0,1
1778782991.00037718,70184415,0,6,411809000,2418,10,1.21,-35.3632622,149.1652375,598.95,0.010000000707805157,316.6116943359375,0.01600000075995922,0.0,1
1778782991.20029712,70384335,0,6,411809200,2418,10,1.21,-35.3632622,149.1652375,598.95,0.01100000087171793,314.3815612792969,-0.007000000216066837,0.0,1
1778782991.40021706,70584255,0,6,411809400,2418,10,1.21,-35.3632622,149.1652375,598.95,0.013000000268220901,313.035400390625,-0.026000000536441803,0.0,1
1778782991.60013700,70784175,0,6,411809600,2418,10,1.21,-35.3632622,149.1652375,598.96,0.015000000596046448,312.1457214355469,-0.039000000804662704,0.0,1
1778782991.80005717,70984095,0,6,411809800,2418,10,1.21,-35.3632622,149.1652375,598.96,0.017000000923871994,311.2716369628906,-0.046000003814697266,0.0,1
1778782992.00081015,71184848,0,6,411810000,2418,10,1.21,-35.3632622,149.1652375,598.97,0.018000001087784767,310.9239501953125,-0.04800000041723251,0.0,1
1778782992.20073009,71384768,0,6,411810200,2418,10,1.21,-35.3632622,149.1652374,598.98,0.018000001087784767,311.29010009765625,-0.046000003814697266,0.0,1
1778782992.40065002,71584688,0,6,411810400,2418,10,1.21,-35.3632621,149.1652374,598.99,0.018000001087784767,311.7839660644531,-0.04100000113248825,0.0,1
1778782992.60056996,71784608,0,6,411810600,2418,10,1.21,-35.3632621,149.1652374,599.0,0.018000001087784767,312.5859680175781,-0.03400000184774399,0.0,1
1778782992.80049014,71984528,0,6,411810800,2418,10,1.21,-35.3632621,149.1652373,599.01,0.01900000125169754,314.1861572265625,-0.02800000086426735,0.0,1
1778782993.00041008,72184448,0,6,411811000,2418,10,1.21,-35.3632621,149.1652373,599.01,0.018000001087784767,315.4807434082031,-0.024000000208616257,0.0,1
1778782993.20033002,72384368,0,6,411811200,2418,10,1.21,-35.363262,149.1652373,599.02,0.017000000923871994,315.5976867675781,-0.02200000174343586,0.0,1
1778782993.40024996,72584288,0,6,411811400,2418,10,1.21,-35.363262,149.1652373,599.02,0.01600000075995922,315.60772705078125,-0.021000001579523087,0.0,1
1778782993.60017014,72784208,0,6,411811600,2418,10,1.21,-35.363262,149.1652372,599.03,0.014000000432133675,315.96551513671875,-0.020000001415610313,0.0,1
1778782993.80009007,72984128,0,6,411811800,2418,10,1.21,-35.363262,149.1652372,599.03,0.012000000104308128,315.70098876953125,-0.018000001087784767,0.0,1
1778782994.00001001,73184048,0,6,411812000,2418,10,1.21,-35.363262,149.1652372,599.03,0.010000000707805157,314.64642333984375,-0.01600000075995922,0.0,1
1778782994.20076299,73384801,0,6,411812200,2418,10,1.21,-35.363262,149.1652372,599.04,0.00800000037997961,314.0112609863281,-0.014000000432133675,0.0,1
1778782994.40068316,73584721,0,6,411812400,2418,10,1.21,-35.363262,149.1652372,599.04,0.005000000353902578,314.6726989746094,-0.013000000268220901,0.0,1
1778782994.60060310,73784641,0,6,411812600,2418,10,1.21,-35.363262,149.1652372,599.04,0.003000000026077032,320.64019775390625,-0.013000000268220901,0.0,1
1778782994.80052304,73984561,0,6,411812800,2418,10,1.21,-35.3632619,149.1652372,599.05,0.0020000000949949026,341.9852294921875,-0.013000000268220901,0.0,1
1778782995.00044298,74184481,0,6,411813000,2418,10,1.21,-35.3632619,149.1652372,599.05,0.0020000000949949026,6.205420017242432,-0.013000000268220901,0.0,1
1778782995.20036316,74384401,0,6,411813200,2418,10,1.21,-35.3632619,149.1652372,599.05,0.0020000000949949026,16.927339553833008,-0.012000000104308128,0.0,1
1778782995.40028310,74584321,0,6,411813400,2418,10,1.21,-35.3632619,149.1652372,599.05,0.0020000000949949026,29.372859954833984,-0.01100000087171793,0.0,1
1778782995.60020304,74784241,0,6,411813600,2418,10,1.21,-35.3632619,149.1652372,599.06,0.0010000000474974513,70.70154571533203,-0.010000000707805157,0.0,1
1778782995.80012298,74984161,0,6,411813800,2418,10,1.21,-35.3632619,149.1652372,599.06,0.0010000000474974513,125.59510040283203,-0.009000000543892384,0.0,1
1778782996.00004315,75184081,0,6,411814000,2418,10,1.21,-35.3632619,149.1652372,599.06,0.0020000000949949026,141.88101196289062,-0.009000000543892384,0.0,1
1778782996.20079613,75384834,0,6,411814200,2418,10,1.21,-35.3632619,149.1652372,599.06,0.004000000189989805,146.6122589111328,-0.009000000543892384,0.0,1
1778782996.40071607,75584754,0,6,411814400,2418,10,1.21,-35.3632619,149.1652372,599.06,0.004000000189989805,146.7760009765625,-0.009000000543892384,0.0,1
1778782996.60063601,75784674,0,6,411814600,2418,10,1.21,-35.3632619,149.1652372,599.07,0.005000000353902578,145.5081329345703,-0.009000000543892384,0.0,1
1778782996.80055618,75984594,0,6,411814800,2418,10,1.21,-35.3632619,149.1652372,599.07,0.006000000052154064,144.63153076171875,-0.00800000037997961,0.0,1
1778782997.00047612,76184514,0,6,411815000,2418,10,1.21,-35.3632619,149.1652372,599.07,0.007000000216066837,144.0380401611328,-0.007000000216066837,0.0,1
1778782997.20039606,76384434,0,6,411815200,2418,10,1.21,-35.3632619,149.1652372,599.07,0.007000000216066837,142.589599609375,-0.007000000216066837,0.0,1
1778782997.40031600,76584354,0,6,411815400,2418,10,1.21,-35.3632619,149.1652372,599.07,0.007000000216066837,139.92047119140625,-0.006000000052154064,0.0,1
1778782997.60023618,76784274,0,6,411815600,2418,10,1.21,-35.3632619,149.1652372,599.07,0.007000000216066837,136.41165161132812,-0.007000000216066837,0.0,1
1778782997.80015612,76984194,0,6,411815800,2418,10,1.21,-35.3632619,149.1652372,599.08,0.007000000216066837,132.94483947753906,-0.007000000216066837,0.0,1
1778782998.00007606,77184114,0,6,411816000,2418,10,1.21,-35.3632619,149.1652372,599.08,0.007000000216066837,131.49928283691406,-0.007000000216066837,0.0,1
1778782998.19999599,77384034,0,6,411816200,2418,10,1.21,-35.3632619,149.1652372,599.08,0.00800000037997961,133.76614379882812,-0.007000000216066837,0.0,1
1778782998.40074897,77584787,0,6,411816400,2418,10,1.21,-35.3632619,149.1652372,599.08,0.009000000543892384,137.35548400878906,-0.006000000052154064,0.0,1
1778782998.60066915,77784707,0,6,411816600,2418,10,1.21,-35.363262,149.1652372,599.08,0.010000000707805157,139.2384490966797,-0.005000000353902578,0.0,1
1778782998.80058908,77984627,0,6,411816800,2418,10,1.21,-35.363262,149.1652372,599.08,0.01100000087171793,139.78085327148438,-0.005000000353902578,0.0,1
1778782999.00050902,78184547,0,6,411817000,2418,10,1.21,-35.363262,149.1652372,599.08,0.012000000104308128,139.45877075195312,-0.004000000189989805,0.0,1
1778782999.20042896,78384467,0,6,411817200,2418,10,1.21,-35.363262,149.1652373,599.08,0.01100000087171793,137.54869079589844,-0.004000000189989805,0.0,1
1778782999.40034914,78584387,0,6,411817400,2418,10,1.21,-35.363262,149.1652373,599.09,0.01100000087171793,132.88455200195312,-0.004000000189989805,0.0,1
1778782999.60026908,78784307,0,6,411817600,2418,10,1.21,-35.363262,149.1652373,599.09,0.010000000707805157,125.43865966796875,-0.004000000189989805,0.0,1
1778782999.80018902,78984227,0,6,411817800,2418,10,1.21,-35.363262,149.1652373,599.09,0.009000000543892384,118.32088470458984,-0.004000000189989805,0.0,1
1778783000.00010896,79184147,0,6,411818000,2418,10,1.21,-35.3632621,149.1652373,599.09,0.00800000037997961,115.03043365478516,-0.003000000026077032,0.0,1
1778783000.20002913,79384067,0,6,411818200,2418,10,1.21,-35.3632621,149.1652373,599.09,0.007000000216066837,115.34817504882812,-0.003000000026077032,0.0,1
1778783000.40078211,79584820,0,6,411818400,2418,10,1.21,-35.3632621,149.1652374,599.09,0.006000000052154064,116.93919372558594,-0.0020000000949949026,0.0,1
1778783000.60070205,79784740,0,6,411818600,2418,10,1.21,-35.3632621,149.1652374,599.09,0.003000000026077032,351.4222106933594,-0.0020000000949949026,0.0,1
1778783000.80062199,79984660,0,6,411818800,2418,10,1.21,-35.3632621,149.1652373,599.09,0.07300000637769699,337.0701599121094,-0.0020000000949949026,0.0,1
1778783001.00054216,80184580,0,6,411819000,2418,10,1.21,-35.3632618,149.1652373,599.09,0.3050000071525574,345.38507080078125,0.0,0.0,1
1778783001.20046210,80384500,0,6,411819200,2418,10,1.21,-35.3632609,149.1652371,599.09,0.7410000562667847,349.6006774902344,0.0010000000474974513,0.0,1
1778783001.40038204,80584420,0,6,411819400,2418,10,1.21,-35.3632591,149.1652367,599.09,1.2480000257492065,351.1266784667969,-0.003000000026077032,0.0,1
1778783001.60030198,80784340,0,6,411819600,2418,10,1.21,-35.3632565,149.1652362,599.09,1.630000114440918,351.71038818359375,-0.009000000543892384,0.0,1
1778783001.80022216,80984260,0,6,411819800,2418,10,1.21,-35.3632534,149.1652356,599.09,1.8380000591278076,352.06512451171875,-0.007000000216066837,0.0,1
1778783002.00014210,81184180,0,6,411820000,2418,10,1.21,-35.3632501,149.1652351,599.09,1.9280000925064087,352.4014892578125,-0.0020000000949949026,0.0,1
1778783002.20006204,81384100,0,6,411820200,2418,10,1.21,-35.3632466,149.1652346,599.1,1.9580000638961792,352.73529052734375,0.0010000000474974513,0.0,1
1778783002.40081501,81584853,0,6,411820400,2418,10,1.21,-35.3632431,149.165234,599.09,1.9630000591278076,353.0296936035156,0.003000000026077032,0.0,1
1778783002.60073519,81784773,0,6,411820600,2418,10,1.21,-35.3632396,149.1652335,599.09,1.9590001106262207,353.249755859375,0.003000000026077032,0.0,1
1778783002.80065513,81984693,0,6,411820800,2418,10,1.21,-35.3632361,149.165233,599.09,1.9560000896453857,353.3869323730469,0.003000000026077032,0.0,1
1778783003.00057507,82184613,0,6,411821000,2418,10,1.21,-35.3632326,149.1652325,599.09,1.9570001363754272,353.43841552734375,0.0020000000949949026,0.0,1
1778783003.20049500,82384533,0,6,411821200,2418,10,1.21,-35.3632291,149.165232,599.09,1.9630000591278076,353.40289306640625,0.0,0.0,1
1778783003.40041518,82584453,0,6,411821400,2418,10,1.21,-35.3632256,149.1652315,599.09,1.9730000495910645,353.3049011230469,0.0,0.0,1
1778783003.60033512,82784373,0,6,411821600,2418,10,1.21,-35.3632221,149.165231,599.09,1.977000117301941,353.1755676269531,-0.0010000000474974513,0.0,1
1778783003.80025506,82984293,0,6,411821800,2418,10,1.21,-35.3632185,149.1652305,599.09,1.9070000648498535,353.0486145019531,-0.0010000000474974513,0.0,1
1778783004.00017500,83184213,0,6,411822000,2418,10,1.21,-35.3632154,149.16523,599.09,1.65500009059906,352.93865966796875,0.0,0.0,1
1778783004.20009518,83384133,0,6,411822200,2418,10,1.21,-35.3632128,149.1652296,599.09,1.2060000896453857,352.822265625,0.0,0.0,1
1778783004.40001512,83584053,0,6,411822400,2418,10,1.21,-35.3632111,149.1652293,599.09,0.7220000624656677,352.6194763183594,-0.004000000189989805,0.0,1
1778783004.60076809,83784806,0,6,411822600,2418,10,1.21,-35.3632102,149.1652292,599.09,0.3760000169277191,352.1277770996094,-0.009000000543892384,0.0,1
1778783004.80068803,83984726,0,6,411822800,2418,10,1.21,-35.3632097,149.1652291,599.1,0.1900000125169754,350.9910583496094,-0.007000000216066837,0.0,1
1778783005.00060797,84184646,0,6,411823000,2418,10,1.21,-35.3632094,149.1652291,599.1,0.10500000417232513,349.0769348144531,-0.003000000026077032,0.0,1
1778783005.20052814,84384566,0,6,411823200,2418,10,1.21,-35.3632092,149.165229,599.1,0.07200000435113907,347.30914306640625,-0.0010000000474974513,0.0,1
1778783005.40044808,84584486,0,6,411823400,2418,10,1.21,-35.3632091,149.1652289,599.1,0.06200000271201134,346.68475341796875,0.0,0.0,1
1778783005.60036802,84784406,0,6,411823600,2418,10,1.21,-35.363209,149.1652289,599.1,0.06000000238418579,346.80133056640625,0.0,0.0,1
1778783005.80028796,84984326,0,6,411823800,2418,10,1.21,-35.3632089,149.1652289,599.1,0.05900000408291817,347.1250305175781,0.0,0.0,1
1778783006.00020814,85184246,0,6,411824000,2418,10,1.21,-35.3632088,149.1652289,599.1,0.055000003427267075,347.4216613769531,0.0,0.0,1
1778783006.20012808,85384166,0,6,411824200,2418,10,1.21,-35.3632087,149.1652289,599.1,0.04800000041723251,347.4636535644531,0.0,0.0,1
1778783006.40004802,85584086,0,6,411824400,2418,10,1.21,-35.3632087,149.1652289,599.1,0.03700000047683716,346.83856201171875,0.0,0.0,1
1778783006.60080099,85784839,0,6,411824600,2418,10,1.21,-35.3632086,149.1652289,599.1,0.02500000037252903,344.4178466796875,0.0,0.0,1
1778783006.80072117,85984759,0,6,411824800,2418,10,1.21,-35.3632086,149.1652289,599.1,0.01100000087171793,333.8948974609375,0.0,0.0,1
1778783007.00064111,86184679,0,6,411825000,2418,10,1.21,-35.3632086,149.1652288,599.1,0.004000000189989805,230.35569763183594,0.0,0.0,1
1778783007.20056105,86384599,0,6,411825200,2418,10,1.21,-35.3632086,149.1652288,599.1,0.014000000432133675,192.1090850830078,0.0,0.0,1
1778783007.40048099,86584519,0,6,411825400,2418,10,1.21,-35.3632086,149.1652288,599.1,0.023000001907348633,187.40394592285156,0.0010000000474974513,0.0,1
1778783007.60040116,86784439,0,6,411825600,2418,10,1.21,-35.3632086,149.1652288,599.1,0.02800000086426735,185.92002868652344,0.0010000000474974513,0.0,1
1778783007.80032110,86984359,0,6,411825800,2418,10,1.21,-35.3632086,149.1652288,599.1,0.03200000151991844,184.80819702148438,0.0010000000474974513,0.0,1
1778783008.00024104,87184279,0,6,411826000,2418,10,1.21,-35.3632087,149.1652288,599.1,0.032999999821186066,183.9715576171875,0.0010000000474974513,0.0,1
1778783008.20016098,87384199,0,6,411826200,2418,10,1.21,-35.3632087,149.1652288,599.1,0.032999999821186066,183.71160888671875,0.0010000000474974513,0.0,1
1778783008.40008116,87584119,0,6,411826400,2418,10,1.21,-35.3632088,149.1652288,599.1,0.03200000151991844,183.99012756347656,0.0010000000474974513,0.0,1
1778783008.60000110,87784039,0,6,411826600,2418,10,1.21,-35.3632088,149.1652288,599.1,0.030000001192092896,184.680419921875,0.0010000000474974513,0.0,1
1778783008.80075407,87984792,0,6,411826800,2418,10,1.21,-35.3632089,149.1652288,599.1,0.02800000086426735,185.3716278076172,0.0010000000474974513,0.0,1
1778783009.00067401,88184712,0,6,411827000,2418,10,1.21,-35.363209,149.1652288,599.09,0.026000000536441803,185.61660766601562,0.0010000000474974513,0.0,1
1778783009.20059419,88384632,0,6,411827200,2418,10,1.21,-35.363209,149.1652288,599.09,0.023000001907348633,185.3019256591797,0.0010000000474974513,0.0,1
1778783009.40051413,88584552,0,6,411827400,2418,10,1.21,-35.3632091,149.1652288,599.09,0.021000001579523087,184.7141571044922,0.0010000000474974513,0.0,1
1778783009.60043406,88784472,0,6,411827600,2418,10,1.21,-35.3632091,149.1652288,599.09,0.018000001087784767,185.07711791992188,0.0010000000474974513,0.0,1
1778783009.80035400,88984392,0,6,411827800,2418,10,1.21,-35.3632091,149.1652288,599.09,0.01600000075995922,187.58663940429688,0.0010000000474974513,0.0,1
1778783010.00027418,89184312,0,6,411828000,2418,10,1.21,-35.3632092,149.1652288,599.09,0.012000000104308128,191.7849578857422,0.0010000000474974513,0.0,1
1778783010.20019412,89384232,0,6,411828200,2418,10,1.21,-35.3632092,149.1652288,599.09,0.009000000543892384,196.0360565185547,0.0010000000474974513,0.0,1
1778783010.40011406,89584152,0,6,411828400,2418,10,1.21,-35.3632092,149.1652288,599.09,0.007000000216066837,199.8388214111328,0.0010000000474974513,0.0,1
1778783010.60003400,89784072,0,6,411828600,2418,10,1.21,-35.3632092,149.1652288,599.09,0.004000000189989805,204.78530883789062,0.0010000000474974513,0.0,1
1778783010.80078697,89984825,0,6,411828800,2418,10,1.21,-35.3632092,149.1652287,599.09,0.0020000000949949026,216.88955688476562,0.0010000000474974513,0.0,1
1778783011.00070715,90184745,0,6,411829000,2418,10,1.21,-35.3632092,149.1652287,599.09,0.0010000000474974513,248.7581329345703,0.0010000000474974513,0.0,1
1778783011.20062709,90384665,0,6,411829200,2418,10,1.21,-35.3632092,149.1652287,599.09,0.0010000000474974513,298.803466796875,0.0010000000474974513,0.0,1
1778783011.40054703,90584585,0,6,411829400,2418,10,1.21,-35.3632092,149.1652287,599.09,0.0010000000474974513,344.93310546875,0.0010000000474974513,0.0,1
1778783011.60046697,90784505,0,6,411829600,2418,10,1.21,-35.3632092,149.1652287,599.09,0.0010000000474974513,33.72509765625,0.0,0.0,1
1778783011.80038714,90984425,0,6,411829800,2418,10,1.21,-35.3632092,149.1652287,599.09,0.0020000000949949026,64.97174072265625,0.0010000000474974513,0.0,1
1778783012.00030708,91184345,0,6,411830000,2418,10,1.21,-35.3632092,149.1652287,599.09,0.003000000026077032,77.75505065917969,0.0010000000474974513,0.0,1
1778783012.20022702,91384265,0,6,411830200,2418,10,1.21,-35.3632092,149.1652287,599.09,0.004000000189989805,81.72813415527344,0.0,0.0,1
1778783012.40014696,91584185,0,6,411830400,2418,10,1.21,-35.3632092,149.1652287,599.09,0.005000000353902578,83.62455749511719,0.0,0.0,1
1778783012.60006714,91784105,0,6,411830600,2418,10,1.21,-35.3632092,149.1652287,599.09,0.005000000353902578,86.58999633789062,0.0,0.0,1
1778783012.79998708,91984025,0,6,411830800,2418,10,1.21,-35.3632092,149.1652287,599.09,0.005000000353902578,90.17509460449219,0.0010000000474974513,0.0,1
1778783013.00074005,92184778,0,6,411831000,2418,10,1.21,-35.3632092,149.1652287,599.09,0.005000000353902578,92.99337005615234,0.0010000000474974513,0.0,1
1778783013.20065999,92384698,0,6,411831200,2418,10,1.21,-35.3632092,149.1652287,599.09,0.005000000353902578,93.49242401123047,0.0010000000474974513,0.0,1
1778783013.40058017,92584618,0,6,411831400,2418,10,1.21,-35.3632092,149.1652287,599.09,0.005000000353902578,90.73445129394531,0.0010000000474974513,0.0,1
1778783013.60050011,92784538,0,6,411831600,2418,10,1.21,-35.3632092,149.1652287,599.09,0.005000000353902578,88.27365112304688,0.0010000000474974513,0.0,1
1778783013.80042005,92984458,0,6,411831800,2418,10,1.21,-35.3632092,149.1652288,599.09,0.005000000353902578,87.53910827636719,0.0010000000474974513,0.0,1
1778783014.00033998,93184378,0,6,411832000,2418,10,1.21,-35.3632092,149.1652288,599.09,0.006000000052154064,87.100830078125,0.0,0.0,1
1778783014.20026016,93384298,0,6,411832200,2418,10,1.21,-35.3632092,149.1652288,599.09,0.006000000052154064,87.25084686279297,0.0,0.0,1
1778783014.40018010,93584218,0,6,411832400,2418,10,1.21,-35.3632092,149.1652288,599.09,0.006000000052154064,88.2337646484375,0.0,0.0,1
1778783014.60010004,93784138,0,6,411832600,2418,10,1.21,-35.3632092,149.1652288,599.09,0.006000000052154064,89.9919662475586,0.0,0.0,1
1778783014.80001998,93984058,0,6,411832800,2418,10,1.21,-35.3632092,149.1652288,599.09,0.005000000353902578,92.71564483642578,0.0010000000474974513,0.0,1
1778783015.00077319,94184811,0,6,411833000,2418,10,1.21,-35.3632092,149.1652288,599.09,0.004000000189989805,95.95172119140625,0.0010000000474974513,0.0,1
1778783015.20069313,94384731,0,6,411833200,2418,10,1.21,-35.3632092,149.1652288,599.09,0.003000000026077032,95.48900604248047,0.0010000000474974513,0.0,1
1778783015.40061307,94584651,0,6,411833400,2418,10,1.21,-35.3632092,149.1652288,599.09,0.0020000000949949026,93.10371398925781,0.0,0.0,1
1778783015.60053301,94784571,0,6,411833600,2418,10,1.21,-35.3632092,149.1652289,599.09,0.0020000000949949026,99.33761596679688,0.0010000000474974513,0.0,1
1778783015.80045319,94984491,0,6,411833800,2418,10,1.21,-35.3632092,149.1652289,599.09,0.0020000000949949026,112.11380767822266,0.0,0.0,1
1778783016.00037313,95184411,0,6,411834000,2418,10,1.21,-35.3632092,149.1652289,599.09,0.0020000000949949026,122.69569396972656,0.0,0.0,1
1778783016.20029306,95384331,0,6,411834200,2418,10,1.21,-35.3632092,149.1652289,599.09,0.0020000000949949026,133.491943359375,0.0,0.0,1
1778783016.40021300,95584251,0,6,411834400,2418,10,1.21,-35.3632092,149.1652289,599.09,0.0020000000949949026,149.71762084960938,0.0,0.0,1
1778783016.60013318,95784171,0,6,411834600,2418,10,1.21,-35.3632092,149.1652289,599.09,0.0020000000949949026,172.23052978515625,0.0,0.0,1
1778783016.80005312,95984091,0,6,411834800,2418,10,1.21,-35.3632092,149.1652289,599.09,0.0010000000474974513,206.2109375,0.0010000000474974513,0.0,1
1778783017.00080609,96184844,0,6,411835000,2418,10,1.21,-35.3632092,149.1652289,599.09,0.0010000000474974513,240.1374053955078,0.0010000000474974513,0.0,1
1778783017.20072603,96384764,0,6,411835200,2418,10,1.21,-35.3632092,149.1652289,599.08,0.0020000000949949026,255.70989990234375,0.0010000000474974513,0.0,1
1778783017.40064597,96584684,0,6,411835400,2418,10,1.21,-35.3632092,149.1652289,599.08,0.003000000026077032,257.7696838378906,0.0010000000474974513,0.0,1
1778783017.60056615,96784604,0,6,411835600,2418,10,1.21,-35.3632092,149.1652289,599.08,0.003000000026077032,255.36383056640625,0.0010000000474974513,0.0,1
1778783017.80048609,96984524,0,6,411835800,2418,10,1.21,-35.3632092,149.1652289,599.08,0.003000000026077032,251.08175659179688,0.0,0.0,1
1778783018.00040603,97184444,0,6,411836000,2418,10,1.21,-35.3632092,149.1652289,599.08,0.003000000026077032,245.27476501464844,0.0,0.0,1
1778783018.20032597,97384364,0,6,411836200,2418,10,1.21,-35.3632092,149.1652289,599.08,0.004000000189989805,238.55117797851562,0.0,0.0,1
1778783018.40024614,97584284,0,6,411836400,2418,10,1.21,-35.3632093,149.1652289,599.08,0.004000000189989805,231.73902893066406,0.0,0.0,1
1778783018.60016608,97784204,0,6,411836600,2418,10,1.21,-35.3632093,149.1652289,599.08,0.003000000026077032,226.95391845703125,0.0,0.0,1
1778783018.80008602,97984124,0,6,411836800,2418,10,1.21,-35.3632093,149.1652289,599.08,0.003000000026077032,227.86892700195312,0.0,0.0,1
1778783019.00000596,98184044,0,6,411837000,2418,10,1.21,-35.3632093,149.1652289,599.08,0.003000000026077032,234.41213989257812,0.0,0.0,1
1778783019.20075917,98384797,0,6,411837200,2418,10,1.21,-35.3632093,149.1652289,599.08,0.003000000026077032,249.99276733398438,0.0,0.0,1
1778783019.40067911,98584717,0,6,411837400,2418,10,1.21,-35.3632093,149.1652289,599.08,0.003000000026077032,278.4299621582031,0.0,0.0,1
1778783019.60059905,98784637,0,6,411837600,2418,10,1.21,-35.3632093,149.1652289,599.08,0.004000000189989805,298.37646484375,-0.0010000000474974513,0.0,1
1778783019.80051899,98984557,0,6,411837800,2418,10,1.21,-35.3632093,149.1652289,599.08,0.005000000353902578,305.8150329589844,-0.0010000000474974513,0.0,1
1778783020.00043917,99184477,0,6,411838000,2418,10,1.21,-35.3632093,149.1652289,599.09,0.006000000052154064,309.8736572265625,-0.0010000000474974513,0.0,1
1778783020.20035911,99384397,0,6,411838200,2418,10,1.21,-35.3632093,149.1652289,599.09,0.006000000052154064,313.0423889160156,-0.0010000000474974513,0.0,1
1778783020.40027905,99584317,0,6,411838400,2418,10,1.21,-35.3632093,149.1652288,599.09,0.005000000353902578,315.017333984375,0.0,0.0,1
1778783020.60019898,99784237,0,6,411838600,2418,10,1.21,-35.3632093,149.1652288,599.09,0.005000000353902578,315.5221252441406,0.0,0.0,1
1778783020.80011916,99984157,0,6,411838800,2418,10,1.21,-35.3632093,149.1652288,599.09,0.005000000353902578,315.3891296386719,0.0,0.0,1
1778783021.00003910,100184077,0,6,411839000,2418,10,1.21,-35.3632093,149.1652288,599.09,0.004000000189989805,314.4559631347656,0.0,0.0,1
1778783021.20079207,100384830,0,6,411839200,2418,10,1.21,-35.3632093,149.1652288,599.09,0.004000000189989805,315.18731689453125,0.0,0.0,1
1778783021.40071201,100584750,0,6,411839400,2418,10,1.21,-35.3632093,149.1652288,599.09,0.004000000189989805,321.8642578125,0.0,0.0,1
1778783021.60063219,100784670,0,6,411839600,2418,10,1.21,-35.3632093,149.1652288,599.09,0.003000000026077032,333.5442199707031,0.0,0.0,1
1778783021.80055213,100984590,0,6,411839800,2418,10,1.21,-35.3632093,149.1652288,599.09,0.004000000189989805,348.6218566894531,0.0,0.0,1
1778783022.00047207,101184510,0,6,411840000,2418,10,1.21,-35.3632093,149.1652288,599.09,0.004000000189989805,2.5051798820495605,0.0,0.0,1
1778783022.20039201,101384430,0,6,411840200,2418,10,1.21,-35.3632093,149.1652288,599.09,0.004000000189989805,9.837709426879883,0.0,0.0,1
1778783022.40031219,101584350,0,6,411840400,2418,10,1.21,-35.3632093,149.1652288,599.09,0.004000000189989805,13.030989646911621,0.0,0.0,1
1778783022.60023212,101784270,0,6,411840600,2418,10,1.21,-35.3632093,149.1652288,599.09,0.004000000189989805,15.258759498596191,0.0,0.0,1
1778783022.80015206,101984190,0,6,411840800,2418,10,1.21,-35.3632093,149.1652288,599.09,0.004000000189989805,15.449509620666504,0.0,0.0,1
1778783023.00007200,102184110,0,6,411841000,2418,10,1.21,-35.3632092,149.1652288,599.09,0.004000000189989805,12.510649681091309,0.0,0.0,1
1778783023.19999218,102384030,0,6,411841200,2418,10,1.21,-35.3632092,149.1652288,599.09,0.003000000026077032,7.321630001068115,0.0010000000474974513,0.0,1
1778783023.40074515,102584783,0,6,411841400,2418,10,1.21,-35.3632092,149.1652288,599.08,0.003000000026077032,4.67618989944458,0.0010000000474974513,0.0,1
1778783023.60066509,102784703,0,6,411841600,2418,10,1.21,-35.3632092,149.1652288,599.08,0.003000000026077032,7.509599685668945,0.0010000000474974513,0.0,1
1778783023.80058503,102984623,0,6,411841800,2418,10,1.21,-35.3632092,149.1652288,599.08,0.0020000000949949026,16.629058837890625,0.0,0.0,1
1778783024.00050497,103184543,0,6,411842000,2418,10,1.21,-35.3632092,149.1652288,599.08,0.0020000000949949026,29.271209716796875,0.0,0.0,1
1778783024.20042515,103384463,0,6,411842200,2418,10,1.21,-35.3632092,149.1652288,599.08,0.0010000000474974513,44.432029724121094,0.0,0.0,1
1778783024.40034509,103584383,0,6,411842400,2418,10,1.21,-35.3632092,149.1652288,599.08,0.0010000000474974513,72.49202728271484,0.0,0.0,1
1778783024.60026503,103784303,0,6,411842600,2418,10,1.21,-35.3632092,149.1652288,599.08,0.0010000000474974513,107.79358673095703,0.0,0.0,1
1778783024.80018497,103984223,0,6,411842800,2418,10,1.21,-35.3632092,149.1652288,599.08,0.0020000000949949026,131.6355438232422,0.0,0.0,1
1778783025.00010514,104184143,0,6,411843000,2418,10,1.21,-35.3632092,149.1652288,599.08,0.0020000000949949026,142.9334716796875,0.0,0.0,1
1778783025.20002508,104384063,0,6,411843200,2418,10,1.21,-35.3632092,149.1652288,599.08,0.003000000026077032,147.51756286621094,0.0,0.0,1
1778783025.40077806,104584816,0,6,411843400,2418,10,1.21,-35.3632092,149.1652288,599.08,0.003000000026077032,149.3800506591797,0.0,0.0,1
1778783025.60069799,104784736,0,6,411843600,2418,10,1.21,-35.3632092,149.1652288,599.08,0.003000000026077032,150.41058349609375,-0.0010000000474974513,0.0,1
1778783025.80061817,104984656,0,6,411843800,2418,10,1.21,-35.3632092,149.1652288,599.08,0.003000000026077032,151.34825134277344,0.0,0.0,1
1778783026.00053811,105184576,0,6,411844000,2418,10,1.21,-35.3632092,149.1652288,599.08,0.003000000026077032,152.85800170898438,-0.0010000000474974513,0.0,1
1778783026.20045805,105384496,0,6,411844200,2418,10,1.21,-35.3632092,149.1652288,599.08,0.003000000026077032,152.0616912841797,-0.0010000000474974513,0.0,1
1778783026.40037799,105584416,0,6,411844400,2418,10,1.21,-35.3632092,149.1652288,599.09,0.003000000026077032,148.34117126464844,-0.0010000000474974513,0.0,1
1778783026.60029817,105784336,0,6,411844600,2418,10,1.21,-35.3632092,149.1652288,599.09,0.003000000026077032,145.0135498046875,-0.0010000000474974513,0.0,1
1778783026.80021811,105984256,0,6,411844800,2418,10,1.21,-35.3632092,149.1652288,599.09,0.0020000000949949026,143.5269012451172,-0.0010000000474974513,0.0,1
1778783027.00013804,106184176,0,6,411845000,2418,10,1.21,-35.3632092,149.1652288,599.09,0.0020000000949949026,143.57247924804688,-0.0010000000474974513,0.0,1
1778783027.20005798,106384096,0,6,411845200,2418,10,1.21,-35.3632092,149.1652288,599.09,0.0020000000949949026,141.27493286132812,0.0,0.0,1
1778783027.40081120,106584849,0,6,411845400,2418,10,1.21,-35.3632092,149.1652288,599.09,0.003000000026077032,137.4063720703125,0.0,0.0,1
1778783027.60073113,106784769,0,6,411845600,2418,10,1.21,-35.3632092,149.1652288,599.09,0.003000000026077032,138.88983154296875,0.0,0.0,1
1778783027.80065107,106984689,0,6,411845800,2418,10,1.21,-35.3632092,149.1652288,599.09,0.004000000189989805,143.6103515625,0.0,0.0,1
1778783028.00057101,107184609,0,6,411846000,2418,10,1.21,-35.3632092,149.1652288,599.09,0.003000000026077032,149.7013702392578,0.0,0.0,1
1778783028.20049119,107384529,0,6,411846200,2418,10,1.21,-35.3632092,149.1652288,599.09,0.003000000026077032,157.55267333984375,0.0,0.0,1
1778783028.40041113,107584449,0,6,411846400,2418,10,1.21,-35.3632092,149.1652288,599.09,0.0020000000949949026,165.62460327148438,0.0,0.0,1
1778783028.60033107,107784369,0,6,411846600,2418,10,1.21,-35.3632092,149.1652288,599.09,0.0020000000949949026,169.69686889648438,0.0,0.0,1
1778783028.80025101,107984289,0,6,411846800,2418,10,1.21,-35.3632092,149.1652288,599.09,0.0020000000949949026,166.58216857910156,0.0,0.0,1
1778783029.00017118,108184209,0,6,411847000,2418,10,1.21,-35.3632092,149.1652288,599.09,0.0020000000949949026,161.94313049316406,0.0,0.0,1
1778783029.20009112,108384129,0,6,411847200,2418,10,1.21,-35.3632092,149.1652288,599.09,0.0020000000949949026,158.6249237060547,0.0,0.0,1
1778783029.40001106,108584049,0,6,411847400,2418,10,1.21,-35.3632092,149.1652288,599.09,0.0020000000949949026,153.51834106445312,0.0,0.0,1
1778783029.60076404,108784802,0,6,411847600,2418,10,1.21,-35.3632092,149.1652288,599.09,0.0020000000949949026,149.72601318359375,0.0,0.0,1
1778783029.80068398,108984722,0,6,411847800,2418,10,1.21,-35.3632092,149.1652288,599.09,0.003000000026077032,149.65147399902344,0.0,0.0,1
1778783030.00060415,109184642,0,6,411848000,2418,10,1.21,-35.3632092,149.1652288,599.09,0.003000000026077032,151.0034942626953,0.0,0.0,1
1778783030.20052409,109384562,0,6,411848200,2418,10,1.21,-35.3632092,149.1652288,599.09,0.004000000189989805,153.9433135986328,0.0,0.0,1
1778783030.40044403,109584482,0,6,411848400,2418,10,1.21,-35.3632093,149.1652288,599.09,0.004000000189989805,155.9949493408203,0.0,0.0,1
1778783030.60036397,109784402,0,6,411848600,2418,10,1.21,-35.3632093,149.1652288,599.09,0.003000000026077032,153.798583984375,0.0,0.0,1
1778783030.80028415,109984322,0,6,411848800,2418,10,1.21,-35.3632093,149.1652288,599.09,0.003000000026077032,147.43434143066406,0.0,0.0,1
1778783031.00020409,110184242,0,6,411849000,2418,10,1.21,-35.3632093,149.1652288,599.08,0.0020000000949949026,137.46617126464844,0.0010000000474974513,0.0,1
1778783031.20012403,110384162,0,6,411849200,2418,10,1.21,-35.3632093,149.1652288,599.08,0.0020000000949949026,120.17759704589844,0.0,0.0,1
1778783031.40004396,110584082,0,6,411849400,2418,10,1.21,-35.3632093,149.1652288,599.08,0.0010000000474974513,88.37936401367188,0.0,0.0,1
1778783031.60079718,110784835,0,6,411849600,2418,10,1.21,-35.3632093,149.1652288,599.08,0.0020000000949949026,62.97012710571289,0.0,0.0,1
1778783031.80071712,110984755,0,6,411849800,2418,10,1.21,-35.3632093,149.1652289,599.08,0.0020000000949949026,51.26308822631836,0.0,0.0,1
1778783032.00063705,111184675,0,6,411850000,2418,10,1.21,-35.3632093,149.1652289,599.08,0.0020000000949949026,41.6892204284668,0.0,0.0,1
1778783032.20055699,111384595,0,6,411850200,2418,10,1.21,-35.3632093,149.1652289,599.08,0.0020000000949949026,28.14443016052246,0.0,0.0,1
1778783032.40047717,111584515,0,6,411850400,2418,10,1.21,-35.3632093,149.1652289,599.08,0.003000000026077032,11.500649452209473,0.0,0.0,1
1778783032.60039711,111784435,0,6,411850600,2418,10,1.21,-35.3632093,149.1652289,599.08,0.004000000189989805,354.5125427246094,0.0,0.0,1
1778783032.80031705,111984355,0,6,411850800,2418,10,1.21,-35.3632093,149.1652289,599.08,0.004000000189989805,338.05865478515625,0.0,0.0,1
1778783033.00023699,112184275,0,6,411851000,2418,10,1.21,-35.3632093,149.1652289,599.08,0.005000000353902578,325.5898132324219,-0.0010000000474974513,0.0,1
1778783033.20015717,112384195,0,6,411851200,2418,10,1.21,-35.3632093,149.1652289,599.08,0.006000000052154064,318.8795471191406,-0.0010000000474974513,0.0,1
1778783033.40007710,112584115,0,6,411851400,2418,10,1.21,-35.3632093,149.1652289,599.09,0.007000000216066837,314.6509704589844,-0.0010000000474974513,0.0,1
1778783033.59999704,112784035,0,6,411851600,2418,10,1.21,-35.3632093,149.1652289,599.09,0.007000000216066837,311.6158142089844,-0.0010000000474974513,0.0,1
1778783033.80075002,112984788,0,6,411851800,2418,10,1.21,-35.3632093,149.1652289,599.09,0.007000000216066837,309.95654296875,-0.0010000000474974513,0.0,1
1778783034.00067019,113184708,0,6,411852000,2418,10,1.21,-35.3632093,149.1652289,599.09,0.007000000216066837,309.02874755859375,0.0,0.0,1
1778783034.20059013,113384628,0,6,411852200,2418,10,1.21,-35.3632093,149.1652289,599.09,0.006000000052154064,308.6438903808594,0.0,0.0,1
1778783034.40051007,113584548,0,6,411852400,2418,10,1.21,-35.3632093,149.1652289,599.09,0.006000000052154064,308.66668701171875,0.0,0.0,1
1778783034.60043001,113784468,0,6,411852600,2418,10,1.21,-35.3632093,149.1652289,599.09,0.006000000052154064,310.1412353515625,0.0,0.0,1
1778783034.80035019,113984388,0,6,411852800,2418,10,1.21,-35.3632093,149.1652289,599.09,0.006000000052154064,312.28948974609375,0.0,0.0,1
1778783035.00027013,114184308,0,6,411853000,2418,10,1.21,-35.3632093,149.1652288,599.09,0.006000000052154064,313.044189453125,0.0,0.0,1
1778783035.20019007,114384228,0,6,411853200,2418,10,1.21,-35.3632092,149.1652288,599.09,0.007000000216066837,311.86163330078125,0.0,0.0,1
1778783035.40011001,114584148,0,6,411853400,2418,10,1.21,-35.3632092,149.1652288,599.09,0.007000000216066837,311.08349609375,0.0,0.0,1
1778783035.60003018,114784068,0,6,411853600,2418,10,1.21,-35.3632092,149.1652288,599.09,0.007000000216066837,312.34356689453125,0.0,0.0,1
1778783035.80078316,114984821,0,6,411853800,2418,10,1.21,-35.3632092,149.1652288,599.09,0.006000000052154064,314.4018859863281,0.0,0.0,1
1778783036.00070310,115184741,0,6,411854000,2418,10,1.21,-35.3632092,149.1652288,599.09,0.004000000189989805,315.3375244140625,0.0,0.0,1
1778783036.20062304,115384661,0,6,411854200,2418,10,1.21,-35.3632092,149.1652288,599.09,0.003000000026077032,314.2643737792969,0.0,0.0,1
1778783036.40054297,115584581,0,6,411854400,2418,10,1.21,-35.3632092,149.1652288,599.09,0.0010000000474974513,311.8509216308594,0.0,0.0,1
1778783036.60046315,115784501,0,6,411854600,2418,10,1.21,-35.3632092,149.1652288,599.09,0.0,282.7224426269531,0.0,0.0,1
1778783036.80038309,115984421,0,6,411854800,2418,10,1.21,-35.3632092,149.1652288,599.09,0.0010000000474974513,216.6989288330078,0.0,0.0,1
1778783037.00030303,116184341,0,6,411855000,2418,10,1.21,-35.3632092,149.1652288,599.09,0.0010000000474974513,209.61428833007812,0.0,0.0,1
1778783037.20022297,116384261,0,6,411855200,2418,10,1.21,-35.3632092,149.1652288,599.08,0.0020000000949949026,210.18280029296875,0.0,0.0,1
1778783037.40014315,116584181,0,6,411855400,2418,10,1.21,-35.3632092,149.1652288,599.08,0.0020000000949949026,211.7767791748047,0.0,0.0,1
1778783037.60006309,116784101,0,6,411855600,2418,10,1.21,-35.3632092,149.1652288,599.08,0.0020000000949949026,214.89431762695312,0.0,0.0,1
1778783037.80081606,116984854,0,6,411855800,2418,10,1.21,-35.3632092,149.1652288,599.08,0.0020000000949949026,218.01361083984375,0.0,0.0,1
1778783038.00073600,117184774,0,6,411856000,2418,10,1.21,-35.3632092,149.1652288,599.08,0.0020000000949949026,217.98658752441406,0.0,0.0,1
1778783038.20065618,117384694,0,6,411856200,2418,10,1.21,-35.3632092,149.1652288,599.08,0.0020000000949949026,214.00167846679688,0.0,0.0,1
1778783038.40057611,117584614,0,6,411856400,2418,10,1.21,-35.3632092,149.1652288,599.08,0.0020000000949949026,206.18235778808594,0.0,0.0,1
1778783038.60049605,117784534,0,6,411856600,2418,10,1.21,-35.3632092,149.1652288,599.08,0.0020000000949949026,200.8155975341797,0.0,0.0,1
1778783038.80041599,117984454,0,6,411856800,2418,10,1.21,-35.3632092,149.1652288,599.08,0.0020000000949949026,203.214599609375,0.0,0.0,1
1778783039.00033617,118184374,0,6,411857000,2418,10,1.21,-35.3632092,149.1652287,599.08,0.0020000000949949026,205.90692138671875,0.0,0.0,1
1778783039.20025611,118384294,0,6,411857200,2418,10,1.21,-35.3632092,149.1652287,599.08,0.0020000000949949026,204.4872589111328,-0.0010000000474974513,0.0,1
1778783039.40017605,118584214,0,6,411857400,2418,10,1.21,-35.3632092,149.1652287,599.08,0.0020000000949949026,200.70028686523438,-0.0010000000474974513,0.0,1
1778783039.60009599,118784134,0,6,411857600,2418,10,1.21,-35.3632092,149.1652287,599.09,0.0010000000474974513,185.88916015625,-0.0010000000474974513,0.0,1
1778783039.80001616,118984054,0,6,411857800,2418,10,1.21,-35.3632092,149.1652287,599.09,0.0010000000474974513,151.798583984375,-0.0010000000474974513,0.0,1
1778783040.00076914,119184807,0,6,411858000,2418,10,1.21,-35.3632092,149.1652287,599.09,0.0020000000949949026,130.9397735595703,-0.0010000000474974513,0.0,1
1778783040.20068908,119384727,0,6,411858200,2418,10,1.21,-35.3632092,149.1652287,599.09,0.0020000000949949026,122.99824523925781,0.0,0.0,1
1778783040.40060902,119584647,0,6,411858400,2418,10,1.21,-35.3632092,149.1652287,599.09,0.003000000026077032,120.29076385498047,0.0,0.0,1
1778783040.60052919,119784567,0,6,411858600,2418,10,1.21,-35.3632092,149.1652287,599.09,0.004000000189989805,119.34585571289062,0.0,0.0,1
1778783040.80044913,119984487,0,6,411858800,2418,10,1.21,-35.3632092,149.1652287,599.09,0.005000000353902578,118.19490051269531,0.0,0.0,1
1778783041.00036907,120184407,0,6,411859000,2418,10,1.21,-35.3632092,149.1652287,599.09,0.006000000052154064,119.57489776611328,0.0,0.0,1
1778783041.20028901,120384327,0,6,411859200,2418,10,1.21,-35.3632092,149.1652287,599.09,0.006000000052154064,122.77409362792969,0.0,0.0,1
1778783041.40020919,120584247,0,6,411859400,2418,10,1.21,-35.3632092,149.1652287,599.09,0.006000000052154064,124.31716918945312,0.0,0.0,1
1778783041.60012913,120784167,0,6,411859600,2418,10,1.21,-35.3632092,149.1652287,599.09,0.006000000052154064,124.71226501464844,0.0,0.0,1
1778783041.80004907,120984087,0,6,411859800,2418,10,1.21,-35.3632092,149.1652287,599.09,0.006000000052154064,125.65757751464844,0.0,0.0,1
1778783042.00080204,121184840,0,6,411860000,2418,10,1.21,-35.3632092,149.1652287,599.09,0.006000000052154064,126.37400817871094,0.0,0.0,1
1778783042.20072198,121384760,0,6,411860200,2418,10,1.21,-35.3632092,149.1652288,599.09,0.005000000353902578,124.1414566040039,0.0,0.0,1
1778783042.40064216,121584680,0,6,411860400,2418,10,1.21,-35.3632092,149.1652288,599.09,0.005000000353902578,119.58243560791016,0.0,0.0,1
1778783042.60056210,121784600,0,6,411860600,2418,10,1.21,-35.3632092,149.1652288,599.09,0.005000000353902578,118.4300537109375,0.0,0.0,1
1778783042.80048203,121984520,0,6,411860800,2418,10,1.21,-35.3632092,149.1652288,599.08,0.005000000353902578,122.29413604736328,0.0010000000474974513,0.0,1
1778783043.00040197,122184440,0,6,411861000,2418,10,1.21,-35.3632092,149.1652288,599.08,0.005000000353902578,128.47630310058594,0.0010000000474974513,0.0,1
1778783043.20032215,122384360,0,6,411861200,2418,10,1.21,-35.3632092,149.1652288,599.08,0.004000000189989805,136.5396728515625,0.0010000000474974513,0.0,1
1778783043.40024209,122584280,0,6,411861400,2418,10,1.21,-35.3632093,149.1652288,599.08,0.003000000026077032,146.79981994628906,0.0,0.0,1
1778783043.60016203,122784200,0,6,411861600,2418,10,1.21,-35.3632093,149.1652288,599.08,0.003000000026077032,155.85594177246094,0.0,0.0,1
1778783043.80008197,122984120,0,6,411861800,2418,10,1.21,-35.3632093,149.1652288,599.08,0.0020000000949949026,161.40196228027344,0.0,0.0,1
1778783044.00000215,123184040,0,6,411862000,2418,10,1.21,-35.3632093,149.1652288,599.08,0.0010000000474974513,157.4998016357422,0.0,0.0,1
1778783044.20075512,123384793,0,6,411862200,2418,10,1.21,-35.3632093,149.1652288,599.08,0.0,112.86222076416016,0.0,0.0,1
1778783044.40067506,123584713,0,6,411862400,2418,10,1.21,-35.3632093,149.1652288,599.08,0.0010000000474974513,43.88686752319336,0.0,0.0,1
1778783044.60059500,123784633,0,6,411862600,2418,10,1.21,-35.3632093,149.1652288,599.08,0.0010000000474974513,21.467988967895508,0.0,0.0,1
1778783044.80051517,123984553,0,6,411862800,2418,10,1.21,-35.3632093,149.1652288,599.08,0.0020000000949949026,15.14656925201416,0.0,0.0,1
1778783045.00043511,124184473,0,6,411863000,2418,10,1.21,-35.3632093,149.1652288,599.08,0.004000000189989805,12.302149772644043,0.0,0.0,1
1778783045.20035505,124384393,0,6,411863200,2418,10,1.21,-35.3632093,149.1652288,599.08,0.004000000189989805,10.218460083007812,-0.0010000000474974513,0.0,1
1778783045.40027499,124584313,0,6,411863400,2418,10,1.21,-35.3632093,149.1652288,599.09,0.004000000189989805,8.508110046386719,-0.0010000000474974513,0.0,1
1778783045.60019517,124784233,0,6,411863600,2418,10,1.21,-35.3632093,149.1652288,599.09,0.004000000189989805,5.913660049438477,-0.0010000000474974513,0.0,1
1778783045.80011511,124984153,0,6,411863800,2418,10,1.21,-35.3632093,149.1652288,599.09,0.004000000189989805,1.1271799802780151,0.0,0.0,1
1778783046.00003505,125184073,0,6,411864000,2418,10,1.21,-35.3632093,149.1652288,599.09,0.004000000189989805,357.3888854980469,0.0,0.0,1
1778783046.20078802,125384826,0,6,411864200,2418,10,1.21,-35.3632093,149.1652288,599.09,0.005000000353902578,357.8306579589844,0.0,0.0,1
1778783046.40070796,125584746,0,6,411864400,2418,10,1.21,-35.3632093,149.1652288,599.09,0.005000000353902578,1.0208100080490112,0.0,0.0,1
1778783046.60062814,125784666,0,6,411864600,2418,10,1.21,-35.3632093,149.1652288,599.09,0.005000000353902578,3.3122098445892334,0.0,0.0,1
1778783046.80054808,125984586,0,6,411864800,2418,10,1.21,-35.3632093,149.1652288,599.09,0.004000000189989805,1.877810001373291,0.0,0.0,1
1778783047.00046802,126184506,0,6,411865000,2418,10,1.21,-35.3632093,149.1652288,599.09,0.004000000189989805,358.02679443359375,0.0,0.0,1
1778783047.20038819,126384426,0,6,411865200,2418,10,1.21,-35.3632093,149.1652288,599.09,0.004000000189989805,354.3548583984375,0.0,0.0,1
1778783047.40030813,126584346,0,6,411865400,2418,10,1.21,-35.3632093,149.1652288,599.09,0.004000000189989805,352.424560546875,0.0,0.0,1
1778783047.60022807,126784266,0,6,411865600,2418,10,1.21,-35.3632092,149.1652288,599.09,0.005000000353902578,353.2060241699219,0.0,0.0,1
1778783047.80014801,126984186,0,6,411865800,2418,10,1.21,-35.3632092,149.1652288,599.09,0.004000000189989805,354.488037109375,0.0,0.0,1
1778783048.00006819,127184106,0,6,411866000,2418,10,1.21,-35.3632092,149.1652288,599.09,0.004000000189989805,353.1141357421875,0.0,0.0,1
1778783048.19998813,127384026,0,6,411866200,2418,10,1.21,-35.3632092,149.1652288,599.09,0.004000000189989805,348.570068359375,0.0,0.0,1
1778783048.40074110,127584779,0,6,411866400,2418,10,1.21,-35.3632092,149.1652288,599.09,0.003000000026077032,340.512451171875,0.003000000026077032,0.0,1
1778783048.60066104,127784699,0,6,411866600,2418,10,1.21,-35.3632092,149.1652288,599.08,0.003000000026077032,329.1346435546875,0.06300000101327896,0.0,1
1778783048.80058098,127984619,0,6,411866800,2418,10,1.21,-35.3632092,149.1652288,599.05,0.0020000000949949026,315.1324157714844,0.2160000056028366,0.0,1
1778783049.00050116,128184539,0,6,411867000,2418,10,1.21,-35.3632092,149.1652288,598.99,0.0020000000949949026,298.72784423828125,0.4220000207424164,0.0,1
1778783049.20042109,128384459,0,6,411867200,2418,10,1.21,-35.3632092,149.1652288,598.88,0.0010000000474974513,280.08258056640625,0.6450000405311584,0.0,1
1778783049.40034103,128584379,0,6,411867400,2418,10,1.21,-35.3632092,149.1652288,598.73,0.0010000000474974513,249.8533935546875,0.8710000514984131,0.0,1
1778783049.60026097,128784299,0,6,411867600,2418,10,1.21,-35.3632092,149.1652288,598.53,0.0010000000474974513,207.3351287841797,1.093000054359436,0.0,1
1778783049.80018115,128984219,0,6,411867800,2418,10,1.21,-35.3632092,149.1652288,598.29,0.0010000000474974513,182.8251190185547,1.3050000667572021,0.0,1
1778783050.00010109,129184139,0,6,411868000,2418,10,1.21,-35.3632092,149.1652288,598.01,0.0020000000949949026,176.4402313232422,1.467000126838684,0.0,1
1778783050.20002103,129384059,0,6,411868200,2418,10,1.21,-35.3632092,149.1652288,597.71,0.0020000000949949026,175.55247497558594,1.5480000972747803,0.0,1
1778783050.40077400,129584812,0,6,411868400,2418,10,1.21,-35.3632092,149.1652288,597.4,0.0020000000949949026,178.62966918945312,1.5660001039505005,0.0,1
1778783050.60069418,129784732,0,6,411868600,2418,10,1.21,-35.3632092,149.1652288,597.08,0.0020000000949949026,184.55508422851562,1.5510001182556152,0.0,1
1778783050.80061412,129984652,0,6,411868800,2418,10,1.21,-35.3632092,149.1652288,596.78,0.0020000000949949026,191.84385681152344,1.5250000953674316,0.0,1
1778783051.00053406,130184572,0,6,411869000,2418,10,1.21,-35.3632092,149.1652288,596.48,0.0020000000949949026,199.69471740722656,1.499000072479248,0.0,1
1778783051.20045400,130384492,0,6,411869200,2418,10,1.21,-35.3632092,149.1652288,596.18,0.0020000000949949026,205.22303771972656,1.4800000190734863,0.0,1
1778783051.40037417,130584412,0,6,411869400,2418,10,1.21,-35.3632092,149.1652288,595.88,0.0020000000949949026,213.56549072265625,1.468000054359436,0.0,1
1778783051.60029411,130784332,0,6,411869600,2418,10,1.21,-35.3632092,149.1652288,595.59,0.0020000000949949026,228.400390625,1.4350000619888306,0.0,1
1778783051.80021405,130984252,0,6,411869800,2418,10,1.21,-35.3632092,149.1652288,595.31,0.0020000000949949026,242.71470642089844,1.3330000638961792,0.0,1
1778783052.00013399,131184172,0,6,411870000,2418,10,1.21,-35.3632092,149.1652288,595.06,0.0020000000949949026,251.02603149414062,1.1610000133514404,0.0,1
1778783052.20005417,131384092,0,6,411870200,2418,10,1.21,-35.3632092,149.1652288,594.85,0.0020000000949949026,252.3580322265625,0.9530000686645508,0.0,1
1778783052.40080714,131584845,0,6,411870400,2418,10,1.21,-35.3632092,149.1652288,594.68,0.0020000000949949026,249.6082000732422,0.7360000610351562,0.0,1
1778783052.60072708,131784765,0,6,411870600,2418,10,1.21,-35.3632092,149.1652288,594.55,0.003000000026077032,247.34539794921875,0.5560000538825989,0.0,1
1778783052.80064702,131984685,0,6,411870800,2418,10,1.21,-35.3632092,149.1652288,594.45,0.003000000026077032,247.06805419921875,0.453000009059906,0.0,1
1778783053.00056696,132184605,0,6,411871000,2418,10,1.21,-35.3632092,149.1652288,594.37,0.003000000026077032,247.09246826171875,0.4150000214576721,0.0,1
1778783053.20048714,132384525,0,6,411871200,2418,10,1.21,-35.3632092,149.1652288,594.29,0.003000000026077032,243.65150451660156,0.41600000858306885,0.0,1
1778783053.40040708,132584445,0,6,411871400,2418,10,1.21,-35.3632092,149.1652288,594.2,0.003000000026077032,235.22586059570312,0.4350000321865082,0.0,1
1778783053.60032701,132784365,0,6,411871600,2418,10,1.21,-35.3632092,149.1652288,594.11,0.003000000026077032,225.63421630859375,0.4580000340938568,0.0,1
1778783053.80024719,132984285,0,6,411871800,2418,10,1.21,-35.3632092,149.1652288,594.02,0.003000000026077032,217.90484619140625,0.48000001907348633,0.0,1
1778783054.00016713,133184205,0,6,411872000,2418,10,1.21,-35.3632092,149.1652288,593.92,0.0020000000949949026,211.25918579101562,0.4970000088214874,0.0,1
1778783054.20008707,133384125,0,6,411872200,2418,10,1.21,-35.3632092,149.1652288,593.82,0.003000000026077032,207.08831787109375,0.5070000290870667,0.0,1
1778783054.40000701,133584045,0,6,411872400,2418,10,1.21,-35.3632092,149.1652288,593.72,0.003000000026077032,207.41468811035156,0.5120000243186951,0.0,1
1778783054.60075998,133784798,0,6,411872600,2418,10,1.21,-35.3632092,149.1652288,593.62,0.003000000026077032,207.8061981201172,0.5139999985694885,0.0,1
1778783054.80068016,133984718,0,6,411872800,2418,10,1.21,-35.3632092,149.1652288,593.51,0.003000000026077032,202.813720703125,0.5120000243186951,0.0,1
1778783055.00060010,134184638,0,6,411873000,2418,10,1.21,-35.3632092,149.1652288,593.41,0.003000000026077032,194.3779754638672,0.5110000371932983,0.0,1
1778783055.20052004,134384558,0,6,411873200,2418,10,1.21,-35.3632092,149.1652288,593.31,0.003000000026077032,186.74900817871094,0.5090000033378601,0.0,1
1778783055.40043998,134584478,0,6,411873400,2418,10,1.21,-35.3632092,149.1652288,593.2,0.0020000000949949026,177.97703552246094,0.5070000290870667,0.0,1
1778783055.60036016,134784398,0,6,411873600,2418,10,1.21,-35.3632092,149.1652288,593.11,0.0010000000474974513,157.7881317138672,0.5060000419616699,0.0,1
1778783055.80028009,134984318,0,6,411873800,2418,10,1.21,-35.3632092,149.1652288,593.01,0.0,105.88579559326172,0.5040000081062317,0.0,1
1778783056.00020003,135184238,0,6,411874000,2418,10,1.21,-35.3632092,149.1652288,592.91,0.0,106.6248550415039,0.503000020980835,0.0,1
1778783056.20011997,135384158,0,6,411874200,2418,10,1.21,-35.3632092,149.1652288,592.8,0.0010000000474974513,219.2184295654297,0.503000020980835,0.0,1
1778783056.40004015,135584078,0,6,411874400,2418,10,1.21,-35.3632092,149.1652288,592.7,0.003000000026077032,220.25216674804688,0.503000020980835,0.0,1
1778783056.60079312,135784831,0,6,411874600,2418,10,1.21,-35.3632092,149.1652288,592.6,0.004000000189989805,217.6758575439453,0.503000020980835,0.0,1
1778783056.80071306,135984751,0,6,411874800,2418,10,1.21,-35.3632092,149.1652288,592.5,0.004000000189989805,212.11941528320312,0.503000020980835,0.0,1
1778783057.00063300,136184671,0,6,411875000,2418,10,1.21,-35.3632092,149.1652288,592.4,0.004000000189989805,207.48873901367188,0.5020000338554382,0.0,1
