timestamp,TimeUS,DesRoll,Roll,DesPitch,Pitch,DesYaw,Yaw,AEKF
1778785729.95918298,71144031,-0.00014208439097274095,0.06979086250066757,8.693461131770164e-05,0.05718643590807915,354.51849365234375,354.51849365234375,3
1778785730.05997586,71244824,-0.0001420843618689105,0.06985657662153244,8.69345894898288e-05,0.05721466243267059,354.5175476074219,354.5175476074219,3
1778785730.15993595,71344784,-0.0001420843182131648,0.06961056590080261,8.693460404174402e-05,0.057115040719509125,354.516357421875,354.516357421875,3
1778785730.25989604,71444744,-0.00014208430366124958,0.06989260762929916,8.69345894898288e-05,0.05731166899204254,354.5150146484375,354.5150451660156,3
1778785730.35985589,71544704,-0.0001420843182131648,0.06999994814395905,8.69345894898288e-05,0.05722185969352722,354.5137023925781,354.5137023925781,3
1778785730.45981598,71644664,-0.00014208430366124958,0.07008173316717148,8.693459676578641e-05,0.05746021121740341,354.51239013671875,354.51239013671875,3
1778785730.55977583,71744624,-0.00014208430366124958,0.07021573185920715,8.693460404174402e-05,0.05789545550942421,354.5109558105469,354.5109558105469,3
1778785730.65973592,71844584,-0.00014208427455741912,0.07062350958585739,8.693459676578641e-05,0.05840455740690231,354.5095520019531,354.5095520019531,3
1778785730.75969601,71944544,-0.00014208424545358866,0.07138816267251968,8.693459676578641e-05,0.059042591601610184,354.5081787109375,354.5081787109375,3
1778785730.85965586,72044504,-0.00014208418724592775,0.07239549607038498,8.693458221387118e-05,0.05983772873878479,354.50665283203125,354.50665283203125,3
1778785730.95961595,72144464,-0.00014208420179784298,0.07337679713964462,8.693458221387118e-05,0.06073546037077904,354.5052795410156,354.5052795410156,3
1778785731.05957603,72244424,-0.00014208418724592775,0.074606753885746,8.693461131770164e-05,0.06197963282465935,354.5036315917969,354.5036315917969,3
1778785731.15953588,72344384,-0.00014208414359018207,0.0758693516254425,8.69345894898288e-05,0.063326895236969,354.50213623046875,354.50213623046875,3
1778785731.25949597,72444344,-0.00014208412903826684,0.07702452689409256,8.693461131770164e-05,0.06488523632287979,354.50079345703125,354.50079345703125,3
1778785731.35945582,72544304,-0.00014208412903826684,0.07827170938253403,8.69345894898288e-05,0.06620936840772629,354.49920654296875,354.49920654296875,3
1778785731.45941591,72644264,-0.00014208414359018207,0.07966756075620651,8.693460404174402e-05,0.0678819864988327,354.4976501464844,354.4976501464844,3
1778785731.55937600,72744224,-0.00014208418724592775,0.08106205612421036,8.693461131770164e-05,0.06936874240636826,354.4960632324219,354.4960632324219,3
1778785731.65933585,72844184,-0.00014208420179784298,0.08271155506372452,8.693462586961687e-05,0.07092699408531189,354.49456787109375,354.49456787109375,3
1778785731.75929594,72944144,-0.0001420842163497582,0.0843101367354393,8.69346404215321e-05,0.07244931906461716,354.4930419921875,354.4930419921875,3
1778785731.85925603,73044104,-0.00014208420179784298,0.08576268702745438,8.69346404215321e-05,0.07425376027822495,354.4913024902344,354.4913024902344,3
1778785731.95921588,73144064,-0.00014208418724592775,0.08753585070371628,8.693462586961687e-05,0.07574056088924408,354.4898681640625,354.4898681640625,3
1778785732.05917597,73244024,-0.00014208420179784298,0.08919431269168854,8.693461859365925e-05,0.0776282325387001,354.4880065917969,354.4880065917969,3
1778785732.15996885,73344817,-0.00014208418724592775,0.09082207828760147,8.693461131770164e-05,0.07905910909175873,354.48614501953125,354.48614501953125,3
1778785732.25992894,73444777,-0.00014208417269401252,0.09217388927936554,8.693457493791357e-05,0.08065059036016464,354.484375,354.484375,3
1778785732.35988903,73544737,-0.0001420841581420973,0.09387831389904022,8.693455311004072e-05,0.08230267465114594,354.4827880859375,354.4827880859375,3
1778785732.45984888,73644697,-0.0001420841581420973,0.09544163197278976,8.693453128216788e-05,0.08387605845928192,354.4811706542969,354.481201171875,3
1778785732.55980897,73744657,-0.00014208414359018207,0.09714298695325851,8.69345385581255e-05,0.08564942330121994,354.47955322265625,354.47955322265625,3
1778785732.65976882,73844617,-0.00014208417269401252,0.09867831319570541,8.693452400621027e-05,0.08726330101490021,354.4779357910156,354.4779357910156,3
1778785732.75972891,73944577,-0.0001420842163497582,0.10048314929008484,8.693454583408311e-05,0.08889372646808624,354.47601318359375,354.47601318359375,3
1778785732.85968900,74044537,-0.00014208423090167344,0.1022082045674324,8.693454583408311e-05,0.09072888642549515,354.4740295410156,354.4740295410156,3
1778785732.95964885,74144497,-0.00014208418724592775,0.10396615415811539,8.69345385581255e-05,0.09241510182619095,354.4720153808594,354.4720153808594,3
1778785733.05960894,74244457,-0.00014208423090167344,0.10554051399230957,8.693455311004072e-05,0.09430595487356186,354.4701232910156,354.4701232910156,3
1778785733.15956903,74344417,-0.00014208420179784298,0.10727754980325699,8.69345385581255e-05,0.0962066650390625,354.46826171875,354.46826171875,3
1778785733.25952888,74444377,-0.00014208423090167344,0.10906807333230972,8.693453128216788e-05,0.09812474995851517,354.46636962890625,354.46636962890625,3
1778785733.35948896,74544337,-0.00014208427455741912,0.11074686795473099,8.693455311004072e-05,0.09993807971477509,354.4644470214844,354.4644470214844,3
1778785733.45944881,74644297,-0.00014208423090167344,0.11243744939565659,8.693453128216788e-05,0.10169721394777298,354.46258544921875,354.46258544921875,3
1778785733.55940890,74744257,-0.00014208423090167344,0.11403164267539978,8.693453128216788e-05,0.10333448648452759,354.46063232421875,354.46063232421875,3
1778785733.65936899,74844217,-0.0001420842600055039,0.1157837063074112,8.693454583408311e-05,0.10493753850460052,354.4586486816406,354.4586486816406,3
1778785733.75932884,74944177,-0.0001420842163497582,0.11750000715255737,8.693454583408311e-05,0.10677041113376617,354.4565734863281,354.4565734863281,3
1778785733.85928893,75044137,-0.00014208418724592775,0.11933737993240356,8.693455311004072e-05,0.10848189145326614,354.45452880859375,354.45452880859375,3
1778785733.95924902,75144097,-0.00014208418724592775,0.12129713594913483,8.693458221387118e-05,0.11035459488630295,354.4524230957031,354.4524230957031,3
1778785734.05920887,75244057,-0.00014208412903826684,0.12290545552968979,8.693454583408311e-05,0.11231162399053574,354.4504699707031,354.4504699707031,3
1778785734.16000199,75344850,-0.0001420841581420973,0.12461763620376587,8.693454583408311e-05,0.11402101069688797,354.4485168457031,354.4485168457031,3
1778785734.25996184,75444810,-0.00014208417269401252,0.12635564804077148,8.693452400621027e-05,0.11565008759498596,354.4468994140625,354.4468994140625,3
1778785734.35992193,75544770,-0.0001420841581420973,0.1281638890504837,8.69345385581255e-05,0.11746083945035934,354.4452819824219,354.4452819824219,3
1778785734.45988202,75644730,-0.00014208418724592775,0.12994219362735748,8.693455311004072e-05,0.11945023387670517,354.4433898925781,354.4433898925781,3
1778785734.55984187,75744690,-0.00014208420179784298,0.13188964128494263,8.693456038599834e-05,0.12124069035053253,354.44140625,354.44140625,3
1778785734.65980196,75844650,-0.00014208420179784298,0.1335843950510025,8.693458221387118e-05,0.12305667996406555,354.43914794921875,354.43914794921875,3
1778785734.75976205,75944610,-0.00014208420179784298,0.13540351390838623,8.693458221387118e-05,0.12490913271903992,354.4368591308594,354.4368591308594,3
1778785734.85972190,76044570,-0.00014208423090167344,0.13721393048763275,8.693459676578641e-05,0.1267402321100235,354.4346618652344,354.4346618652344,3
1778785734.95968199,76144530,-0.0001420842163497582,0.13890494406223297,8.693458221387118e-05,0.12850601971149445,354.432373046875,354.432373046875,3
1778785735.05964184,76244490,-0.00014208418724592775,0.14083783328533173,8.693455311004072e-05,0.13018853962421417,354.4300231933594,354.4300231933594,3
1778785735.15960193,76344450,-0.00014208418724592775,0.14251592755317688,8.693451673025265e-05,0.13200363516807556,354.4276123046875,354.4276123046875,3
1778785735.25956202,76444410,-0.00014208418724592775,0.14444921910762787,8.693453128216788e-05,0.13381607830524445,354.4252624511719,354.4252624511719,3
1778785735.35952187,76544370,-0.0001420841144863516,0.1462714523077011,8.69344876264222e-05,0.1355876326560974,354.42303466796875,354.42303466796875,3
1778785735.45948195,76644330,-0.00014208418724592775,0.1480521410703659,8.69344876264222e-05,0.1373249590396881,354.4205627441406,354.4205627441406,3
1778785735.55944204,76744290,-0.00014208418724592775,0.1498280167579651,8.693448035046458e-05,0.1391451507806778,354.41839599609375,354.41839599609375,3
1778785735.65940189,76844250,-0.0001420841581420973,0.1515483260154724,8.693447307450697e-05,0.14072014391422272,354.4157409667969,354.4157409667969,3
1778785735.75936198,76944210,-0.00014208412903826684,0.15320782363414764,8.693446579854935e-05,0.14215843379497528,354.4132080078125,354.4132080078125,3
1778785735.85932183,77044170,-0.00014208418724592775,0.15470950305461884,8.693448035046458e-05,0.14388318359851837,354.41082763671875,354.41082763671875,3
1778785735.95928192,77144130,-0.00014208418724592775,0.156374990940094,8.693448035046458e-05,0.1454905867576599,354.4105224609375,354.4084167480469,3
1778785736.05924201,77244090,-0.00014208418724592775,0.15790648758411407,8.693448035046458e-05,0.14710257947444916,354.4105224609375,354.4059753417969,3
1778785736.15920186,77344050,-0.00014208418724592775,0.15944498777389526,8.693448035046458e-05,0.14862465858459473,354.4105224609375,354.40350341796875,3
1778785736.25999498,77444843,-0.00014208418724592775,0.16092334687709808,8.693448035046458e-05,0.15011996030807495,354.4105224609375,354.4007263183594,3
1778785736.35995483,77544803,-0.00014208418724592775,0.1624593287706375,8.693448035046458e-05,0.15166005492210388,354.4105224609375,354.3977355957031,3
1778785736.45991492,77644763,-0.00014208418724592775,0.163892924785614,8.693448035046458e-05,0.15293197333812714,354.4105224609375,354.3952331542969,3
1778785736.55987501,77744723,-0.00014208418724592775,0.16517308354377747,8.693448035046458e-05,0.15418526530265808,354.4105224609375,354.392822265625,3
1778785736.65983486,77844683,-0.00045589535147883,0.1664646714925766,-0.00023317377781495452,0.15546739101409912,354.4105224609375,354.390380859375,3
1778785736.75979495,77944643,-0.045127589255571365,0.1677360236644745,-0.045730385929346085,0.15676189959049225,354.4105529785156,354.3878173828125,3
1778785736.85975504,78044603,-0.1008046343922615,0.1689872145652771,-0.10184354335069656,0.1579637974500656,354.4106140136719,354.3851318359375,3
1778785736.95971489,78144563,-0.13578103482723236,0.17019961774349213,-0.136732280254364,0.1590435802936554,354.41070556640625,354.3826599121094,3
1778785737.05967498,78244523,-0.15588639676570892,0.17110225558280945,-0.15664847195148468,0.16003693640232086,354.4107360839844,354.37994384765625,3
1778785737.15963483,78344483,-0.1667243093252182,0.17227976024150848,-0.16704057157039642,0.16108338534832,354.4107971191406,354.3773498535156,3
1778785737.25959492,78444443,-0.1759394407272339,0.17321550846099854,-0.17587506771087646,0.16202843189239502,354.4107971191406,354.374755859375,3
1778785737.35955501,78544403,-0.18413981795310974,0.025575954467058182,-0.183717742562294,0.014784117229282856,354.41082763671875,354.3747863769531,3
1778785737.45951486,78644363,-0.18808116018772125,-0.1267213672399521,-0.18682561814785004,-0.1336725354194641,354.4108581542969,354.37786865234375,3
1778785737.55947495,78744323,-0.16844993829727173,-0.21043241024017334,-0.16635023057460785,-0.21230380237102509,354.4107971191406,354.38092041015625,3
1778785737.65943503,78844283,-0.12372787296772003,-0.2240268588066101,-0.12166556715965271,-0.22237682342529297,354.4106750488281,354.38287353515625,3
1778785737.75939488,78944243,-0.05057796835899353,-0.18099817633628845,-0.05006895214319229,-0.17709380388259888,354.4105529785156,354.3839416503906,3
1778785737.85935497,79044203,0.037973225116729736,-0.1034340038895607,0.035613853484392166,-0.10172688961029053,354.4105529785156,354.38433837890625,3
1778785737.95931482,79144163,0.12960447371006012,-0.010477646254003048,0.12352556735277176,-0.009826458059251308,354.4106750488281,354.3846130371094,3
1778785738.05927491,79244123,0.20872950553894043,0.08247304707765579,0.19835889339447021,0.077022984623909,354.4109191894531,354.3851623535156,3
1778785738.15923500,79344083,0.27334606647491455,0.15888367593288422,0.2565232515335083,0.14226144552230835,354.4111633300781,354.3855285644531,3
1778785738.25919485,79444043,0.3194391131401062,0.21403703093528748,0.2963179349899292,0.19308724999427795,354.411376953125,354.3853759765625,3
1778785738.35998797,79544836,0.3548229932785034,0.25794586539268494,0.3265281617641449,0.2332199513912201,354.41156005859375,354.38482666015625,3
1778785738.45994782,79644796,0.3766976594924927,0.28773847222328186,0.34477800130844116,0.25761058926582336,354.41168212890625,354.3843078613281,3
1778785738.55990791,79744756,0.3892800211906433,0.3071035146713257,0.3546745181083679,0.27487197518348694,354.4117431640625,354.383544921875,3
1778785738.65986800,79844716,0.3933703899383545,0.3165505826473236,0.3569320738315582,0.28266215324401855,354.4117736816406,354.3832702636719,3
1778785738.75982785,79944676,0.39204421639442444,0.32203996181488037,0.35526931285858154,0.2903434634208679,354.4117736816406,354.3831787109375,3
1778785738.85978794,80044636,0.38357484340667725,0.32746559381484985,0.34836438298225403,0.2872713506221771,354.4117126464844,354.38348388671875,3
1778785738.95974803,80144596,0.3737291693687439,0.3242049217224121,0.34038040041923523,0.2848203778266907,354.4116516113281,354.38409423828125,3
1778785739.05970788,80244556,0.35788044333457947,0.3142293393611908,0.32971182465553284,0.28084051609039307,352.6059875488281,352.58172607421875,3
1778785739.15966797,80344516,0.33878380060195923,0.2971203625202179,0.32113921642303467,0.27909621596336365,352.60595703125,352.58062744140625,3
1778785739.25962782,80444476,0.31834864616394043,0.2798013389110565,0.3081865608692169,0.27178430557250977,352.6058654785156,352.57940673828125,3
1778785739.35958791,80544436,0.3014673590660095,0.2652672827243805,0.2939911484718323,0.2605019211769104,352.60577392578125,352.58721923828125,3
1778785739.45954800,80644396,0.2848700284957886,0.2523382902145386,0.2764650583267212,0.24912548065185547,352.6056823730469,352.5997314453125,3
1778785739.55950785,80744356,0.2710842192173004,0.24040007591247559,0.2601001560688019,0.23268604278564453,352.6056213378906,352.61090087890625,3
1778785739.65946794,80844316,0.25626200437545776,0.22392414510250092,0.2429610788822174,0.2158750742673874,352.6055603027344,352.618408203125,3
1778785739.75942802,80944276,0.24521572887897491,0.2152504324913025,0.2292613685131073,0.19762445986270905,352.6054992675781,352.6235046386719,3
1778785739.85938787,81044236,0.2348039299249649,0.20398437976837158,0.21663305163383484,0.18447160720825195,352.6054382324219,352.6253967285156,3
1778785739.95934796,81144196,0.22771918773651123,0.19785691797733307,0.2084493339061737,0.18429571390151978,352.60540771484375,352.6274719238281,3
1778785740.05930781,81244156,0.22197093069553375,0.19225504994392395,0.20148685574531555,0.17951619625091553,352.60540771484375,352.6259460449219,3
1778785740.15926790,81344116,0.21925389766693115,0.18836216628551483,0.19706016778945923,0.17529405653476715,352.6053771972656,352.6224365234375,3
1778785740.25922799,81444076,0.21779677271842957,0.19186349213123322,0.19445453584194183,0.1755930781364441,352.6053771972656,352.6197204589844,3
1778785740.35918784,81544036,0.21972933411598206,0.19582127034664154,0.1954881101846695,0.1802644431591034,352.6053771972656,352.62042236328125,3
1778785740.45998096,81644829,0.2221226692199707,0.20110835134983063,0.19735780358314514,0.18884260952472687,352.6053771972656,352.62225341796875,3
1778785740.55994081,81744789,0.2238713651895523,0.20411214232444763,0.19871312379837036,0.19366709887981415,352.60540771484375,352.62744140625,3
1778785740.65990090,81844749,0.22632358968257904,0.2064574658870697,0.2005826234817505,0.1958034336566925,352.60540771484375,352.62713623046875,3
1778785740.75986099,81944709,0.23046527802944183,0.20776042342185974,0.2042800784111023,0.19896522164344788,352.60540771484375,352.62420654296875,3
1778785740.85982084,82044669,0.23431894183158875,0.20412378013134003,0.20777647197246552,0.20158535242080688,352.6054382324219,352.6211242675781,3
1778785740.95978093,82144629,0.23979957401752472,0.207788348197937,0.2121822088956833,0.2031777948141098,352.6054382324219,352.6211242675781,3
1778785741.05974102,82244589,0.24544163048267365,0.22327548265457153,0.2161375731229782,0.20440152287483215,352.60546875,352.61859130859375,3
1778785741.15970087,82344549,0.2505738139152527,0.23316650092601776,0.21975700557231903,0.2069273293018341,352.6054992675781,352.6175842285156,3
1778785741.25966096,82444509,0.25363093614578247,0.240350604057312,0.22220547497272491,0.21081887185573578,352.6054992675781,352.61517333984375,3
1778785741.35962105,82544469,0.2538118362426758,0.24510802328586578,0.22275225818157196,0.2151087373495102,352.6054992675781,352.6112365722656,3
1778785741.45958090,82644429,0.25176936388015747,0.2446354329586029,0.22162583470344543,0.21883273124694824,352.6054992675781,352.6065673828125,3
1778785741.55954099,82744389,0.24746838212013245,0.24683886766433716,0.2198164314031601,0.22154666483402252,352.60546875,352.6044921875,3
1778785741.65950084,82844349,0.2403867393732071,0.24568058550357819,0.21573135256767273,0.2207665592432022,352.60546875,352.6031799316406,3
1778785741.75946093,82944309,0.2325533926486969,0.2385958582162857,0.21097616851329803,0.20911650359630585,352.6054382324219,352.6044616699219,3
1778785741.85942101,83044269,0.22306407988071442,0.22461548447608948,0.20506815612316132,0.195539191365242,352.60540771484375,352.6053161621094,3
1778785741.95938087,83144229,0.21559476852416992,0.21508699655532837,0.200958251953125,0.1884443461894989,352.6053771972656,352.6062927246094,3
1778785742.05934095,83244189,0.20906081795692444,0.20714057981967926,0.1972382813692093,0.18532367050647736,352.6053771972656,352.6048278808594,3
1778785742.15930104,83344149,0.20436374843120575,0.1951647400856018,0.19459673762321472,0.1830487996339798,352.6053466796875,352.6036682128906,3
1778785742.25926089,83444109,0.201343834400177,0.18645110726356506,0.19238583743572235,0.18164685368537903,352.6053466796875,352.60333251953125,3
1778785742.35922098,83544069,0.1988225132226944,0.18435242772102356,0.19049657881259918,0.18070515990257263,352.6053466796875,352.6033935546875,3
1778785742.45918083,83644029,0.19353385269641876,0.1818668097257614,0.18752583861351013,0.1795811653137207,352.6053161621094,352.60028076171875,3
1778785742.55997396,83744822,0.185771644115448,0.17776046693325043,0.1849222481250763,0.1734786182641983,352.6053161621094,352.59820556640625,3
1778785742.65993404,83844782,0.17515422403812408,0.16866809129714966,0.1819799840450287,0.17201176285743713,352.60528564453125,352.59765625,3
1778785742.75989389,83944742,0.16532950103282928,0.15976101160049438,0.18069946765899658,0.17008507251739502,352.6052551269531,352.5984802246094,3
1778785742.85985398,84044702,0.15653519332408905,0.15205174684524536,0.17971952259540558,0.1682925820350647,352.6052551269531,352.5993347167969,3
1778785742.95981383,84144662,0.1489952653646469,0.14441440999507904,0.18016396462917328,0.16830983757972717,352.6052551269531,352.6003112792969,3
1778785743.05977392,84244622,0.1414797008037567,0.13672058284282684,0.18080519139766693,0.16807273030281067,352.605224609375,352.6007080078125,3
1778785743.15973401,84344582,0.1360996663570404,0.13202960789203644,0.18015873432159424,0.16759513318538666,352.605224609375,352.6006164550781,3
1778785743.25969386,84444542,0.1321389526128769,0.12649790942668915,0.17702332139015198,0.1660814732313156,352.605224609375,352.6001281738281,3
1778785743.35965395,84544502,0.1303204894065857,0.12454862892627716,0.1730128824710846,0.16617675125598907,352.6051940917969,352.5998840332031,3
1778785743.45961404,84644462,0.13043130934238434,0.1253085732460022,0.1680084466934204,0.16061687469482422,352.6051940917969,352.599609375,3
1778785743.55957389,84744422,0.13123174011707306,0.12899278104305267,0.16335666179656982,0.1603819727897644,352.6051940917969,352.5998229980469,3
1778785743.65953398,84844382,0.13208580017089844,0.13642126321792603,0.15867148339748383,0.1524674892425537,352.6051940917969,352.6004638671875,3
1778785743.75949383,84944342,0.13256904482841492,0.1429169923067093,0.15485145151615143,0.1467839926481247,352.6051940917969,352.6011962890625,3
1778785743.85945392,85044302,0.13249462842941284,0.14817467331886292,0.15240521728992462,0.14217635989189148,352.6051940917969,352.6009521484375,3
1778785743.95941401,85144262,0.13213428854942322,0.14495019614696503,0.14955012500286102,0.13755959272384644,352.60516357421875,352.6001281738281,3
1778785744.05937386,85244222,0.13133521378040314,0.13231974840164185,0.14524954557418823,0.14452901482582092,352.60516357421875,352.5989990234375,3
1778785744.15933394,85344182,0.13373979926109314,0.13111048936843872,0.13997913897037506,0.13652607798576355,352.60516357421875,352.5983581542969,3
1778785744.25929403,85444142,0.13922874629497528,0.13649582862854004,0.13370035588741302,0.1282804161310196,352.60516357421875,352.59820556640625,3
1778785744.35925388,85544102,0.14173094928264618,0.14289985597133636,0.1305321305990219,0.13073770701885223,352.60516357421875,352.5979919433594,3
1778785744.45921397,85644062,0.14264030754566193,0.14120474457740784,0.12938086688518524,0.12956275045871735,352.60516357421875,352.5980224609375,3
1778785744.56000686,85744855,0.14297236502170563,0.13981251418590546,0.12896043062210083,0.12953239679336548,352.60516357421875,352.59857177734375,3
1778785744.65996695,85844815,0.1429903656244278,0.14186224341392517,0.12893763184547424,0.13275563716888428,352.60516357421875,352.59954833984375,3
1778785744.75992703,85944775,0.14467008411884308,0.14639097452163696,0.12967164814472198,0.1276399791240692,352.60516357421875,352.600341796875,3
1778785744.85988688,86044735,0.14796969294548035,0.1524561196565628,0.1317003071308136,0.12335598468780518,352.60516357421875,352.6009826660156,3
1778785744.95984697,86144695,0.1518372893333435,0.15934190154075623,0.1366070657968521,0.12319567799568176,352.6051940917969,352.6018981933594,3
1778785745.05980682,86244655,0.15470457077026367,0.1587839275598526,0.14306263625621796,0.13403229415416718,352.6051940917969,352.6009826660156,3
1778785745.15976691,86344615,0.1569209098815918,0.15578843653202057,0.1504056602716446,0.14197339117527008,352.605224609375,352.59991455078125,3
1778785745.25972700,86444575,0.15824736654758453,0.15488199889659882,0.15671344101428986,0.15215082466602325,352.605224609375,352.598876953125,3
1778785745.35968685,86544535,0.15943953394889832,0.1552213877439499,0.1614571213722229,0.15966331958770752,352.605224609375,352.5977783203125,3
1778785745.45964694,86644495,0.1603441685438156,0.155488058924675,0.16398590803146362,0.16398665308952332,352.605224609375,352.5970153808594,3
1778785745.55960703,86744455,0.1612282395362854,0.15265145897865295,0.16512329876422882,0.1616774946451187,352.605224609375,352.5968017578125,3
1778785745.65956688,86844415,0.16234801709651947,0.15491506457328796,0.16570675373077393,0.16602055728435516,352.6052551269531,352.5966491699219,3
1778785745.75952697,86944375,0.1641823649406433,0.15860581398010254,0.16627678275108337,0.16794627904891968,352.6052551269531,352.596923828125,3
1778785745.85948682,87044335,0.16621099412441254,0.1502351015806198,0.16642636060714722,0.1723569929599762,352.6052551269531,352.59765625,3
1778785745.95944691,87144295,0.1695822775363922,0.15341725945472717,0.16619889438152313,0.1707984060049057,352.6052551269531,352.5986022949219,3
1778785746.05940700,87244255,0.17422960698604584,0.16010317206382751,0.1650412678718567,0.1648537516593933,352.6052551269531,352.59930419921875,3
1778785746.15936685,87344215,0.17871642112731934,0.16487842798233032,0.16479942202568054,0.16230793297290802,352.6052551269531,352.5997009277344,3
1778785746.25932693,87444175,0.18267947435379028,0.16566771268844604,0.16549238562583923,0.16424861550331116,352.60528564453125,352.5989990234375,3
1778785746.35928702,87544135,0.1890229880809784,0.17041459679603577,0.16802909970283508,0.16864043474197388,352.60528564453125,352.5990295410156,3
1778785746.45924687,87644095,0.1974976360797882,0.1779155731201172,0.1708199679851532,0.16707469522953033,352.60528564453125,352.5984802246094,3
1778785746.55920696,87744055,0.20757929980754852,0.18520070612430573,0.174591064453125,0.16462577879428864,352.6053161621094,352.5987243652344,3
1778785746.65999985,87844848,0.21684277057647705,0.20541653037071228,0.17832507193088531,0.16923746466636658,352.6053466796875,352.5986022949219,3
1778785746.75995994,87944808,0.22708003222942352,0.2232109159231186,0.1838289201259613,0.16891440749168396,352.6053771972656,352.5989685058594,3
1778785746.85992002,88044768,0.23534351587295532,0.23351994156837463,0.18896326422691345,0.17273175716400146,352.60540771484375,352.5995788574219,3
1778785746.95987988,88144728,0.24247010052204132,0.2428596019744873,0.19478708505630493,0.1832098364830017,352.60540771484375,352.5998229980469,3
1778785747.05983996,88244688,0.24736392498016357,0.2540077269077301,0.19928021728992462,0.1955271065235138,352.6054382324219,352.6004638671875,3
1778785747.15979981,88344648,0.24985678493976593,0.2546418309211731,0.20199409127235413,0.2008669078350067,352.6054382324219,352.6011962890625,3
1778785747.25975990,88444608,0.25011682510375977,0.25167393684387207,0.20285186171531677,0.20167171955108643,352.6054382324219,352.6005859375,3
1778785747.35971999,88544568,0.25048327445983887,0.2527780830860138,0.2033219039440155,0.1996358036994934,352.6054382324219,352.5993347167969,3
1778785747.45967984,88644528,0.2507847547531128,0.25555112957954407,0.20270846784114838,0.19648189842700958,352.6054382324219,352.59686279296875,3
1778785747.55963993,88744488,0.2522810697555542,0.2533637285232544,0.2032712697982788,0.1960681527853012,352.6054382324219,352.59368896484375,3
1778785747.65960002,88844448,0.2525404691696167,0.24952010810375214,0.20334608852863312,0.1993071436882019,352.6054382324219,352.5921936035156,3
1778785747.75955987,88944408,0.2522675096988678,0.24496082961559296,0.20319099724292755,0.19775953888893127,352.6054382324219,352.5953369140625,3
1778785747.85951996,89044368,0.2522675096988678,0.23999138176441193,0.20319099724292755,0.19430816173553467,352.6054382324219,352.5988464355469,3
1778785747.95948005,89144328,0.2559069097042084,0.24265329539775848,0.20788072049617767,0.1992366909980774,352.60546875,352.60107421875,3
1778785748.05943990,89244288,0.25995710492134094,0.245069682598114,0.21438650786876678,0.2067846655845642,352.6054992675781,352.6011657714844,3
1778785748.15939999,89344248,0.26638150215148926,0.252059668302536,0.2224150449037552,0.21306605637073517,352.60552978515625,352.5982666015625,3
1778785748.25935984,89444208,0.271949827671051,0.2580191195011139,0.22878846526145935,0.21842004358768463,352.6055603027344,352.5939025878906,3
1778785748.35931993,89544168,0.27810928225517273,0.2586742341518402,0.23484782874584198,0.22509030997753143,352.6055603027344,352.5914001464844,3
1778785748.45928001,89644128,0.28257399797439575,0.25936418771743774,0.23922768235206604,0.22812457382678986,352.6055908203125,352.5931701660156,3
1778785748.55923986,89744088,0.2872985601425171,0.26465559005737305,0.24356696009635925,0.23519037663936615,352.6056213378906,352.5982666015625,3
1778785748.65919995,89844048,0.2904922664165497,0.27441343665122986,0.24627576768398285,0.24574710428714752,352.6056213378906,352.5999755859375,3
1778785748.75999284,89944841,0.29158830642700195,0.2793133854866028,0.24701356887817383,0.24881486594676971,352.6056213378906,352.59765625,3
1778785748.85995293,90044801,0.2885797321796417,0.2766651511192322,0.24376794695854187,0.2435997724533081,352.6056213378906,352.5951843261719,3
1778785748.95991302,90144761,0.2839254140853882,0.27297279238700867,0.24068184196949005,0.23392777144908905,352.6055908203125,352.59478759765625,3
1778785749.05987287,90244721,0.2753395140171051,0.2650081217288971,0.23933640122413635,0.22901983559131622,352.6055908203125,352.5951843261719,3
1778785749.15983295,90344681,0.26794952154159546,0.25562724471092224,0.242746964097023,0.22849655151367188,352.6056213378906,352.595458984375,3
1778785749.25979304,90444641,0.2589653432369232,0.2497718334197998,0.24606789648532867,0.23342297971248627,352.6056213378906,352.5956726074219,3
1778785749.35975289,90544601,0.25211140513420105,0.24223650991916656,0.25014007091522217,0.23701705038547516,352.60565185546875,352.5947570800781,3
1778785749.45971298,90644561,0.2452356368303299,0.2351507842540741,0.2510049045085907,0.23998381197452545,352.60565185546875,352.5916442871094,3
1778785749.55967283,90744521,0.23966746032238007,0.22372618317604065,0.25151345133781433,0.2403784692287445,352.60565185546875,352.5894775390625,3
1778785749.65963292,90844481,0.23285327851772308,0.21477532386779785,0.24842935800552368,0.23686428368091583,352.6056213378906,352.5907897949219,3
1778785749.75959301,90944441,0.22706162929534912,0.20662511885166168,0.24434678256511688,0.2238290160894394,352.6055908203125,352.5936584472656,3
1778785749.85955286,91044401,0.22298559546470642,0.20004317164421082,0.24098007380962372,0.2135031819343567,352.6055908203125,352.59716796875,3
1778785749.95951295,91144361,0.2208796590566635,0.20317231118679047,0.23925869166851044,0.2061740756034851,352.6055603027344,352.60125732421875,3
1778785750.05947304,91244321,0.22130557894706726,0.20682860910892487,0.23987150192260742,0.2085760235786438,352.6055603027344,352.6036071777344,3
1778785750.15943289,91344281,0.22130557894706726,0.20992079377174377,0.23987150192260742,0.20971393585205078,352.6055603027344,352.6039123535156,3
1778785750.25939298,91444241,0.21988363564014435,0.21225301921367645,0.23865680396556854,0.2108677178621292,352.6055603027344,352.6017150878906,3
1778785750.35935283,91544201,0.2178199142217636,0.21089211106300354,0.23701009154319763,0.21707823872566223,352.6055603027344,352.59857177734375,3
1778785750.45931292,91644161,0.2149873971939087,0.2058812528848648,0.2341800332069397,0.22174106538295746,352.6055603027344,352.59771728515625,3
1778785750.55927300,91744121,0.21244671940803528,0.20179331302642822,0.23079277575016022,0.22075359523296356,352.60552978515625,352.60174560546875,3
1778785750.65923285,91844081,0.2111261487007141,0.20028837025165558,0.22550301253795624,0.22152233123779297,352.60552978515625,352.60498046875,3
1778785750.75919294,91944041,0.21112748980522156,0.20090597867965698,0.21919119358062744,0.21887652575969696,352.60552978515625,352.60595703125,3
1778785750.85998583,92044834,0.21132773160934448,0.20590171217918396,0.21113184094429016,0.21662519872188568,352.6054992675781,352.60394287109375,3
1778785750.95994592,92144794,0.21114343404769897,0.20811249315738678,0.20556607842445374,0.2139776349067688,352.60546875,352.6017761230469,3
1778785751.05990601,92244754,0.20899121463298798,0.2105228304862976,0.2016327679157257,0.20628996193408966,352.60546875,352.6004333496094,3
1778785751.15986586,92344714,0.2062472403049469,0.20483924448490143,0.20338965952396393,0.2015400230884552,352.60546875,352.60076904296875,3
1778785751.25982594,92444674,0.2016499787569046,0.2002379596233368,0.21001160144805908,0.20988084375858307,352.6054992675781,352.60382080078125,3
1778785751.35978603,92544634,0.19777074456214905,0.195376455783844,0.22102855145931244,0.21696686744689941,352.6055603027344,352.60491943359375,3
1778785751.45974588,92644594,0.1936538815498352,0.18888786435127258,0.2302093803882599,0.2229032963514328,352.6055908203125,352.603759765625,3
1778785751.55970597,92744554,0.19062739610671997,0.18396736681461334,0.23990754783153534,0.22713352739810944,352.60565185546875,352.60186767578125,3
1778785751.65966582,92844514,0.1879970282316208,0.18202391266822815,0.24696169793605804,0.23092438280582428,352.60565185546875,352.5985412597656,3
1778785751.75962591,92944474,0.18687422573566437,0.18046370148658752,0.2523023188114166,0.23796476423740387,352.6056823730469,352.5966796875,3
1778785751.85958600,93044434,0.18553467094898224,0.18425749242305756,0.2545201778411865,0.2436157912015915,352.6056823730469,352.5983581542969,3
1778785751.95954585,93144394,0.18480944633483887,0.18221065402030945,0.25537535548210144,0.2454117238521576,352.6056823730469,352.60382080078125,3
1778785752.05950594,93244354,0.18365931510925293,0.17744049429893494,0.25398921966552734,0.2427886724472046,352.6056823730469,352.6069641113281,3
1778785752.15946603,93344314,0.1825353056192398,0.176275372505188,0.2513664662837982,0.2373238205909729,352.60565185546875,352.6077575683594,3
1778785752.25942588,93444274,0.18185435235500336,0.17270292341709137,0.2467964142560959,0.23314911127090454,352.60565185546875,352.60626220703125,3
1778785752.35938597,93544234,0.1831994503736496,0.17448365688323975,0.2422242909669876,0.22899402678012848,352.60565185546875,352.60504150390625,3
1778785752.45934582,93644194,0.18656931817531586,0.17843350768089294,0.23600375652313232,0.22577530145645142,352.6056213378906,352.6029357910156,3
1778785752.55930591,93744154,0.1887471079826355,0.1800815761089325,0.2307441383600235,0.22209346294403076,352.6056213378906,352.6028137207031,3
1778785752.65926600,93844114,0.1886698454618454,0.1783583015203476,0.22456716001033783,0.2212141901254654,352.6055908203125,352.6037902832031,3
1778785752.75922585,93944074,0.18698738515377045,0.1764545440673828,0.21830664575099945,0.22366009652614594,352.6055908203125,352.6055603027344,3
1778785752.85918593,94044034,0.1830190122127533,0.17190805077552795,0.20929725468158722,0.22016514837741852,352.6055603027344,352.6056213378906,3
1778785752.95997882,94144827,0.17787650227546692,0.16617052257061005,0.1979367882013321,0.21270149946212769,352.60552978515625,352.603759765625,3
1778785753.05993891,94244787,0.1695801317691803,0.16059747338294983,0.1817677617073059,0.19469961524009705,352.6054992675781,352.6012268066406,3
1778785753.15989900,94344747,0.16226622462272644,0.15403439104557037,0.16335703432559967,0.1716056913137436,352.6054382324219,352.5990905761719,3
1778785753.25985885,94444707,0.15442174673080444,0.14616043865680695,0.14307446777820587,0.14302434027194977,352.6053771972656,352.5980224609375,3
1778785753.35981894,94544667,0.14883027970790863,0.14244063198566437,0.12687142193317413,0.12312853336334229,352.6053161621094,352.6014709472656,3
1778785753.45977902,94644627,0.14322997629642487,0.13783304393291473,0.11313450336456299,0.10197840631008148,352.6053161621094,352.6058044433594,3
1778785753.55973887,94744587,0.13976359367370605,0.1325739473104477,0.10444851964712143,0.080667644739151,352.60528564453125,352.6076354980469,3
1778785753.65969896,94844547,0.13749809563159943,0.13156011700630188,0.10036241263151169,0.06393763422966003,352.60528564453125,352.60601806640625,3
1778785753.75965881,94944507,0.13798463344573975,0.1307774782180786,0.10418927669525146,0.06464137136936188,352.60528564453125,352.60369873046875,3
1778785753.85961890,95044467,0.1386025995016098,0.13274410367012024,0.11031609773635864,0.08345877379179001,352.60528564453125,352.6020202636719,3
1778785753.95957899,95144427,0.13836590945720673,0.13402675092220306,0.11514849960803986,0.10041015595197678,352.6053161621094,352.5987243652344,3
1778785754.05953884,95244387,0.13726437091827393,0.1304238885641098,0.11689811944961548,0.10900121182203293,352.6053161621094,352.59466552734375,3
1778785754.15949893,95344347,0.13625293970108032,0.12869223952293396,0.11699938774108887,0.11097916215658188,352.60528564453125,352.59515380859375,3
1778785754.25945902,95444307,0.13328765332698822,0.12678205966949463,0.11335622519254684,0.11591152101755142,352.60528564453125,352.5983581542969,3
1778785754.35941887,95544267,0.1308673620223999,0.12282352149486542,0.10978908836841583,0.12148140370845795,352.60528564453125,352.598876953125,3
1778785754.45937896,95644227,0.12938885390758514,0.12167377024888992,0.10584191232919693,0.11926455795764923,352.60528564453125,352.5967712402344,3
1778785754.55933905,95744187,0.1298258751630783,0.12026698887348175,0.10277877748012543,0.1127462089061737,352.60528564453125,352.5931396484375,3
1778785754.65929890,95844147,0.1303604543209076,0.1099969744682312,0.10168742388486862,0.10617654025554657,352.60528564453125,352.59222412109375,3
1778785754.75925899,95944107,0.13624171912670135,0.11646225303411484,0.10438349843025208,0.10138865560293198,352.60528564453125,352.5954284667969,3
1778785754.85921884,96044067,0.14186789095401764,0.12398619204759598,0.10734289884567261,0.09810131788253784,352.60528564453125,352.5992431640625,3
1778785754.95917892,96144027,0.1481059491634369,0.1353408843278885,0.11373167484998703,0.09328755736351013,352.6053161621094,352.59906005859375,3
1778785755.05997205,96244820,0.15206123888492584,0.14471504092216492,0.12136845290660858,0.09825040400028229,352.6053161621094,352.59625244140625,3
1778785755.15993190,96344780,0.15475137531757355,0.14724738895893097,0.13143835961818695,0.1119270920753479,352.6053466796875,352.5920715332031,3
1778785755.25989199,96444740,0.1552828699350357,0.14804412424564362,0.1393294334411621,0.12669433653354645,352.6053466796875,352.5904235839844,3
1778785755.35985184,96544700,0.15499922633171082,0.1454465240240097,0.14553610980510712,0.13693110644817352,352.6053466796875,352.59295654296875,3
1778785755.45981193,96644660,0.1548551470041275,0.14508400857448578,0.1497219204902649,0.14837470650672913,352.6053771972656,352.59674072265625,3
1778785755.55977201,96744620,0.1543094515800476,0.14171777665615082,0.15127310156822205,0.15712523460388184,352.6053771972656,352.59716796875,3
1778785755.65973186,96844580,0.15407612919807434,0.14200109243392944,0.1516561061143875,0.1644347608089447,352.6053771972656,352.594482421875,3
1778785755.75969195,96944540,0.15407612919807434,0.14327950775623322,0.1516561061143875,0.1639401614665985,352.6053771972656,352.59124755859375,3
1778785755.85965204,97044500,0.15381836891174316,0.15124045312404633,0.14941230416297913,0.15632836520671844,352.6053771972656,352.59051513671875,3
1778785755.95961189,97144460,0.15474943816661835,0.15641704201698303,0.14405478537082672,0.14618481695652008,352.6053466796875,352.5936584472656,3
1778785756.05957198,97244420,0.15470926463603973,0.15514211356639862,0.13985402882099152,0.13822229206562042,352.6053466796875,352.5984802246094,3
1778785756.15953183,97344380,0.1537274420261383,0.15215057134628296,0.13709363341331482,0.13333694636821747,352.6053466796875,352.60076904296875,3
1778785756.25949192,97444340,0.15224874019622803,0.14646312594413757,0.1361512541770935,0.12966452538967133,352.6053466796875,352.5998229980469,3
1778785756.35945201,97544300,0.150615394115448,0.1465235948562622,0.1376216560602188,0.12626498937606812,352.6053466796875,352.5970764160156,3
1778785756.45941186,97644260,0.149416983127594,0.1484142243862152,0.14043790102005005,0.12759935855865479,352.6053466796875,352.595947265625,3
1778785756.55937195,97744220,0.14833852648735046,0.1467350870370865,0.1436631828546524,0.13481247425079346,352.6053466796875,352.59710693359375,3
1778785756.65933204,97844180,0.14676447212696075,0.14262770116329193,0.14545990526676178,0.1406085193157196,352.6053466796875,352.59515380859375,3
1778785756.75929189,97944140,0.1457715779542923,0.1399528682231903,0.14596374332904816,0.14478354156017303,352.6053466796875,352.5906982421875,3
1778785756.85925198,98044100,0.1436222791671753,0.13471254706382751,0.14509037137031555,0.14384618401527405,352.6053466796875,352.5877685546875,3
1778785756.95921183,98144060,0.14114855229854584,0.12806719541549683,0.14421239495277405,0.13911980390548706,352.6053466796875,352.58953857421875,3
1778785757.06000495,98244853,0.13993632793426514,0.12433358281850815,0.14368633925914764,0.13984045386314392,352.6053466796875,352.5940856933594,3
1778785757.15996504,98344813,0.14092551171779633,0.12592986226081848,0.14479832351207733,0.13467498123645782,352.6053466796875,352.5972595214844,3
1778785757.25992489,98444773,0.14164908230304718,0.13185225427150726,0.14506599307060242,0.1297803521156311,352.6053466796875,352.596923828125,3
1778785757.35988498,98544733,0.14190030097961426,0.13245683908462524,0.14511293172836304,0.12567827105522156,352.6053466796875,352.5943908691406,3
1778785757.45984483,98644693,0.14205236732959747,0.13407070934772491,0.14524394273757935,0.12601350247859955,352.6053466796875,352.5915222167969,3
1778785757.55980492,98744653,0.14205236732959747,0.1369706392288208,0.14524394273757935,0.1317264884710312,352.6053466796875,352.5924987792969,3
1778785757.65976501,98844613,0.14205236732959747,0.13924014568328857,0.14524394273757935,0.13133201003074646,352.6053466796875,352.59625244140625,3
1778785757.75972486,98944573,0.14205236732959747,0.1349913775920868,0.14524394273757935,0.13161404430866241,352.6053466796875,352.5972595214844,3
1778785757.85968494,99044533,0.14205236732959747,0.13441771268844604,0.14524394273757935,0.13186898827552795,352.6053466796875,352.5945739746094,3
1778785757.95964503,99144493,0.14205236732959747,0.13345350325107574,0.14524394273757935,0.1318962126970291,352.6053466796875,352.59063720703125,3
1778785758.05960488,99244453,0.14205236732959747,0.12856918573379517,0.14524394273757935,0.13315965235233307,352.6053466796875,352.58685302734375,3
1778785758.15956497,99344413,0.1432725489139557,0.1220848485827446,0.14869889616966248,0.13695840537548065,352.6053466796875,352.58807373046875,3
1778785758.25952482,99444373,0.1449689120054245,0.12278489023447037,0.15303531289100647,0.14682637155056,352.6053466796875,352.5918273925781,3
1778785758.35948491,99544333,0.14814120531082153,0.13238464295864105,0.15605787932872772,0.15888932347297668,352.6053771972656,352.59405517578125,3
1778785758.45944500,99644293,0.14987805485725403,0.13651052117347717,0.154850572347641,0.16104769706726074,352.6053771972656,352.59283447265625,3
1778785758.55940485,99744253,0.15072907507419586,0.13944458961486816,0.15135426819324493,0.15526151657104492,352.6053466796875,352.5898742675781,3
1778785758.65936494,99844213,0.14949609339237213,0.14559365808963776,0.1445692479610443,0.14587265253067017,352.6053466796875,352.58856201171875,3
1778785758.75932503,99944173,0.14789052307605743,0.15045170485973358,0.1391938179731369,0.1362498700618744,352.6053466796875,352.5918884277344,3
1778785758.85928488,100044133,0.14485545456409454,0.15036174654960632,0.1350725144147873,0.12797194719314575,352.6053466796875,352.5958557128906,3
1778785758.95924497,100144093,0.14169970154762268,0.14231528341770172,0.13245314359664917,0.11810526251792908,352.6053161621094,352.5960998535156,3
1778785759.05920482,100244053,0.13752441108226776,0.13407281041145325,0.13074955344200134,0.11003368347883224,352.6053161621094,352.5936584472656,3
1778785759.15999794,100344846,0.134281188249588,0.12951220571994781,0.1314416527748108,0.11284049600362778,352.6053161621094,352.5909423828125,3
1778785759.25995803,100444806,0.1330839842557907,0.1271427720785141,0.13227961957454681,0.11586897820234299,352.6053161621094,352.59100341796875,3
1778785759.35991788,100544766,0.1330132633447647,0.12607836723327637,0.13404220342636108,0.12088828533887863,352.6053161621094,352.5953674316406,3
1778785759.45987797,100644726,0.13314610719680786,0.12399820983409882,0.13638043403625488,0.12877941131591797,352.6053161621094,352.5993957519531,3
1778785759.55983782,100744686,0.1329028457403183,0.12576505541801453,0.13715451955795288,0.13817349076271057,352.6053161621094,352.59954833984375,3
1778785759.65979791,100844646,0.13284555077552795,0.12196660041809082,0.13733668625354767,0.14586696028709412,352.6053161621094,352.5967102050781,3
1778785759.75975800,100944606,0.13284555077552795,0.12119981646537781,0.13733668625354767,0.14607132971286774,352.6053161621094,352.5915832519531,3
1778785759.85971785,101044566,0.13331511616706848,0.1263987123966217,0.13374555110931396,0.13747350871562958,352.6053161621094,352.5877685546875,3
1778785759.95967793,101144526,0.13581232726573944,0.13400939106941223,0.12838353216648102,0.12903903424739838,352.6053161621094,352.58892822265625,3
1778785760.05963802,101244486,0.1367204189300537,0.13522805273532867,0.12447386980056763,0.12042084336280823,352.6053161621094,352.5934753417969,3
1778785760.15959787,101344446,0.13636085391044617,0.13432811200618744,0.12227817624807358,0.11777231842279434,352.6053161621094,352.59661865234375,3
1778785760.25955796,101444406,0.13545198738574982,0.13033050298690796,0.12157882750034332,0.11370451748371124,352.6053161621094,352.5959777832031,3
1778785760.35951781,101544366,0.1366443634033203,0.12590402364730835,0.12481828778982162,0.11291274428367615,352.6053161621094,352.5931091308594,3
1778785760.45947790,101644326,0.1386502981185913,0.1331685483455658,0.12807850539684296,0.11839304119348526,352.6053161621094,352.5921936035156,3
1778785760.55943799,101744286,0.14235489070415497,0.13628968596458435,0.13154356181621552,0.11806733906269073,352.6053161621094,352.5951843261719,3
1778785760.65939784,101844246,0.1453147679567337,0.1383667141199112,0.13398447632789612,0.1278768926858902,352.6053161621094,352.5973815917969,3
1778785760.75935793,101944206,0.14862672984600067,0.13869604468345642,0.13599823415279388,0.13644009828567505,352.6053466796875,352.5961608886719,3
1778785760.85931802,102044166,0.15157926082611084,0.14027558267116547,0.1353759765625,0.1386367827653885,352.6053466796875,352.592529296875,3
1778785760.95927787,102144126,0.15631070733070374,0.14317569136619568,0.13265644013881683,0.13050179183483124,352.6053466796875,352.5882263183594,3
1778785761.05923796,102244086,0.15887650847434998,0.14690537750720978,0.13140468299388885,0.12605679035186768,352.6053466796875,352.5867919921875,3
1778785761.15919805,102344046,0.16026978194713593,0.1496654450893402,0.13057148456573486,0.12440215051174164,352.6053466796875,352.5897216796875,3
1778785761.25999093,102444839,0.16077850759029388,0.15274016559123993,0.13026730716228485,0.11950629204511642,352.6053466796875,352.5943603515625,3
1778785761.35995102,102544799,0.160831019282341,0.14831256866455078,0.13023591041564941,0.114108145236969,352.6053466796875,352.5955505371094,3
1778785761.45991087,102644759,0.160831019282341,0.14811769127845764,0.13023591041564941,0.10991150885820389,352.6053466796875,352.5932312011719,3
1778785761.55987096,102744719,0.160831019282341,0.14877642691135406,0.13023591041564941,0.1092168390750885,352.6053466796875,352.5892333984375,3
1778785761.65983105,102844679,0.160831019282341,0.1561478227376938,0.13023591041564941,0.1115272268652916,352.6053466796875,352.5880126953125,3
1778785761.75979090,102944639,0.15953856706619263,0.16006888449192047,0.13570569455623627,0.12063094228506088,352.6053466796875,352.5898742675781,3
1778785761.85975099,103044599,0.15386606752872467,0.153534397482872,0.14191894233226776,0.12990957498550415,352.6053466796875,352.5895080566406,3
1778785761.95971084,103144559,0.14858703315258026,0.14609044790267944,0.14568659663200378,0.13772335648536682,352.6053466796875,352.5863342285156,3
1778785762.05967093,103244519,0.1436453014612198,0.13378457725048065,0.14777620136737823,0.14291130006313324,352.6053466796875,352.58447265625,3
1778785762.15963101,103344479,0.14088939130306244,0.12416569888591766,0.1474979966878891,0.1433757096529007,352.6053466796875,352.5874938964844,3
1778785762.25959086,103444439,0.13996511697769165,0.12241515517234802,0.1455620527267456,0.14216656982898712,352.6053466796875,352.5923767089844,3
1778785762.35955095,103544399,0.14117193222045898,0.1293889880180359,0.14218270778656006,0.13213583827018738,352.6053466796875,352.59454345703125,3
1778785762.45951104,103644359,0.14440375566482544,0.13265256583690643,0.13805115222930908,0.12405967712402344,352.6053466796875,352.5929870605469,3
1778785762.55947089,103744319,0.14559027552604675,0.1369316726922989,0.13648326694965363,0.12171614915132523,352.6053466796875,352.58917236328125,3
1778785762.65943098,103844279,0.14343681931495667,0.1355351358652115,0.13503336906433105,0.12347674369812012,352.6053161621094,352.5860595703125,3
1778785762.75939083,103944239,0.14061787724494934,0.13447993993759155,0.13447433710098267,0.12521877884864807,352.6053161621094,352.5870056152344,3
1778785762.85935092,104044199,0.13764354586601257,0.13384421169757843,0.13378466665744781,0.12661755084991455,352.6053161621094,352.5909729003906,3
1778785762.95931101,104144159,0.13514813780784607,0.13018956780433655,0.13298140466213226,0.12411964684724808,352.6053161621094,352.5931396484375,3
1778785763.05927086,104244119,0.1319270133972168,0.1290282905101776,0.1312006562948227,0.1223154067993164,352.6053161621094,352.5914306640625,3
1778785763.15923095,104344079,0.12900492548942566,0.12499366700649261,0.12952223420143127,0.12193161994218826,352.6053161621094,352.5873718261719,3
1778785763.25919104,104444039,0.1266147941350937,0.11649930477142334,0.12776578962802887,0.12309635430574417,352.6053161621094,352.58599853515625,3
1778785763.35998392,104544832,0.12545154988765717,0.10878510028123856,0.1264490932226181,0.1211484745144844,352.60528564453125,352.5882263183594,3
1778785763.45994401,104644792,0.12522584199905396,0.11330962926149368,0.1258908212184906,0.12628960609436035,352.60528564453125,352.59088134765625,3
1778785763.55990386,104744752,0.12662729620933533,0.11822634190320969,0.12483341246843338,0.13357870280742645,352.60528564453125,352.5909423828125,3
1778785763.65986395,104844712,0.12441077083349228,0.11531417071819305,0.12066363543272018,0.12858635187149048,352.60528564453125,352.58880615234375,3
1778785763.75982404,104944672,0.12064235657453537,0.11377016454935074,0.11600624769926071,0.12019965052604675,352.60528564453125,352.58660888671875,3
1778785763.85978389,105044632,0.11491583287715912,0.1118633970618248,0.11117714643478394,0.11342090368270874,352.60528564453125,352.5883483886719,3
1778785763.95974398,105144592,0.10953173041343689,0.10954151302576065,0.10841918736696243,0.10767019540071487,352.6052551269531,352.5933837890625,3
1778785764.05970383,105244552,0.10431567579507828,0.09971603006124496,0.10692522674798965,0.09736457467079163,352.6052551269531,352.59637451171875,3
1778785764.15966392,105344512,0.10044073313474655,0.0949341431260109,0.10853024572134018,0.08955156058073044,352.6052551269531,352.5956726074219,3
1778785764.25962400,105444472,0.09780693799257278,0.09206361323595047,0.11249298602342606,0.09276825189590454,352.6052551269531,352.59259033203125,3
1778785764.35958385,105544432,0.09641224145889282,0.08954908698797226,0.11837061494588852,0.10375801473855972,352.6052551269531,352.589111328125,3
1778785764.45954394,105644392,0.09664018452167511,0.08656772971153259,0.12273348867893219,0.11364167183637619,352.6052551269531,352.5888366699219,3
1778785764.55950403,105744352,0.09875508397817612,0.08543738722801208,0.1251809298992157,0.12190277129411697,352.6052551269531,352.5921936035156,3
1778785764.65946388,105844312,0.10141386091709137,0.09079299122095108,0.12568733096122742,0.12485192716121674,352.60528564453125,352.59356689453125,3
1778785764.75942397,105944272,0.10567765682935715,0.09515507519245148,0.1244957223534584,0.12704546749591827,352.60528564453125,352.5919189453125,3
1778785764.85938382,106044232,0.10892201960086823,0.10220395028591156,0.12151098251342773,0.12618105113506317,352.60528564453125,352.5889892578125,3
1778785764.95934391,106144192,0.11136932671070099,0.10653181374073029,0.11928552389144897,0.11913806200027466,352.60528564453125,352.5894775390625,3
1778785765.05930400,106244152,0.1126168966293335,0.10942354053258896,0.1183837503194809,0.11881277710199356,352.60528564453125,352.593505859375,3
1778785765.15926385,106344112,0.11307022720575333,0.10926598310470581,0.11805598437786102,0.11902488768100739,352.60528564453125,352.5971374511719,3
1778785765.25922394,106444072,0.11201725900173187,0.10834194719791412,0.11594085395336151,0.12212958931922913,352.60528564453125,352.5963439941406,3
1778785765.35918403,106544032,0.10958199203014374,0.10239413380622864,0.11208871006965637,0.12448988854885101,352.6052551269531,352.5927429199219,3
1778785765.45997691,106644825,0.1055859923362732,0.09755868464708328,0.1065836027264595,0.11429369449615479,352.6052551269531,352.5896301269531,3
1778785765.55993700,106744785,0.10240709036588669,0.09334664791822433,0.10277477651834488,0.1075311079621315,352.6052551269531,352.591064453125,3
1778785765.65989685,106844745,0.09986031800508499,0.09033410996198654,0.10054714977741241,0.10033684968948364,352.6052551269531,352.5950927734375,3
1778785765.75985694,106944705,0.09765053540468216,0.08724957704544067,0.09955950081348419,0.09316200017929077,352.6052551269531,352.5964660644531,3
1778785765.85981703,107044665,0.09419721364974976,0.08529399335384369,0.10181717574596405,0.08746156841516495,352.6052551269531,352.5936279296875,3
1778785765.95977688,107144625,0.09311088919639587,0.08242560923099518,0.10546333342790604,0.0912138819694519,352.6052551269531,352.5896911621094,3
1778785766.05973697,107244585,0.09463518112897873,0.0759579986333847,0.11054334789514542,0.09939128160476685,352.6052551269531,352.58831787109375,3
1778785766.15969682,107344545,0.09829384088516235,0.0779309943318367,0.11577872931957245,0.10751738399267197,352.6052551269531,352.59063720703125,3
1778785766.25965691,107444505,0.10271792113780975,0.08663344383239746,0.12008393555879593,0.11413101106882095,352.60528564453125,352.59515380859375,3
1778785766.35961699,107544465,0.10599362105131149,0.09694540500640869,0.12236221879720688,0.11379892379045486,352.60528564453125,352.5973205566406,3
1778785766.45957685,107644425,0.10769850760698318,0.1005781888961792,0.12344937771558762,0.11419423669576645,352.60528564453125,352.5953369140625,3
1778785766.55953693,107744385,0.10839946568012238,0.1025305911898613,0.12358321994543076,0.11426665633916855,352.60528564453125,352.5913391113281,3
1778785766.65949702,107844345,0.10853269696235657,0.10479538142681122,0.12360866367816925,0.11542501300573349,352.60528564453125,352.586669921875,3
1778785766.75945687,107944305,0.10853269696235657,0.10924726724624634,0.12360866367816925,0.11519033461809158,352.60528564453125,352.5870666503906,3
1778785766.85941696,108044265,0.10853269696235657,0.11315985023975372,0.12360866367816925,0.11298343539237976,352.60528564453125,352.5909423828125,3
1778785766.95937681,108144225,0.10853269696235657,0.11180303245782852,0.12360866367816925,0.11020104587078094,352.60528564453125,352.5957336425781,3
1778785767.05933690,108244185,0.10725324600934982,0.1101032942533493,0.12261630594730377,0.10596112906932831,352.60528564453125,352.5957946777344,3
1778785767.15929699,108344145,0.10428237169981003,0.10361041873693466,0.12134873867034912,0.10244829952716827,352.60528564453125,352.5927429199219,3
1778785767.25925684,108444105,0.10184439271688461,0.09995102137327194,0.12072665244340897,0.10584577172994614,352.6052551269531,352.58819580078125,3
1778785767.35921693,108544065,0.10021240264177322,0.09004125744104385,0.12034434825181961,0.11134336143732071,352.6052551269531,352.5871276855469,3
1778785767.45917702,108644025,0.0994848906993866,0.08229673653841019,0.12002289295196533,0.11623267084360123,352.6052551269531,352.58929443359375,3
1778785767.55996990,108744818,0.09924327582120895,0.08776513487100601,0.11988206207752228,0.11874345690011978,352.6052551269531,352.5917663574219,3
1778785767.65992999,108844778,0.09927600622177124,0.09055710583925247,0.11987440288066864,0.1225653886795044,352.6052551269531,352.59027099609375,3
1778785767.75988984,108944738,0.10331659018993378,0.09401120990514755,0.11965040862560272,0.12552402913570404,352.60528564453125,352.5867004394531,3
1778785767.85984993,109044698,0.10881412774324417,0.09898363053798676,0.115780770778656,0.11853684484958649,352.60528564453125,352.58355712890625,3
1778785767.95981002,109144658,0.11228862404823303,0.09924712777137756,0.11154162883758545,0.11316987872123718,352.60528564453125,352.5841064453125,3
1778785768.05976987,109244618,0.11355118453502655,0.09961170703172684,0.11000117659568787,0.11801755428314209,352.60528564453125,352.58587646484375,3
1778785768.15972996,109344578,0.11533312499523163,0.10006347298622131,0.10939224064350128,0.11670942604541779,352.60528564453125,352.5880432128906,3
1778785768.25969005,109444538,0.11876186728477478,0.10411015897989273,0.10759052634239197,0.11328834295272827,352.60528564453125,352.5911560058594,3
1778785768.35964990,109544498,0.12183739989995956,0.11192690581083298,0.10522393882274628,0.10770512372255325,352.60528564453125,352.5931701660156,3
1778785768.45960999,109644458,0.12296498566865921,0.11631806194782257,0.1043616458773613,0.10323294252157211,352.60528564453125,352.5922546386719,3
1778785768.55956984,109744418,0.12356960028409958,0.11845767498016357,0.10499907284975052,0.09944994002580643,352.60528564453125,352.5914001464844,3
1778785768.65952992,109844378,0.1235363706946373,0.12030907720327377,0.10539719462394714,0.09619785100221634,352.60528564453125,352.5909729003906,3
1778785768.75949001,109944338,0.12331723421812057,0.12167011201381683,0.10543911904096603,0.09625501930713654,352.60528564453125,352.59356689453125,3
1778785768.85944986,110044298,0.12101328372955322,0.11965715885162354,0.10598517209291458,0.09400302171707153,352.60528564453125,352.595947265625,3
1778785768.95940995,110144258,0.1151948794722557,0.11661849915981293,0.11136645078659058,0.09168271720409393,352.60528564453125,352.593994140625,3
1778785769.05937004,110244218,0.10869081318378448,0.10630028694868088,0.11682664602994919,0.09107451885938644,352.60528564453125,352.5899658203125,3
1778785769.15932989,110344178,0.10511107742786407,0.0969017744064331,0.12138502299785614,0.10062398761510849,352.60528564453125,352.5868225097656,3
1778785769.25928998,110444138,0.10337009280920029,0.09764152765274048,0.12519749999046326,0.11037096381187439,352.60528564453125,352.58721923828125,3
1778785769.35924983,110544098,0.1027398556470871,0.0979699194431305,0.12757764756679535,0.11605260521173477,352.60528564453125,352.58868408203125,3
1778785769.45920992,110644058,0.10252930223941803,0.09938737004995346,0.1286119669675827,0.11825830489397049,352.60528564453125,352.58929443359375,3
1778785769.56000304,110744851,0.10246095061302185,0.09453944116830826,0.12894779443740845,0.11401810497045517,352.60528564453125,352.58905029296875,3
1778785769.65996289,110844811,0.1028461754322052,0.09375597536563873,0.12888367474079132,0.11548726260662079,352.60528564453125,352.590576171875,3
1778785769.75992298,110944771,0.11128480732440948,0.1037553995847702,0.128558948636055,0.11630633473396301,352.60528564453125,352.593505859375,3
1778785769.85988283,111044731,0.119984470307827,0.11534365266561508,0.12642744183540344,0.11488049477338791,352.60528564453125,352.59356689453125,3
1778785769.95984292,111144691,0.1272333860397339,0.12365728616714478,0.12555229663848877,0.11345833539962769,352.6053161621094,352.590087890625,3
1778785770.05980301,111244651,0.13168755173683167,0.12402082234621048,0.12489955127239227,0.11384211480617523,352.6053161621094,352.5868225097656,3
1778785770.15976286,111344611,0.13427510857582092,0.12401025742292404,0.12466870248317719,0.1169123575091362,352.6053161621094,352.5877990722656,3
1778785770.25972295,111444571,0.1356649100780487,0.12467363476753235,0.1235789805650711,0.12016838043928146,352.6053161621094,352.5917053222656,3
1778785770.35968304,111544531,0.13595780730247498,0.12666207551956177,0.12243600189685822,0.11434008181095123,352.6053161621094,352.594482421875,3
1778785770.45964289,111644491,0.1373409777879715,0.1319190412759781,0.12026096135377884,0.10810334980487823,352.6053161621094,352.5927429199219,3
