timestamp,TimeUS,DesRoll,Roll,DesPitch,Pitch,DesYaw,Yaw,AEKF
1778782973.16001606,52344054,-0.00014208360516931862,0.06457260996103287,8.693504787515849e-05,0.05230273678898811,354.92230224609375,354.92230224609375,3
1778782973.26080918,52444847,-0.0001420836488250643,0.06450337916612625,8.693504787515849e-05,0.052336473017930984,354.9201354980469,354.9201354980469,3
1778782973.36076903,52544807,-0.00014208361972123384,0.06452619284391403,8.693506242707372e-05,0.05240785703063011,354.9177551269531,354.9177551269531,3
1778782973.46072912,52644767,-0.00014208363427314907,0.0645720511674881,8.693503332324326e-05,0.05245475471019745,354.9150085449219,354.9150085449219,3
1778782973.56068897,52744727,-0.00014208366337697953,0.06480037420988083,8.69350551511161e-05,0.0527733750641346,354.9120178222656,354.9120178222656,3
1778782973.66064906,52844687,-0.00014208363427314907,0.06501354277133942,8.69350551511161e-05,0.05296642333269119,354.90911865234375,354.90911865234375,3
1778782973.76060915,52944647,-0.00014208361972123384,0.06544476747512817,8.693507697898895e-05,0.05311460793018341,354.90606689453125,354.90606689453125,3
1778782973.86056900,53044607,-0.00014208366337697953,0.06590759754180908,8.69351060828194e-05,0.053625721484422684,354.9031677246094,354.9031677246094,3
1778782973.96052909,53144567,-0.00014208363427314907,0.06646068394184113,8.693508425494656e-05,0.054303042590618134,354.9003601074219,354.9003601074219,3
1778782974.06048918,53244527,-0.00014208357606548816,0.06722719967365265,8.693509153090417e-05,0.055189769715070724,354.89678955078125,354.89678955078125,3
1778782974.16044903,53344487,-0.0001420835469616577,0.0681583508849144,8.693506970303133e-05,0.055967073887586594,354.8936767578125,354.8936767578125,3
1778782974.26040912,53444447,-0.00014208356151357293,0.06933998316526413,8.69350551511161e-05,0.05701947584748268,354.8903503417969,354.8903503417969,3
1778782974.36036897,53544407,-0.00014208351785782725,0.07049188017845154,8.693504787515849e-05,0.05821733921766281,354.8874206542969,354.8874206542969,3
1778782974.46032906,53644367,-0.00014208350330591202,0.0717739537358284,8.693503332324326e-05,0.0595589242875576,354.884521484375,354.884521484375,3
1778782974.56028914,53744327,-0.00014208351785782725,0.0730559378862381,8.693503332324326e-05,0.06091086193919182,354.88153076171875,354.88153076171875,3
1778782974.66024899,53844287,-0.00014208356151357293,0.07438936829566956,8.693503332324326e-05,0.06224440410733223,354.8782043457031,354.8782043457031,3
1778782974.76020908,53944247,-0.00014208356151357293,0.0758361741900444,8.693504059920087e-05,0.06361564993858337,354.8750915527344,354.8750915527344,3
1778782974.86016917,54044207,-0.00014208357606548816,0.07750458270311356,8.693501149537042e-05,0.06507608294487,354.87188720703125,354.87188720703125,3
1778782974.96012902,54144167,-0.00014208356151357293,0.07910418510437012,8.693502604728565e-05,0.06662261486053467,354.8688659667969,354.8688659667969,3
1778782975.06008911,54244127,-0.0001420835906174034,0.08058635890483856,8.693504059920087e-05,0.06812899559736252,354.8656921386719,354.8656921386719,3
1778782975.16004896,54344087,-0.00014208357606548816,0.08211800456047058,8.693502604728565e-05,0.06969229876995087,354.8624572753906,354.8624572753906,3
1778782975.26000905,54444047,-0.00014208361972123384,0.08356014639139175,8.693501877132803e-05,0.07115647196769714,354.8594055175781,354.8594055175781,3
1778782975.36080217,54544840,-0.00014208356151357293,0.08504487574100494,8.693501149537042e-05,0.07248026132583618,354.8562927246094,354.8562927246094,3
1778782975.46076202,54644800,-0.00014208357606548816,0.08644811064004898,8.69350042194128e-05,0.07390294969081879,354.8537292480469,354.8537292480469,3
1778782975.56072211,54744760,-0.00014208356151357293,0.08783674240112305,8.69350042194128e-05,0.07568203657865524,354.8507995605469,354.8507995605469,3
1778782975.66068196,54844720,-0.00014208356151357293,0.0891416147351265,8.69350042194128e-05,0.07725632190704346,354.8478698730469,354.847900390625,3
1778782975.76064205,54944680,-0.0001420835469616577,0.09064339846372604,8.69350042194128e-05,0.07867489010095596,354.84442138671875,354.84442138671875,3
1778782975.86060214,55044640,-0.0001420835469616577,0.09231630712747574,8.693499694345519e-05,0.08038589358329773,354.8411560058594,354.8411560058594,3
1778782975.96056199,55144600,-0.00014208357606548816,0.09368330985307693,8.693498966749758e-05,0.0818081945180893,354.8377380371094,354.8377380371094,3
1778782976.06052208,55244560,-0.00014208356151357293,0.095479317009449,8.69350042194128e-05,0.08342117071151733,354.8340759277344,354.8340759277344,3
1778782976.16048217,55344520,-0.0001420835469616577,0.09715612232685089,8.693498239153996e-05,0.08507348597049713,354.8307189941406,354.8307189941406,3
1778782976.26044202,55444480,-0.00014208353240974247,0.09877762943506241,8.693497511558235e-05,0.08675152063369751,354.82745361328125,354.82745361328125,3
1778782976.36040211,55544440,-0.00014208351785782725,0.10052989423274994,8.693497511558235e-05,0.08847998082637787,354.82379150390625,354.82379150390625,3
1778782976.46036196,55644400,-0.00014208345965016633,0.10245443135499954,8.693496783962473e-05,0.09014960378408432,354.82037353515625,354.82037353515625,3
1778782976.56032205,55744360,-0.0001420834450982511,0.10410574823617935,8.693494601175189e-05,0.09171943366527557,354.8168640136719,354.8168640136719,3
1778782976.66028214,55844320,-0.00014208353240974247,0.10588338971138,8.69349532877095e-05,0.09331600368022919,354.8132019042969,354.8132019042969,3
1778782976.76024199,55944280,-0.00014208351785782725,0.10742166638374329,8.69349532877095e-05,0.09507942199707031,354.8095397949219,354.8095397949219,3
1778782976.86020207,56044240,-0.00014208353240974247,0.10901038348674774,8.69349532877095e-05,0.0967416763305664,354.8058776855469,354.8058776855469,3
1778782976.96016216,56144200,-0.00014208353240974247,0.11065394431352615,8.69349532877095e-05,0.09850741177797318,354.802001953125,354.802001953125,3
1778782977.06012201,56244160,-0.00014208350330591202,0.11217325925827026,8.693496056366712e-05,0.10005048662424088,354.7984313964844,354.7984313964844,3
1778782977.16008210,56344120,-0.00014208356151357293,0.11393307149410248,8.693496056366712e-05,0.10199395567178726,354.79473876953125,354.79473876953125,3
1778782977.26004219,56444080,-0.0001420835906174034,0.11577660590410233,8.693496056366712e-05,0.10366913676261902,354.7911071777344,354.7911071777344,3
1778782977.36000204,56544040,-0.00014208357606548816,0.1173168197274208,8.693492418387905e-05,0.10548301041126251,354.7872619628906,354.7872619628906,3
1778782977.46079516,56644833,-0.00014208357606548816,0.11908926069736481,8.693489508004859e-05,0.10728036612272263,354.7833251953125,354.7833251953125,3
1778782977.56075501,56744793,-0.00014208356151357293,0.12086060643196106,8.693488780409098e-05,0.10912173241376877,354.7793884277344,354.7793884277344,3
1778782977.66071510,56844753,-0.00014208356151357293,0.12222903966903687,8.69348514243029e-05,0.11085089296102524,354.77581787109375,354.77581787109375,3
1778782977.76067519,56944713,-0.00014208353240974247,0.1238684356212616,8.693484414834529e-05,0.11275292932987213,354.7723083496094,354.7723083496094,3
1778782977.86063504,57044673,-0.00014208356151357293,0.12581868469715118,8.69348514243029e-05,0.11453678458929062,354.76861572265625,354.76861572265625,3
1778782977.96059513,57144633,-0.00014208350330591202,0.12728209793567657,8.693485870026052e-05,0.11637642234563828,354.76507568359375,354.76507568359375,3
1778782978.06055498,57244593,-0.0001420834887539968,0.12887296080589294,8.693485870026052e-05,0.11794064193964005,354.76116943359375,354.76116943359375,3
1778782978.16051507,57344553,-0.00014208343054633588,0.13049179315567017,8.693486597621813e-05,0.11965031176805496,354.7570495605469,354.7570495605469,3
1778782978.26047516,57444513,-0.00014208345965016633,0.13213399052619934,8.693485870026052e-05,0.12141045928001404,354.75299072265625,354.75299072265625,3
1778782978.36043501,57544473,-0.00014208343054633588,0.13377439975738525,8.693481504451483e-05,0.12291882932186127,354.7491455078125,354.7491455078125,3
1778782978.46039510,57644433,-0.00014208343054633588,0.13540230691432953,8.69348004925996e-05,0.12478037178516388,354.7452087402344,354.7452087402344,3
1778782978.56035519,57744393,-0.00014208343054633588,0.13713973760604858,8.693478594068438e-05,0.1263890117406845,354.74127197265625,354.74127197265625,3
1778782978.66031504,57844353,-0.00014208343054633588,0.13897499442100525,8.693479321664199e-05,0.12804743647575378,354.7372741699219,354.7372741699219,3
1778782978.76027513,57944313,-0.00014208340144250542,0.14043211936950684,8.693477138876915e-05,0.129591166973114,354.7332763671875,354.7332763671875,3
1778782978.86023498,58044273,-0.00014208335778675973,0.14198051393032074,8.693475683685392e-05,0.13117513060569763,354.7294616699219,354.7294616699219,3
1778782978.96019506,58144233,-0.0001420833432348445,0.1435689479112625,8.693477866472676e-05,0.13292627036571503,354.725341796875,354.725341796875,3
1778782979.06015515,58244193,-0.0001420833432348445,0.14507925510406494,8.693474956089631e-05,0.1344534158706665,354.721435546875,354.721435546875,3
1778782979.16011500,58344153,-0.0001420833868905902,0.14678697288036346,8.693474956089631e-05,0.13581185042858124,354.71728515625,354.71728515625,3
1778782979.26007509,58444113,-0.0001420833432348445,0.14832185208797455,8.693476411281154e-05,0.13715313374996185,354.71337890625,354.71337890625,3
1778782979.36003518,58544073,-0.00014208337233867496,0.1500658392906189,8.69348004925996e-05,0.13842397928237915,354.70928955078125,354.70928955078125,3
1778782979.45999503,58644033,-0.0001420833432348445,0.15162761509418488,8.693477866472676e-05,0.13948588073253632,354.7054138183594,354.7054138183594,3
1778782979.56078815,58744826,-0.00014208331413101405,0.1531168818473816,8.693474956089631e-05,0.14096148312091827,354.70111083984375,354.70111083984375,3
1778782979.66074800,58844786,-0.0001420832413714379,0.1544443964958191,8.693474228493869e-05,0.14243248105049133,354.6970520019531,354.6970520019531,3
1778782979.76070809,58944746,-0.00014208322681952268,0.15554912388324738,8.693472773302346e-05,0.14391741156578064,354.69305419921875,354.69305419921875,3
1778782979.86066818,59044706,-0.00014208319771569222,0.1566702425479889,8.693471318110824e-05,0.14522311091423035,354.6890563964844,354.6890563964844,3
1778782979.96062803,59144666,-0.00014208316861186177,0.15799592435359955,8.693470590515062e-05,0.14634127914905548,354.6847839355469,354.6847839355469,3
1778782980.06058812,59244626,-0.00014208306674845517,0.15929408371448517,8.693468407727778e-05,0.14750632643699646,354.680908203125,354.680908203125,3
1778782980.16054797,59344586,-0.00014208302309270948,0.16038155555725098,8.69346913532354e-05,0.14838679134845734,354.6767578125,354.6767578125,3
1778782980.26050806,59444546,-0.00014208305219653994,0.16142114996910095,8.693471318110824e-05,0.14944550395011902,354.672607421875,354.672607421875,3
1778782980.36046815,59544506,-0.00014208306674845517,0.16253478825092316,8.693468407727778e-05,0.15063922107219696,354.66864013671875,354.66864013671875,3
1778782980.46042800,59644466,-0.00014208300854079425,0.16345825791358948,8.693465497344732e-05,0.15169979631900787,354.6646423339844,354.6646423339844,3
1778782980.56038809,59744426,-0.00014208306674845517,0.16448484361171722,8.693466224940494e-05,0.15259718894958496,354.6606140136719,354.6606140136719,3
1778782980.66034818,59844386,-0.00014208302309270948,0.16540127992630005,8.69346404215321e-05,0.15367315709590912,354.6566467285156,354.6566467285156,3
1778782980.76030803,59944346,-0.0001420829794369638,0.1661202311515808,8.693461131770164e-05,0.1544932872056961,354.65252685546875,354.65252685546875,3
1778782980.86026812,60044306,-0.0001420829357812181,0.16704195737838745,8.693456038599834e-05,0.1553521752357483,354.6493835449219,354.6484375,3
1778782980.96022797,60144266,-0.0001420829357812181,0.16770634055137634,8.693456038599834e-05,0.15604166686534882,354.6493835449219,354.6444091796875,3
1778782981.06018806,60244226,-0.0001420829357812181,0.16850587725639343,8.693456038599834e-05,0.1566280722618103,354.6493835449219,354.64031982421875,3
1778782981.16014814,60344186,-0.0001420829357812181,0.16901564598083496,8.693456038599834e-05,0.1573893278837204,354.6493835449219,354.6361389160156,3
1778782981.26010799,60444146,-0.0001420829357812181,0.16951218247413635,8.693456038599834e-05,0.1579909771680832,354.6493835449219,354.63201904296875,3
1778782981.36006808,60544106,-0.0001420829357812181,0.1700168401002884,8.693456038599834e-05,0.15855689346790314,354.6493835449219,354.6280212402344,3
1778782981.46002817,60644066,-0.0001420829357812181,0.17053459584712982,8.693456038599834e-05,0.1589336395263672,354.6493835449219,354.62420654296875,3
1778782981.55998802,60744026,-0.0001420829357812181,0.17079907655715942,8.693456038599834e-05,0.15928517282009125,354.6493835449219,354.6208801269531,3
1778782981.66078115,60844819,-0.014613834209740162,0.17113088071346283,-0.014432805590331554,0.15964214503765106,354.6493835449219,354.6172180175781,3
1778782981.76074100,60944779,-0.08823834359645844,0.17149730026721954,-0.08830120414495468,0.1598728448152542,354.6494445800781,354.6133117675781,3
1778782981.86070108,61044739,-0.15004876255989075,0.17171336710453033,-0.15009205043315887,0.1601216346025467,354.6495666503906,354.6094055175781,3
1778782981.96066117,61144699,-0.1820000857114792,0.1718306839466095,-0.18160516023635864,0.16017329692840576,354.649658203125,354.6054992675781,3
1778782982.06062102,61244659,-0.19678831100463867,0.17186109721660614,-0.19628462195396423,0.16042931377887726,354.6496887207031,354.6015625,3
1778782982.16058111,61344619,-0.20305156707763672,0.17194242775440216,-0.20248271524906158,0.1603144109249115,354.64971923828125,354.5973815917969,3
1778782982.26054096,61444579,-0.2072637677192688,0.1205434650182724,-0.20637394487857819,0.11270788311958313,354.6497497558594,354.59381103515625,3
1778782982.36050105,61544539,-0.20820002257823944,-0.058597322553396225,-0.20706674456596375,-0.06445842981338501,354.6497497558594,354.59429931640625,3
1778782982.46046114,61644499,-0.19644036889076233,-0.18827073276042938,-0.19540748000144958,-0.1906084567308426,354.6496887207031,354.5982666015625,3
1778782982.56042099,61744459,-0.15721222758293152,-0.2354881763458252,-0.15721455216407776,-0.24116766452789307,354.64959716796875,354.60296630859375,3
1778782982.66038108,61844419,-0.09308245033025742,-0.2246779203414917,-0.09447751194238663,-0.22784242033958435,354.6494445800781,354.6071472167969,3
1778782982.76034117,61944379,-0.0035006373655050993,-0.1615866869688034,-0.00802581012248993,-0.1643785536289215,354.6493835449219,354.6106872558594,3
1778782982.86030102,62044339,0.09525462985038757,-0.06667196750640869,0.0868348702788353,-0.07033642381429672,354.6494445800781,354.6129455566406,3
1778782982.96026111,62144299,0.1900530904531479,0.04366067424416542,0.17775554955005646,0.03277389705181122,354.6496887207031,354.6143493652344,3
1778782983.06022120,62244259,0.2658444941043854,0.13037587702274323,0.24982410669326782,0.11647658050060272,354.64996337890625,354.61517333984375,3
1778782983.16018105,62344219,0.32438424229621887,0.1972833126783371,0.3035459518432617,0.1748596876859665,354.6502380371094,354.6151123046875,3
1778782983.26014113,62444179,0.3642998933792114,0.24960258603096008,0.3387754261493683,0.22425614297389984,354.65045166015625,354.61480712890625,3
1778782983.36010098,62544139,0.3934352695941925,0.2870240807533264,0.36369532346725464,0.2613067626953125,354.650634765625,354.6144714355469,3
1778782983.46006107,62644099,0.40952423214912415,0.31535425782203674,0.37612661719322205,0.2821873128414154,354.6507263183594,354.6138916015625,3
1778782983.56002116,62744059,0.41935011744499207,0.3322412669658661,0.38092920184135437,0.29808175563812256,354.6507568359375,354.61334228515625,3
1778782983.66081405,62844852,0.41971954703330994,0.3371149003505707,0.3755963444709778,0.29889121651649475,354.6507263183594,354.61328125,3
1778782983.76077414,62944812,0.4164150357246399,0.3436375856399536,0.3691405951976776,0.2989863455295563,354.6506652832031,354.6133117675781,3
1778782983.86073399,63044772,0.4054482877254486,0.3350311815738678,0.35725510120391846,0.29521608352661133,354.65057373046875,354.6136169433594,3
1778782983.96069407,63144732,0.39226749539375305,0.32839885354042053,0.34463077783584595,0.28074532747268677,354.6504821777344,354.6141662597656,3
1778782984.06065416,63244692,0.37193170189857483,0.3182353377342224,0.329252690076828,0.27372875809669495,352.70513916015625,352.67425537109375,3
1778782984.16061401,63344652,0.3485995829105377,0.30233797430992126,0.3188951015472412,0.27154022455215454,352.705078125,352.67706298828125,3
1778782984.26057410,63444612,0.3214651644229889,0.2811548709869385,0.3036259412765503,0.265394389629364,352.7049865722656,352.67864990234375,3
1778782984.36053419,63544572,0.296633780002594,0.25946706533432007,0.2866364121437073,0.25407230854034424,352.70489501953125,352.6873779296875,3
1778782984.46049404,63644532,0.27259573340415955,0.23861974477767944,0.26616397500038147,0.23695392906665802,352.70477294921875,352.6989440917969,3
1778782984.56045413,63744492,0.2532271146774292,0.2231791466474533,0.24723461270332336,0.22244587540626526,352.7046813964844,352.70965576171875,3
1778782984.66041398,63844452,0.2347930520772934,0.21048937737941742,0.22782884538173676,0.21167553961277008,352.7046203613281,352.7174072265625,3
1778782984.76037407,63944412,0.21985694766044617,0.20168018341064453,0.211172953248024,0.2016775757074356,352.7045593261719,352.7228088378906,3
1778782984.86033416,64044372,0.20447872579097748,0.18657346069812775,0.19383640587329865,0.17682050168514252,352.7044982910156,352.7257080078125,3
1778782984.96029401,64144332,0.19304044544696808,0.17179928719997406,0.1808994561433792,0.15333302319049835,352.7044372558594,352.72735595703125,3
1778782985.06025410,64244292,0.18291577696800232,0.16011010110378265,0.17172369360923767,0.14320875704288483,352.70440673828125,352.7246398925781,3
1778782985.16021419,64344252,0.17683593928813934,0.15092748403549194,0.16700007021427155,0.14034809172153473,352.70440673828125,352.72088623046875,3
1778782985.26017404,64444212,0.17398540675640106,0.14832647144794464,0.1647825539112091,0.14085859060287476,352.7043762207031,352.7184753417969,3
1778782985.36013412,64544172,0.1780833601951599,0.1550830602645874,0.16831475496292114,0.1360374242067337,352.70440673828125,352.7189636230469,3
1778782985.46009398,64644132,0.1835637241601944,0.16011644899845123,0.17320778965950012,0.14087539911270142,352.70440673828125,352.72003173828125,3
1778782985.56005406,64744092,0.19094213843345642,0.16905535757541656,0.1819738894701004,0.1569472849369049,352.7044372558594,352.7210693359375,3
1778782985.66001415,64844052,0.19720448553562164,0.17343369126319885,0.18948312103748322,0.17179487645626068,352.7044677734375,352.7204284667969,3
1778782985.76080704,64944845,0.20549234747886658,0.17288021743297577,0.1979585587978363,0.18302719295024872,352.7044982910156,352.7227478027344,3
1778782985.86076713,65044805,0.21233010292053223,0.1843988299369812,0.20324750244617462,0.18960067629814148,352.70452880859375,352.7214660644531,3
1778782985.96072698,65144765,0.21909087896347046,0.19836731255054474,0.2063698023557663,0.195637047290802,352.70452880859375,352.7176208496094,3
1778782986.06068707,65244725,0.2244088351726532,0.20894736051559448,0.2075812667608261,0.20060163736343384,352.7045593261719,352.7116394042969,3
1778782986.16064715,65344685,0.22738295793533325,0.2188234031200409,0.2074216902256012,0.20383884012699127,352.7045593261719,352.7087707519531,3
1778782986.26060700,65444645,0.22793951630592346,0.22699905931949615,0.20573359727859497,0.20683060586452484,352.7045593261719,352.7071228027344,3
1778782986.36056709,65544605,0.22555206716060638,0.233000710606575,0.2028588503599167,0.20867986977100372,352.70452880859375,352.7082824707031,3
1778782986.46052718,65644565,0.2176232784986496,0.23792362213134766,0.19884996116161346,0.21062077581882477,352.70452880859375,352.710205078125,3
1778782986.56048703,65744525,0.20395703613758087,0.23093228042125702,0.19478119909763336,0.21178282797336578,352.7044982910156,352.7134704589844,3
1778782986.66044712,65844485,0.18496030569076538,0.20373883843421936,0.18792693316936493,0.21325303614139557,352.7044677734375,352.71636962890625,3
1778782986.76040697,65944445,0.16699527204036713,0.1770421266555786,0.17973268032073975,0.2143501341342926,352.7044372558594,352.7204284667969,3
1778782986.86036706,66044405,0.15143120288848877,0.15388475358486176,0.1682097166776657,0.2068653702735901,352.7043762207031,352.7239685058594,3
1778782986.96032715,66144365,0.14097358286380768,0.1371527761220932,0.15647386014461517,0.18458004295825958,352.704345703125,352.7258605957031,3
1778782987.06028700,66244325,0.13358624279499054,0.13228963315486908,0.14500178396701813,0.16041463613510132,352.704345703125,352.7274475097656,3
1778782987.16024709,66344285,0.1276049166917801,0.12846185266971588,0.13750052452087402,0.13587962090969086,352.7043151855469,352.73016357421875,3
1778782987.26020718,66444245,0.12081008404493332,0.12510962784290314,0.13369052112102509,0.12204009294509888,352.7043151855469,352.731201171875,3
1778782987.36016703,66544205,0.11488594859838486,0.10915223509073257,0.13190418481826782,0.11350937187671661,352.7043151855469,352.72943115234375,3
1778782987.46012712,66644165,0.1111154779791832,0.09797921031713486,0.13100244104862213,0.10855166614055634,352.70428466796875,352.7252502441406,3
1778782987.56008697,66744125,0.10898402333259583,0.09290231019258499,0.13063518702983856,0.10755550116300583,352.70428466796875,352.718994140625,3
1778782987.66004705,66844085,0.10769563913345337,0.0920100212097168,0.130024254322052,0.10840126127004623,352.70428466796875,352.7111511230469,3
1778782987.76000714,66944045,0.10691365599632263,0.09015298634767532,0.12950491905212402,0.1096823588013649,352.70428466796875,352.70465087890625,3
1778782987.86080003,67044838,0.10675917565822601,0.09049291163682938,0.12940756976604462,0.11111012101173401,352.70428466796875,352.6994323730469,3
1778782987.96076012,67144798,0.11051148921251297,0.09423276036977768,0.13037365674972534,0.1133018285036087,352.70428466796875,352.6964416503906,3
1778782988.06071997,67244758,0.11761606484651566,0.10315459966659546,0.13025102019309998,0.11221814900636673,352.7043151855469,352.69439697265625,3
1778782988.16068006,67344718,0.12394245713949203,0.11034108698368073,0.12874838709831238,0.11503338813781738,352.7043151855469,352.6942443847656,3
1778782988.26064014,67444678,0.12783169746398926,0.11463581770658493,0.1258963942527771,0.10887294262647629,352.7043151855469,352.6951904296875,3
1778782988.36059999,67544638,0.12936826050281525,0.11986143887042999,0.12344789505004883,0.11054928600788116,352.7043151855469,352.6961669921875,3
1778782988.46056008,67644598,0.13068795204162598,0.11854879558086395,0.1222778707742691,0.11056946963071823,352.7043151855469,352.6966552734375,3
1778782988.56052017,67744558,0.13121667504310608,0.12290317565202713,0.12183457612991333,0.1118975505232811,352.7043151855469,352.6973571777344,3
1778782988.66048002,67844518,0.13143783807754517,0.11845359951257706,0.12171823531389236,0.113492950797081,352.7043151855469,352.69781494140625,3
1778782988.76044011,67944478,0.1373998075723648,0.12143144756555557,0.12035328894853592,0.1174435093998909,352.7043151855469,352.6977844238281,3
1778782988.86039996,68044438,0.14466707408428192,0.1266499161720276,0.11678658425807953,0.11797107756137848,352.7043151855469,352.69757080078125,3
1778782988.96036005,68144398,0.15207578241825104,0.12966029345989227,0.11219380050897598,0.10743385553359985,352.7043151855469,352.69708251953125,3
1778782989.06032014,68244358,0.15881583094596863,0.14732089638710022,0.10769638419151306,0.10428428649902344,352.7043151855469,352.69622802734375,3
1778782989.16027999,68344318,0.16407741606235504,0.15391743183135986,0.10490846633911133,0.10558585077524185,352.7043151855469,352.6957092285156,3
1778782989.26024008,68444278,0.1675550490617752,0.15562386810779572,0.10316197574138641,0.10867240279912949,352.7043151855469,352.6957702636719,3
1778782989.36020017,68544238,0.16920486092567444,0.1659533530473709,0.10216673463582993,0.09886714816093445,352.7043151855469,352.69635009765625,3
1778782989.46016002,68644198,0.17068366706371307,0.1737774908542633,0.10181831568479538,0.09220832586288452,352.7043151855469,352.6964111328125,3
1778782989.56012011,68744158,0.171221062541008,0.1772816777229309,0.10169170796871185,0.09475886076688766,352.7043151855469,352.6963195800781,3
1778782989.66008019,68844118,0.17099589109420776,0.18015141785144806,0.10229940712451935,0.09007521718740463,352.7043151855469,352.6960754394531,3
1778782989.76004004,68944078,0.16837187111377716,0.1706230193376541,0.11118335276842117,0.09161805361509323,352.704345703125,352.69647216796875,3
1778782989.86000013,69044038,0.16482339799404144,0.15792441368103027,0.12173884361982346,0.10386645793914795,352.70440673828125,352.6966857910156,3
1778782989.96079302,69144831,0.16342756152153015,0.15222570300102234,0.13189266622066498,0.12383230030536652,352.70440673828125,352.6963806152344,3
1778782990.06075311,69244791,0.16390500962734222,0.15575671195983887,0.13913403451442719,0.1325184553861618,352.7044372558594,352.69549560546875,3
1778782990.16071296,69344751,0.16500625014305115,0.15797065198421478,0.14402998983860016,0.13980357348918915,352.7044372558594,352.69482421875,3
1778782990.26067305,69444711,0.16531744599342346,0.16071024537086487,0.14638185501098633,0.14131352305412292,352.7044372558594,352.69390869140625,3
1778782990.36063313,69544671,0.16485747694969177,0.16031630337238312,0.14728881418704987,0.1419312208890915,352.7044372558594,352.6932373046875,3
1778782990.46059299,69644631,0.16271010041236877,0.16083526611328125,0.14681419730186462,0.14168952405452728,352.7044372558594,352.6929931640625,3
1778782990.56055307,69744591,0.15938642621040344,0.15524423122406006,0.14603428542613983,0.14052779972553253,352.7044372558594,352.6924743652344,3
1778782990.66051316,69844551,0.1552867889404297,0.15683996677398682,0.14480212330818176,0.14002855122089386,352.7044372558594,352.6922912597656,3
1778782990.76047301,69944511,0.1523560732603073,0.15208430588245392,0.14402331411838531,0.14061865210533142,352.7044372558594,352.6925964355469,3
1778782990.86043310,70044471,0.14917074143886566,0.14719589054584503,0.14316844940185547,0.14286468923091888,352.70440673828125,352.6934509277344,3
1778782990.96039319,70144431,0.14649923145771027,0.14248311519622803,0.1422509104013443,0.14205463230609894,352.70440673828125,352.69366455078125,3
1778782991.06035304,70244391,0.14549517631530762,0.14287658035755157,0.1419116109609604,0.13825514912605286,352.70440673828125,352.6939392089844,3
1778782991.16031313,70344351,0.14639312028884888,0.14557698369026184,0.14286549389362335,0.13763967156410217,352.70440673828125,352.694091796875,3
1778782991.26027298,70444311,0.14777466654777527,0.15083104372024536,0.14389732480049133,0.14247404038906097,352.70440673828125,352.6945495605469,3
1778782991.36023307,70544271,0.148324653506279,0.14795228838920593,0.1442936509847641,0.1435278207063675,352.70440673828125,352.6947021484375,3
1778782991.46019316,70644231,0.14913037419319153,0.13881056010723114,0.1448950469493866,0.13252617418766022,352.70440673828125,352.6947326660156,3
1778782991.56015301,70744191,0.1537959724664688,0.14151865243911743,0.14871199429035187,0.1335192620754242,352.7044372558594,352.69561767578125,3
1778782991.66011310,70844151,0.1596677303314209,0.1384352743625641,0.15388481318950653,0.13799184560775757,352.7044372558594,352.695556640625,3
1778782991.76007318,70944111,0.16729141771793365,0.1466028392314911,0.15978145599365234,0.14081554114818573,352.7044677734375,352.6961364746094,3
1778782991.86003304,71044071,0.1747046709060669,0.1610068678855896,0.16500556468963623,0.15127690136432648,352.7044982910156,352.6960144042969,3
1778782991.95999312,71144031,0.18059802055358887,0.17929787933826447,0.16971944272518158,0.16366595029830933,352.7044982910156,352.6965026855469,3
1778782992.06078601,71244824,0.18369407951831818,0.19024558365345,0.17250660061836243,0.1740618199110031,352.7044982910156,352.6977844238281,3
1778782992.16074610,71344784,0.1845405548810959,0.18849493563175201,0.17333371937274933,0.17531083524227142,352.7044982910156,352.6977844238281,3
1778782992.26070619,71444744,0.18336348235607147,0.1850200891494751,0.17190565168857574,0.17179188132286072,352.7044982910156,352.69482421875,3
1778782992.36066604,71544704,0.1828286051750183,0.17995592951774597,0.16944539546966553,0.1661285012960434,352.7044982910156,352.69146728515625,3
1778782992.46062613,71644664,0.18513385951519012,0.1751786321401596,0.16742484271526337,0.15571507811546326,352.7044982910156,352.69000244140625,3
1778782992.56058598,71744624,0.18988697230815887,0.18321359157562256,0.17019130289554596,0.14822827279567719,352.70452880859375,352.6925964355469,3
1778782992.66054606,71844584,0.1950680911540985,0.19666962325572968,0.17738252878189087,0.15772350132465363,352.70452880859375,352.69549560546875,3
1778782992.76050615,71944544,0.19870975613594055,0.20487481355667114,0.18739980459213257,0.17499326169490814,352.7045593261719,352.6958312988281,3
1778782992.86046600,72044504,0.19973859190940857,0.20159406960010529,0.19587938487529755,0.18477004766464233,352.70458984375,352.6940002441406,3
1778782992.96042609,72144464,0.20149464905261993,0.19608166813850403,0.20348232984542847,0.19393694400787354,352.70458984375,352.6938781738281,3
1778782993.06038618,72244424,0.20425966382026672,0.19631564617156982,0.20909635722637177,0.20181550085544586,352.7046203613281,352.6941223144531,3
1778782993.16034603,72344384,0.20961609482765198,0.20060506463050842,0.2130603939294815,0.2028014212846756,352.7046203613281,352.6941223144531,3
1778782993.26030612,72444344,0.21466737985610962,0.20543397963047028,0.2144189178943634,0.2045256495475769,352.7046203613281,352.69287109375,3
1778782993.36026597,72544304,0.21948735415935516,0.21079877018928528,0.21713539958000183,0.20757631957530975,352.70465087890625,352.693115234375,3
1778782993.46022606,72644264,0.2228669971227646,0.21439284086227417,0.22092175483703613,0.210592120885849,352.70465087890625,352.6947021484375,3
1778782993.56018615,72744224,0.2245270311832428,0.210208922624588,0.22534999251365662,0.21970444917678833,352.7046813964844,352.69573974609375,3
1778782993.66014600,72844184,0.22372063994407654,0.21105170249938965,0.22799547016620636,0.22604376077651978,352.7046813964844,352.6940002441406,3
1778782993.76010609,72944144,0.22276571393013,0.20954445004463196,0.22879400849342346,0.22595687210559845,352.7046813964844,352.6932678222656,3
1778782993.86006618,73044104,0.22304756939411163,0.20561601221561432,0.22887463867664337,0.22242477536201477,352.7046813964844,352.69390869140625,3
1778782993.96002603,73144064,0.2252146154642105,0.21154743432998657,0.22910715639591217,0.22331151366233826,352.7046813964844,352.69622802734375,3
1778782994.05998611,73244024,0.2276730239391327,0.21421757340431213,0.22742953896522522,0.2218811959028244,352.7046813964844,352.6981201171875,3
1778782994.16077900,73344817,0.22934173047542572,0.21700142323970795,0.2249327450990677,0.22275041043758392,352.7046813964844,352.69830322265625,3
1778782994.26073909,73444777,0.2295166254043579,0.21806597709655762,0.219509094953537,0.22122468054294586,352.7046813964844,352.695556640625,3
1778782994.36069918,73544737,0.22908751666545868,0.2162357121706009,0.21397356688976288,0.21683566272258759,352.70465087890625,352.6917419433594,3
1778782994.46065903,73644697,0.22680911421775818,0.2191048562526703,0.20676365494728088,0.20673345029354095,352.70465087890625,352.69024658203125,3
1778782994.56061912,73744657,0.22462540864944458,0.22325259447097778,0.20068931579589844,0.18961073458194733,352.7046203613281,352.6916809082031,3
1778782994.66057897,73844617,0.21974621713161469,0.2241637259721756,0.19480809569358826,0.17950478196144104,352.7046203613281,352.69390869140625,3
1778782994.76053905,73944577,0.2139820009469986,0.2144087702035904,0.19146446883678436,0.1717327982187271,352.70458984375,352.697021484375,3
1778782994.86049914,74044537,0.2063877284526825,0.20238065719604492,0.18937011063098907,0.16540159285068512,352.70458984375,352.6990051269531,3
1778782994.96045899,74144497,0.2001880556344986,0.18908992409706116,0.19309811294078827,0.1601329892873764,352.70458984375,352.6983337402344,3
1778782995.06041908,74244457,0.19309183955192566,0.17993050813674927,0.19834807515144348,0.17028962075710297,352.7046203613281,352.69671630859375,3
1778782995.16037917,74344417,0.18934248387813568,0.17578695714473724,0.20685242116451263,0.18496297299861908,352.70465087890625,352.6942138671875,3
1778782995.26033902,74444377,0.18617069721221924,0.17061355710029602,0.21336473524570465,0.20082154870033264,352.7046813964844,352.6907043457031,3
1778782995.36029911,74544337,0.1843727082014084,0.16758178174495697,0.21750397980213165,0.20983807742595673,352.7046813964844,352.68975830078125,3
1778782995.46025896,74644297,0.182793989777565,0.16330663859844208,0.2173045128583908,0.21251048147678375,352.7046813964844,352.69317626953125,3
1778782995.56021905,74744257,0.1824963539838791,0.16365958750247955,0.21581332385540009,0.21248580515384674,352.7046813964844,352.69818115234375,3
1778782995.66017914,74844217,0.18166802823543549,0.16720417141914368,0.21221496164798737,0.20666268467903137,352.7046813964844,352.69989013671875,3
1778782995.76013899,74944177,0.18250010907649994,0.16886961460113525,0.2087220400571823,0.2016901969909668,352.7046813964844,352.6991271972656,3
1778782995.86009908,75044137,0.18297769129276276,0.16859015822410583,0.2047111839056015,0.19751568138599396,352.70465087890625,352.6965637207031,3
1778782995.96005917,75144097,0.1826031357049942,0.16382840275764465,0.20149323344230652,0.1936642974615097,352.70465087890625,352.6952819824219,3
1778782996.06001902,75244057,0.1816946119070053,0.16472001373767853,0.1971694380044937,0.1905669867992401,352.70465087890625,352.6937255859375,3
1778782996.16081214,75344850,0.18235673010349274,0.17058148980140686,0.19371838867664337,0.1873938888311386,352.70465087890625,352.6927490234375,3
1778782996.26077199,75444810,0.18160638213157654,0.17227523028850555,0.18954764306545258,0.18488138914108276,352.70465087890625,352.6930847167969,3
1778782996.36073208,75544770,0.17999058961868286,0.17089691758155823,0.1856689304113388,0.17915397882461548,352.7046203613281,352.6973571777344,3
1778782996.46069217,75644730,0.1776091307401657,0.16952455043792725,0.18182672560214996,0.17751331627368927,352.7046203613281,352.70123291015625,3
1778782996.56065202,75744690,0.1754869669675827,0.1688733845949173,0.17880691587924957,0.17591871321201324,352.7046203613281,352.70233154296875,3
1778782996.66061211,75844650,0.1742367446422577,0.1659478098154068,0.17623478174209595,0.17484579980373383,352.70458984375,352.7004699707031,3
1778782996.76057220,75944610,0.17359839379787445,0.16246238350868225,0.17394842207431793,0.17329995334148407,352.70458984375,352.6976623535156,3
1778782996.86053205,76044570,0.17304539680480957,0.16334359347820282,0.17186298966407776,0.17114579677581787,352.70458984375,352.6931457519531,3
1778782996.96049213,76144530,0.1723881959915161,0.16055351495742798,0.16932345926761627,0.16870881617069244,352.70458984375,352.6907653808594,3
1778782997.06045198,76244490,0.17151890695095062,0.1653468757867813,0.1663256287574768,0.16650594770908356,352.70458984375,352.6918640136719,3
1778782997.16041207,76344450,0.17062757909297943,0.16752199828624725,0.16367140412330627,0.1598493456840515,352.70458984375,352.69677734375,3
1778782997.26037216,76444410,0.1688328981399536,0.16111566126346588,0.16137684881687164,0.1505565345287323,352.70458984375,352.69952392578125,3
1778782997.36033201,76544370,0.16740047931671143,0.1584494560956955,0.1617751568555832,0.14241527020931244,352.7045593261719,352.7002258300781,3
1778782997.46029210,76644330,0.1666661649942398,0.15664158761501312,0.16334350407123566,0.13597571849822998,352.70458984375,352.6990661621094,3
1778782997.56025219,76744290,0.1659657061100006,0.15599948167800903,0.16609402000904083,0.1329662799835205,352.70458984375,352.6992492675781,3
1778782997.66021204,76844250,0.1637733280658722,0.15491332113742828,0.16972830891609192,0.13779474794864655,352.70458984375,352.70001220703125,3
1778782997.76017213,76944210,0.16215476393699646,0.15296651422977448,0.17513857781887054,0.1410781294107437,352.70458984375,352.6998596191406,3
1778782997.86013198,77044170,0.16117563843727112,0.14954692125320435,0.1805603951215744,0.14423426985740662,352.70458984375,352.6977844238281,3
1778782997.96009207,77144130,0.16019214689731598,0.14625859260559082,0.18535654246807098,0.15835361182689667,352.70458984375,352.697021484375,3
1778782998.06005216,77244090,0.1598358452320099,0.14896345138549805,0.1886962354183197,0.17803986370563507,352.70458984375,352.69415283203125,3
1778782998.16001201,77344050,0.16039450466632843,0.1491871029138565,0.18843041360378265,0.1880401223897934,352.70458984375,352.6898498535156,3
1778782998.26080513,77444843,0.16107533872127533,0.15102854371070862,0.18325576186180115,0.19003117084503174,352.70458984375,352.68585205078125,3
1778782998.36076498,77544803,0.16139209270477295,0.1552755981683731,0.1772180199623108,0.1839713454246521,352.70458984375,352.6867370605469,3
1778782998.46072507,77644763,0.15976011753082275,0.1549338549375534,0.16939117014408112,0.1795618087053299,352.7045593261719,352.6918029785156,3
1778782998.56068516,77744723,0.1578749120235443,0.1519927978515625,0.1621159166097641,0.17118282616138458,352.7045593261719,352.6958923339844,3
1778782998.66064501,77844683,0.15531332790851593,0.14938296377658844,0.15449023246765137,0.1627882421016693,352.7045593261719,352.6964416503906,3
1778782998.76060510,77944643,0.1543148010969162,0.1451512575149536,0.14630275964736938,0.15577825903892517,352.70452880859375,352.694580078125,3
1778782998.86056519,78044603,0.1530919224023819,0.1435392200946808,0.13567441701889038,0.14850512146949768,352.70452880859375,352.69110107421875,3
1778782998.96052504,78144563,0.15342633426189423,0.1433417797088623,0.12551386654376984,0.13731248676776886,352.7044982910156,352.68963623046875,3
1778782999.06048512,78244523,0.15388789772987366,0.14299827814102173,0.11472336947917938,0.12562428414821625,352.7044982910156,352.69219970703125,3
1778782999.16044497,78344483,0.15517626702785492,0.14313431084156036,0.10653920471668243,0.10963623970746994,352.7044677734375,352.6964111328125,3
1778782999.26040506,78444443,0.15618367493152618,0.14581440389156342,0.100728340446949,0.09699161350727081,352.7044677734375,352.69647216796875,3
1778782999.36036515,78544403,0.15576983988285065,0.1464259922504425,0.09751837700605392,0.0864376351237297,352.7044677734375,352.6937255859375,3
1778782999.46032500,78644363,0.15170128643512726,0.14402680099010468,0.09639351069927216,0.08034628629684448,352.7044677734375,352.68994140625,3
1778782999.56028509,78744323,0.14539022743701935,0.14349813759326935,0.10051992535591125,0.08685952425003052,352.7044677734375,352.6892395019531,3
1778782999.66024518,78844283,0.13667385280132294,0.13566236197948456,0.10461243987083435,0.0960182175040245,352.7044677734375,352.6924743652344,3
1778782999.76020503,78944243,0.12914611399173737,0.12514452636241913,0.10993518680334091,0.10510111600160599,352.7044677734375,352.6950378417969,3
1778782999.86016512,79044203,0.1230124905705452,0.11844483762979507,0.11381471902132034,0.11279084533452988,352.7044677734375,352.69329833984375,3
1778782999.96012497,79144163,0.11872578412294388,0.11104749143123627,0.11654233932495117,0.11887714266777039,352.7044677734375,352.68865966796875,3
1778783000.06008506,79244123,0.1159311830997467,0.10545533150434494,0.11769929528236389,0.12147625535726547,352.7044677734375,352.68341064453125,3
1778783000.16004515,79344083,0.11419300734996796,0.09637962281703949,0.11757183074951172,0.11766868829727173,352.7044677734375,352.6823425292969,3
1778783000.26000500,79444043,0.11471671611070633,0.09360425919294357,0.11391644924879074,0.11254610121250153,352.7044372558594,352.685546875,3
1778783000.36079812,79544836,0.1178254559636116,0.09781556576490402,0.10998734831809998,0.11100675165653229,352.7044372558594,352.68939208984375,3
1778783000.46075797,79644796,0.03878871724009514,0.05982517823576927,0.012615349143743515,0.053935375064611435,352.70477294921875,352.6900329589844,3
1778783000.56071806,79744756,-0.5280020833015442,-0.4396643042564392,-0.852176308631897,-0.6596039533615112,352.7068176269531,352.6932678222656,3
1778783000.66067815,79844716,-0.8121689558029175,-0.8159885406494141,-2.8106095790863037,-2.462524652481079,352.6925048828125,352.7123107910156,3
1778783000.76063800,79944676,-0.55699223279953,-0.6642962098121643,-5.709730625152588,-5.282808780670166,352.6358947753906,352.73199462890625,3
1778783000.86059809,80044636,-0.06427394598722458,-0.19485758244991302,-9.183359146118164,-8.76638126373291,352.5301208496094,352.70819091796875,3
1778783000.96055818,80144596,0.4125731885433197,0.24713316559791565,-12.872556686401367,-12.533371925354004,352.0887145996094,352.61077880859375,3
1778783001.06051803,80244556,0.5871697068214417,0.5112813711166382,-15.864761352539062,-15.801027297973633,352.1027526855469,352.3699645996094,3
1778783001.16047812,80344516,0.5854136943817139,0.6330504417419434,-16.82570457458496,-17.151126861572266,352.2522277832031,352.1396789550781,3
1778783001.26043797,80444476,0.5162830352783203,0.620272159576416,-15.803276062011719,-16.399017333984375,352.36224365234375,352.0060119628906,3
1778783001.36039805,80544436,0.4444943368434906,0.5396265983581543,-13.657783508300781,-14.282331466674805,352.4393310546875,351.94891357421875,3
1778783001.46035814,80644396,0.39596080780029297,0.4562632739543915,-11.245726585388184,-11.736937522888184,352.496337890625,351.952880859375,3
1778783001.56031799,80744356,0.38292524218559265,0.40888652205467224,-9.061864852905273,-9.365965843200684,352.5347900390625,351.97283935546875,3
1778783001.66027808,80844316,0.3955390155315399,0.405087411403656,-7.294886589050293,-7.438783168792725,352.56622314453125,352.0458679199219,3
1778783001.76023817,80944276,0.4208028018474579,0.428781658411026,-5.960920810699463,-6.002971649169922,352.5896911621094,352.13671875,3
1778783001.86019802,81044236,0.44031262397766113,0.44354963302612305,-4.997925281524658,-4.970090389251709,352.6096496582031,352.25323486328125,3
1778783001.96015811,81144196,0.4492987394332886,0.44490936398506165,-4.327208042144775,-4.2777814865112305,352.6249084472656,352.36041259765625,3
1778783002.06011796,81244156,0.44475117325782776,0.4401489198207855,-3.8755733966827393,-3.8084585666656494,352.637939453125,352.4610900878906,3
1778783002.16007805,81344116,0.42712947726249695,0.42352816462516785,-3.57918643951416,-3.5068514347076416,352.6477355957031,352.5367736816406,3
1778783002.26003814,81444076,0.39705705642700195,0.3960722088813782,-3.4013113975524902,-3.3373947143554688,352.65618896484375,352.59124755859375,3
1778783002.35999799,81544036,0.35855016112327576,0.3555176258087158,-3.3030381202697754,-3.247361421585083,352.6624450683594,352.6238098144531,3
1778783002.46079111,81644829,0.3138226866722107,0.3112509250640869,-3.263556957244873,-3.2129225730895996,352.66802978515625,352.6438293457031,3
1778783002.56075096,81744789,0.26944032311439514,0.27244865894317627,-3.2727773189544678,-3.230226993560791,352.6719970703125,352.6500549316406,3
1778783002.66071105,81844749,0.226034477353096,0.24097459018230438,-3.321052074432373,-3.285130023956299,352.6756896972656,352.6553955078125,3
1778783002.76067114,81944709,0.18356820940971375,0.2057558298110962,-3.3884565830230713,-3.3599584102630615,352.6785583496094,352.656005859375,3
1778783002.86063099,82044669,0.14161211252212524,0.15421277284622192,-3.467656373977661,-3.445570230484009,352.6813049316406,352.65789794921875,3
1778783002.96059108,82144629,0.10323183983564377,0.11049839854240417,-3.5419373512268066,-3.5272436141967773,352.6831359863281,352.66021728515625,3
1778783003.06055117,82244589,0.0699818879365921,0.06871180236339569,-3.611262083053589,-3.5978121757507324,352.68499755859375,352.6663513183594,3
1778783003.16051102,82344549,0.04287417232990265,0.038172122091054916,-3.6712653636932373,-3.6637914180755615,352.6861267089844,352.6722717285156,3
1778783003.26047111,82444509,0.02102208510041237,0.01576572097837925,-3.7189228534698486,-3.71382474899292,352.6873779296875,352.6796875,3
1778783003.36043119,82544469,0.0046416521072387695,-0.004724671598523855,-3.7586636543273926,-3.7533133029937744,352.6880187988281,352.6846008300781,3
1778783003.46039104,82644429,-0.006989974994212389,-0.019789084792137146,-3.668668508529663,-3.718998908996582,352.6887512207031,352.68768310546875,3
1778783003.56035113,82744389,-0.01382389385253191,-0.023639775812625885,-2.5490329265594482,-2.803178071975708,352.6891784667969,352.6896057128906,3
1778783003.66031098,82844349,-0.01727914810180664,-0.02464343048632145,-0.1449238806962967,-0.5701168179512024,352.68951416015625,352.69207763671875,3
1778783003.76027107,82944309,-0.018828582018613815,-0.025272998958826065,3.1595444679260254,2.6786696910858154,352.689453125,352.6960754394531,3
1778783003.86023116,83044269,-0.018710261210799217,-0.02546355128288269,6.91757345199585,6.473843097686768,352.6891174316406,352.70196533203125,3
1778783003.96019101,83144229,-0.01616661623120308,-0.021149959415197372,10.717279434204102,10.37116527557373,352.68902587890625,352.70806884765625,3
1778783004.06015110,83244189,-0.012319223955273628,-0.016333285719156265,13.142927169799805,13.197287559509277,352.6885681152344,352.71588134765625,3
1778783004.16011119,83344149,-0.005116528365761042,-0.0037676282227039337,13.415559768676758,13.856173515319824,352.69024658203125,352.7243957519531,3
1778783004.26007104,83444109,0.004246922209858894,0.0034027781803160906,11.893990516662598,12.532584190368652,352.6913146972656,352.73040771484375,3
1778783004.36003113,83544069,0.015827175229787827,0.012253004126250744,9.610217094421387,10.195622444152832,352.6924743652344,352.7359619140625,3
1778783004.45999098,83644029,0.029055198654532433,0.019947824999690056,7.278869152069092,7.6802544593811035,352.69671630859375,352.7386169433594,3
1778783004.56078410,83744822,0.045555513352155685,0.03684087097644806,5.257935047149658,5.4815449714660645,352.70501708984375,352.7441101074219,3
1778783004.66074419,83844782,0.06196655333042145,0.05021952837705612,3.680872917175293,3.7705323696136475,352.71240234375,352.7510681152344,3
1778783004.76070404,83944742,0.07736627757549286,0.06369607150554657,2.5035769939422607,2.4993948936462402,352.71856689453125,352.76055908203125,3
1778783004.86066413,84044702,0.09094465523958206,0.07904030382633209,1.6506099700927734,1.6041476726531982,352.7232360839844,352.7677917480469,3
1778783004.96062398,84144662,0.10333554446697235,0.09846051782369614,1.0493884086608887,0.9793230295181274,352.7266845703125,352.7709655761719,3
1778783005.06058407,84244622,0.11221746355295181,0.11075262725353241,0.6341707706451416,0.5537024736404419,352.7289733886719,352.7693176269531,3
1778783005.16054416,84344582,0.11743301153182983,0.11450202018022537,0.3602609932422638,0.2820732593536377,352.7303466796875,352.7682800292969,3
1778783005.26050401,84444542,0.11968661099672318,0.11390986293554306,0.1893991231918335,0.11878206580877304,352.7317199707031,352.7655334472656,3
1778783005.36046410,84544502,0.12142741680145264,0.11744353920221329,0.09681320935487747,0.03301999717950821,352.7326965332031,352.7632751464844,3
1778783005.46042418,84644462,0.12235689908266068,0.11821868270635605,0.05848665162920952,-0.0010162583785131574,352.7331237792969,352.7606506347656,3
1778783005.56038404,84744422,0.12507979571819305,0.1183614656329155,0.05705294758081436,0.00025212913169525564,352.7332458496094,352.7597351074219,3
1778783005.66034412,84844382,0.12882667779922485,0.12360937148332596,0.08662277460098267,0.03009847179055214,352.73333740234375,352.7581787109375,3
1778783005.76030397,84944342,0.13276691734790802,0.1276923418045044,0.13430985808372498,0.07936400920152664,352.73345947265625,352.75732421875,3
1778783005.86026406,85044302,0.1354275792837143,0.12989453971385956,0.19007569551467896,0.13514141738414764,352.7337341308594,352.7557678222656,3
1778783005.96022415,85144262,0.1370089203119278,0.1329227238893509,0.24944378435611725,0.19842904806137085,352.7342529296875,352.75555419921875,3
1778783006.06018400,85244222,0.1356646567583084,0.13050876557826996,0.30612313747406006,0.2562626302242279,352.7349853515625,352.7545166015625,3
1778783006.16014409,85344182,0.13362568616867065,0.12799760699272156,0.3578301668167114,0.3159051835536957,352.7359924316406,352.75360107421875,3
1778783006.26010418,85444142,0.13007456064224243,0.12634626030921936,0.40101778507232666,0.36649829149246216,352.7372131347656,352.7513122558594,3
1778783006.36006403,85544102,0.12555131316184998,0.12106833606958389,0.4358562231063843,0.4080308675765991,352.7385559082031,352.7486877441406,3
1778783006.46002412,85644062,0.11988663673400879,0.11443836987018585,0.459918349981308,0.44737324118614197,352.7400207519531,352.7459411621094,3
1778783006.56081700,85744855,0.11473428457975388,0.11293496936559677,0.4717823266983032,0.4732135236263275,352.7415771484375,352.7478942871094,3
1778783006.66077709,85844815,0.10892822593450546,0.10823343694210052,0.47126883268356323,0.48058968782424927,352.74310302734375,352.75213623046875,3
1778783006.76073718,85944775,0.10290919989347458,0.09889189153909683,0.459650456905365,0.4770178198814392,352.7445983886719,352.7545471191406,3
1778783006.86069703,86044735,0.09710069000720978,0.0941755399107933,0.4407463073730469,0.47260782122612,352.7459716796875,352.753662109375,3
1778783006.96065712,86144695,0.09282029420137405,0.08820782601833344,0.41586610674858093,0.44901761412620544,352.7472839355469,352.75286865234375,3
1778783007.06061697,86244655,0.08966193348169327,0.08387252688407898,0.38502237200737,0.4148049056529999,352.74853515625,352.7509460449219,3
1778783007.16057706,86344615,0.08946428447961807,0.08168544620275497,0.3517621159553528,0.37531179189682007,352.749755859375,352.7508544921875,3
1778783007.26053715,86444575,0.09144958853721619,0.07821530848741531,0.3181057870388031,0.3328009843826294,352.75091552734375,352.7541198730469,3
1778783007.36049700,86544535,0.09680354595184326,0.08358681201934814,0.28627917170524597,0.296282559633255,352.7520751953125,352.75860595703125,3
1778783007.46045709,86644495,0.10324981808662415,0.09258860349655151,0.256233811378479,0.2670203149318695,352.7532043457031,352.7593994140625,3
1778783007.56041718,86744455,0.1096993014216423,0.10200608521699905,0.22839553654193878,0.24303674697875977,352.7542419433594,352.7581481933594,3
1778783007.66037703,86844415,0.11424799263477325,0.10843326151371002,0.20141105353832245,0.21731193363666534,352.7552185058594,352.7547912597656,3
1778783007.76033711,86944375,0.1177438274025917,0.11653540283441544,0.17755301296710968,0.18857602775096893,352.7560729980469,352.7536926269531,3
1778783007.86029696,87044335,0.11923080682754517,0.11923978477716446,0.1557578593492508,0.16384996473789215,352.7568359375,352.756591796875,3
1778783007.96025705,87144295,0.1194477528333664,0.11516102403402328,0.138156920671463,0.13801822066307068,352.7574768066406,352.7597961425781,3
1778783008.06021714,87244255,0.11889540404081345,0.11472247540950775,0.12404070794582367,0.11774970591068268,352.758056640625,352.7596130371094,3
1778783008.16017699,87344215,0.11906303465366364,0.11231920123100281,0.11305975168943405,0.10138430446386337,352.7585754394531,352.75677490234375,3
1778783008.26013708,87444175,0.11926531791687012,0.11183095723390579,0.10361959040164948,0.09039699286222458,352.759033203125,352.7516174316406,3
1778783008.36009717,87544135,0.11939459294080734,0.11012031883001328,0.09703416377305984,0.08773485571146011,352.75946044921875,352.74737548828125,3
1778783008.46005702,87644095,0.12006423622369766,0.10401581227779388,0.0920703336596489,0.0829748809337616,352.7598571777344,352.7472229003906,3
1778783008.56001711,87744055,0.12286800146102905,0.10775000602006912,0.08661867678165436,0.08189542591571808,352.76025390625,352.7503356933594,3
1778783008.66080999,87844848,0.12657321989536285,0.11468217521905899,0.0793173611164093,0.07296868413686752,352.7606201171875,352.7523193359375,3
1778783008.76077008,87944808,0.12805798649787903,0.11745702475309372,0.07590766251087189,0.06479188054800034,352.760986328125,352.751220703125,3
1778783008.86073017,88044768,0.12858107686042786,0.12314537912607193,0.07332950085401535,0.06058879196643829,352.7613220214844,352.7474365234375,3
1778783008.96069002,88144728,0.12923863530158997,0.12622687220573425,0.0707181990146637,0.06153998151421547,352.7616271972656,352.7456359863281,3
1778783009.06065011,88244688,0.13036438822746277,0.13169138133525848,0.0681610181927681,0.05882139876484871,352.7619323730469,352.7478942871094,3
1778783009.16060996,88344648,0.13075891137123108,0.1321394294500351,0.0671989694237709,0.05890781804919243,352.7622375488281,352.75177001953125,3
1778783009.26057005,88444608,0.12721069157123566,0.12953436374664307,0.06084685027599335,0.06394792348146439,352.76251220703125,352.75262451171875,3
1778783009.36053014,88544568,0.12340950220823288,0.1227170005440712,0.05293332785367966,0.06392504274845123,352.7627868652344,352.7500915527344,3
1778783009.46048999,88644528,0.11988690495491028,0.11658933758735657,0.04415862262248993,0.05559372901916504,352.7630310058594,352.74566650390625,3
1778783009.56045008,88744488,0.11778818070888519,0.10309731960296631,0.035382114350795746,0.04226561635732651,352.76324462890625,352.74346923828125,3
1778783009.66041017,88844448,0.11771462112665176,0.09646592289209366,0.02721431292593479,0.032346755266189575,352.7633972167969,352.7453308105469,3
1778783009.76037002,88944408,0.11872433125972748,0.09799756854772568,0.02263655886054039,0.023453261703252792,352.7635192871094,352.74884033203125,3
1778783009.86033010,89044368,0.12083400040864944,0.10505223274230957,0.020675847306847572,0.020273972302675247,352.76361083984375,352.74951171875,3
1778783009.96029019,89144328,0.12548016011714935,0.11402606964111328,0.023255975916981697,0.01744171977043152,352.763671875,352.7467956542969,3
1778783010.06025004,89244288,0.12950798869132996,0.12063851952552795,0.028915179893374443,0.01990625634789467,352.76373291015625,352.7449951171875,3
1778783010.16021013,89344248,0.13181942701339722,0.12584346532821655,0.03474852070212364,0.02814438007771969,352.7637939453125,352.74664306640625,3
1778783010.26016998,89444208,0.13190071284770966,0.12765198945999146,0.03943529352545738,0.032997362315654755,352.7639465332031,352.7491149902344,3
1778783010.36013007,89544168,0.130364328622818,0.12743791937828064,0.04254375398159027,0.04305595904588699,352.7640686035156,352.74755859375,3
1778783010.46009016,89644128,0.12974703311920166,0.1266043335199356,0.04376900568604469,0.04673610255122185,352.76422119140625,352.7438659667969,3
1778783010.56005001,89744088,0.12820526957511902,0.11953119933605194,0.049825672060251236,0.04906531795859337,352.76434326171875,352.74224853515625,3
1778783010.66001010,89844048,0.12602822482585907,0.11456940323114395,0.05462212488055229,0.05304184928536415,352.7644958496094,352.7441711425781,3
1778783010.76080298,89944841,0.12480970472097397,0.11287102848291397,0.06059475988149643,0.05713999271392822,352.7646789550781,352.7476501464844,3
1778783010.86076307,90044801,0.12351149320602417,0.11174705624580383,0.06706715375185013,0.05804375931620598,352.764892578125,352.7497253417969,3
1778783010.96072316,90144761,0.12522712349891663,0.11656752228736877,0.07547256350517273,0.05928313732147217,352.7651062011719,352.7486267089844,3
1778783011.06068301,90244721,0.127390056848526,0.11903876811265945,0.08500374108552933,0.07069798558950424,352.765380859375,352.74639892578125,3
1778783011.16064310,90344681,0.13111764192581177,0.1251601278781891,0.09538891166448593,0.08477014303207397,352.76568603515625,352.74395751953125,3
1778783011.26060319,90444641,0.13414667546749115,0.13340647518634796,0.10399709641933441,0.09341631084680557,352.76605224609375,352.7450866699219,3
1778783011.36056304,90544601,0.1370212584733963,0.13988125324249268,0.11065662652254105,0.10250460356473923,352.7665100097656,352.748046875,3
1778783011.46052313,90644561,0.13837099075317383,0.13933217525482178,0.11461474001407623,0.11007211357355118,352.7669677734375,352.7486877441406,3
1778783011.56048298,90744521,0.1391202062368393,0.13941414654254913,0.11773607134819031,0.11631764471530914,352.7674560546875,352.7456970214844,3
1778783011.66044307,90844481,0.13830731809139252,0.14143039286136627,0.11895987391471863,0.11672554910182953,352.7679443359375,352.7439880371094,3
1778783011.76040316,90944441,0.137266606092453,0.14609451591968536,0.1191447451710701,0.11851905286312103,352.7684631347656,352.74542236328125,3
1778783011.86036301,91044401,0.13271081447601318,0.14392440021038055,0.1177172064781189,0.11575933545827866,352.7689208984375,352.7499694824219,3
1778783011.96032310,91144361,0.12727057933807373,0.13234837353229523,0.11626973003149033,0.11074130982160568,352.7693786621094,352.75335693359375,3
1778783012.06028318,91244321,0.1220279112458229,0.12499724328517914,0.11536571383476257,0.10689389705657959,352.7698059082031,352.75323486328125,3
1778783012.16024303,91344281,0.1181924119591713,0.11641045659780502,0.11517801880836487,0.10678745806217194,352.77020263671875,352.7506103515625,3
1778783012.26020312,91444241,0.11633846163749695,0.11533775925636292,0.11566323041915894,0.10691796243190765,352.7705993652344,352.7501220703125,3
1778783012.36016297,91544201,0.11569640785455704,0.1142931655049324,0.1160016730427742,0.11275282502174377,352.7710266113281,352.7527160644531,3
1778783012.46012306,91644161,0.11467242985963821,0.11150460690259933,0.1156020238995552,0.11438770592212677,352.77142333984375,352.75738525390625,3
1778783012.56008315,91744121,0.11396787315607071,0.10628723353147507,0.11518807709217072,0.1145498976111412,352.7718200683594,352.757568359375,3
1778783012.66004300,91844081,0.11319617182016373,0.10478294640779495,0.11411537975072861,0.11477628350257874,352.7722473144531,352.7544250488281,3
1778783012.76000309,91944041,0.11251438409090042,0.10131968557834625,0.11209908872842789,0.11328455060720444,352.77264404296875,352.75018310546875,3
1778783012.86079597,92044834,0.11308170109987259,0.09775608032941818,0.11073621362447739,0.11049693077802658,352.7730712890625,352.7507629394531,3
1778783012.96075606,92144794,0.11328575015068054,0.09450729936361313,0.11024703830480576,0.10678496956825256,352.7735290527344,352.7547302246094,3
1778783013.06071615,92244754,0.11397239565849304,0.09541402012109756,0.10793473571538925,0.10348737239837646,352.7739562988281,352.76019287109375,3
1778783013.16067600,92344714,0.11797553300857544,0.10308010876178741,0.10580211132764816,0.09367702156305313,352.7743835449219,352.76165771484375,3
1778783013.26063609,92444674,0.12144231796264648,0.11056605726480484,0.10499316453933716,0.08887716382741928,352.7748107910156,352.760009765625,3
1778783013.36059618,92544634,0.12268483638763428,0.10886868089437485,0.10453727841377258,0.0970151498913765,352.7751770019531,352.7565002441406,3
1778783013.46055603,92644594,0.12261061370372772,0.10384595394134521,0.10462062060832977,0.10038548707962036,352.77557373046875,352.7566833496094,3
1778783013.56051612,92744554,0.12226589024066925,0.09948329627513885,0.10479854792356491,0.09997664391994476,352.77593994140625,352.7599182128906,3
1778783013.66047597,92844514,0.12214122712612152,0.10470312833786011,0.10486272722482681,0.09997865557670593,352.77630615234375,352.76373291015625,3
