timestamp,TimeUS,I,GyrX,GyrY,GyrZ,AccX,AccY,AccZ,EG,EA,T,GH,AH,GHz,AHz
1778627314.40000010,54605649,0,0.0007621713448315859,0.0007464044028893113,0.0008045530994422734,-0.0016368229407817125,-0.000916681659873575,-9.817384719848633,0,0,28.221546173095703,1,1,1000,1000
1778627314.40000010,54605649,1,0.0008958132239058614,0.0009595470037311316,0.0008400095975957811,-0.0009316150681115687,0.00017480237875133753,-9.818760871887207,0,0,28.221546173095703,1,1,760,800
1778627314.43998408,54645633,0,0.0007561526726931334,0.0007279060082510114,0.0006991310510784388,-0.0010391267715021968,-0.0001624229334993288,-9.817513465881348,0,0,28.223783493041992,1,1,1000,1000
1778627314.43998408,54645633,1,0.0008820737130008638,0.0006740745739080012,0.0008326278766617179,-0.0027284412644803524,0.0003767177986446768,-9.817137718200684,0,0,28.223783493041992,1,1,760,800
1778627314.47996807,54685617,0,0.0007664449512958527,0.0008223361801356077,0.0007152702892199159,-0.0012908626813441515,-0.0011661614989861846,-9.818693161010742,0,0,28.22601890563965,1,1,1000,1000
1778627314.47996807,54685617,1,0.0008552761864848435,0.0009141573682427406,0.0008636125712655485,-0.00034665028215385973,-0.001224786275997758,-9.816581726074219,0,0,28.22601890563965,1,1,760,800
1778627314.51995206,54725601,0,0.0007407722878269851,0.0007561487145721912,0.0006874857353977859,-0.00025929257390089333,-0.0012959659798070788,-9.817179679870605,0,0,28.228256225585938,1,1,1000,1000
1778627314.51995206,54725601,1,0.0007429469842463732,0.0008596171392127872,0.0007406161166727543,0.0002597603597678244,-0.0003483250620774925,-9.817070007324219,0,0,28.228256225585938,1,1,760,800
1778627314.55993605,54765585,0,0.0006930320523679256,0.0008019024389795959,0.0007390644168481231,-0.00022833172988612205,-0.00012714789772871882,-9.81558609008789,0,0,28.230491638183594,1,1,1000,1000
1778627314.55993605,54765585,1,0.0007861219346523285,0.0006291283643804491,0.000828063115477562,-0.0021873374935239553,-0.0007236102828755975,-9.81782341003418,0,0,28.230491638183594,1,1,760,800
1778627314.59992003,54805569,0,0.0007153604528866708,0.0006910663796588778,0.00088456243975088,-0.001145443762652576,-0.0024789609014987946,-9.817925453186035,0,0,28.23272705078125,1,1,1000,1000
1778627314.59992003,54805569,1,0.0005420793895609677,0.0005514329532161355,0.0009412296931259334,0.00036176046705804765,-0.0025070796255022287,-9.817121505737305,0,0,28.23272705078125,1,1,760,800
1778627314.63990402,54845553,0,0.0007534229662269354,0.0007936532492749393,0.0008263419149443507,-0.0012447668705135584,-0.0016474908916279674,-9.81739616394043,0,0,28.234962463378906,1,1,1000,1000
1778627314.63990402,54845553,1,0.0006995175499469042,0.0009388071484863758,0.0007421946502290666,-0.0016684879083186388,-0.001576637732796371,-9.81494140625,0,0,28.234962463378906,1,1,760,800
1778627314.67988801,54885537,0,0.0007886161911301315,0.0008177086128853261,0.000678775948472321,-0.0010044258087873459,-0.0006870939978398383,-9.816703796386719,0,0,28.237197875976562,1,1,1000,1000
1778627314.67988801,54885537,1,0.0007764011970721185,0.0008013120968826115,0.0007765075424686074,-0.00239621102809906,-0.0002747719408944249,-9.818931579589844,0,0,28.237197875976562,1,1,760,800
1778627314.71987200,54925521,0,0.0008129019406624138,0.0006770651089027524,0.000775702646933496,-0.0006827113684266806,-0.0011298712342977524,-9.816825866699219,0,0,28.23943328857422,1,1,1000,1000
1778627314.71987200,54925521,1,0.0008035877253860235,0.0008541657589375973,0.0008136369287967682,-0.0019162993412464857,-0.0013126629637554288,-9.816179275512695,0,0,28.23943328857422,1,1,760,800
1778627314.75985599,54965505,0,0.00089902279432863,0.0007444192888215184,0.0007986003765836358,-0.00018836154777090997,1.174160024675075e-05,-9.816993713378906,0,0,28.241668701171875,1,1,1000,1000
1778627314.75985599,54965505,1,0.0007339140865951777,0.0007266237516887486,0.0005607597413472831,-0.0010800289455801249,-4.2270297853974625e-05,-9.819928169250488,0,0,28.241668701171875,1,1,760,800
1778627314.79984021,55005489,0,0.0006827876786701381,0.000719287374522537,0.0007832128321751952,-0.0011262603802606463,0.00021983234910294414,-9.816884994506836,0,0,28.2439022064209,1,1,1000,1000
1778627314.79984021,55005489,1,0.0006845822790637612,0.0007323911413550377,0.000581317872274667,-0.0009831173811107874,-0.0018446303438395262,-9.819158554077148,0,0,28.2439022064209,1,1,760,800
1778627314.83982420,55045473,0,0.0008406548295170069,0.0008060145773924887,0.0007205670699477196,-0.0007335685077123344,-0.0005874970811419189,-9.817597389221191,0,0,28.246135711669922,1,1,1000,1000
1778627314.83982420,55045473,1,0.0007959227077662945,0.0007155067287385464,0.0010662885615602136,-0.0022626733407378197,-0.00030394853092730045,-9.817903518676758,0,0,28.24608039855957,1,1,760,800
1778627314.87980819,55085457,0,0.0007695298991166055,0.0007537793135270476,0.0006882324232719839,-0.0008345888345502317,-0.0007961556548252702,-9.818022727966309,0,0,28.248369216918945,1,1,1000,1000
1778627314.87980819,55085457,1,0.0006774699431844056,0.0007478928309865296,0.0009334998321719468,0.0011321307392790914,-0.000966806779615581,-9.81611156463623,0,0,28.248313903808594,1,1,760,800
1778627314.91979218,55125441,0,0.0007300854776985943,0.0007559378282167017,0.0008490452310070395,-0.0011473872000351548,-0.0014520179247483611,-9.81739616394043,0,0,28.25060272216797,1,1,1000,1000
1778627314.91979218,55125441,1,0.0008574410458095372,0.0007349798106588423,0.0006661632214672863,-0.0006853964296169579,-0.0030714848544448614,-9.81692886352539,0,0,28.250545501708984,1,1,760,800
1778627314.95977616,55165425,0,0.0007691886858083308,0.0007660385454073548,0.0007837377488613129,-0.001179037499241531,-0.0010930560529232025,-9.81696891784668,0,0,28.252836227416992,1,1,1000,1000
1778627314.95977616,55165425,1,0.00045072101056575775,0.0008837913046590984,0.0007963625248521566,0.0002020408574026078,0.0009919379372149706,-9.817506790161133,0,0,28.25278091430664,1,1,760,800
1778627314.99976015,55205409,0,0.0008044833084568381,0.000739437120500952,0.0007224658038467169,-0.0013886267552152276,-0.00029501356766559184,-9.817049026489258,0,0,28.255069732666016,1,1,1000,1000
1778627314.99976015,55205409,1,0.0007228977628983557,0.0006342391134239733,0.0012476342963054776,-0.00042297475738450885,-0.00137026933953166,-9.816826820373535,0,0,28.25501251220703,1,1,760,800
1778627315.03974414,55245393,0,0.0008225730853155255,0.0007968040299601853,0.00072187784826383,-0.0012520235031843185,-0.0011368263512849808,-9.81627082824707,0,0,28.257301330566406,1,1,1000,1000
1778627315.03974414,55245393,1,0.0006742811528965831,0.0007631613407284021,0.0008777729817666113,-0.0017503303242847323,0.000346165441442281,-9.818918228149414,0,0,28.257244110107422,1,1,760,800
1778627315.07972813,55285377,0,0.0007352795801125467,0.0007280583376996219,0.0007718655979260802,-0.001260112738236785,-0.0012956229038536549,-9.817628860473633,0,0,28.259532928466797,1,1,1000,1000
1778627315.07972813,55285377,1,0.0010089605348184705,0.0008200402371585369,0.0006857240223325789,-0.001720795058645308,-0.0018676946638152003,-9.81685733795166,0,0,28.259477615356445,1,1,760,800
1778627315.11971211,55325361,0,0.0008501361589878798,0.000730049388948828,0.0008260930771939456,-0.0018880835268646479,-0.0011550248600542545,-9.817134857177734,0,0,28.261764526367188,1,1,1000,1000
1778627315.11971211,55325361,1,0.0006188974366523325,0.0008078443352133036,0.0006746960571035743,-0.0003361286362633109,-0.0005264222854748368,-9.81771183013916,0,0,28.261709213256836,1,1,760,800
1778627315.15969610,55365345,0,0.0007503015222027898,0.0007119330111891031,0.0008299692999571562,-0.000995939364656806,-0.0012627015821635723,-9.818302154541016,0,0,28.263996124267578,1,1,1000,1000
1778627315.15969610,55365345,1,0.0006811522180214524,0.0008807266131043434,0.0007240670965984464,-0.0006831286591477692,-0.0009542850311845541,-9.819029808044434,0,0,28.263940811157227,1,1,760,800
1778627315.19968009,55405329,0,0.0008337479666806757,0.0008595556719228625,0.0008617039420641959,-0.001161105465143919,-0.001265195431187749,-9.817551612854004,0,0,28.26622772216797,1,1,1000,1000
1778627315.19968009,55405329,1,0.0008495952351950109,0.0008210478699766099,0.0007889490807428956,-0.0019029274117201567,-0.0018040461000055075,-9.819618225097656,0,0,28.266172409057617,1,1,760,800
1778627315.23966408,55445313,0,0.0007554235053248703,0.000668250722810626,0.0008133045630529523,-0.0008544540032744408,-0.0018993316916748881,-9.818082809448242,0,0,28.26845932006836,1,1,1000,1000
1778627315.23966408,55445313,1,0.0006806541932746768,0.0009457783307880163,0.0009239466162398458,-0.001422611065208912,-0.000737910158932209,-9.81686782836914,0,0,28.268404006958008,1,1,760,800
1778627315.27964807,55485297,0,0.0008585394825786352,0.0008223858894780278,0.0007570573943667114,-0.0003876221599057317,-0.00040146801620721817,-9.816947937011719,0,0,28.27069091796875,1,1,1000,1000
1778627315.27964807,55485297,1,0.0006606150418519974,0.0007340803858824074,0.001081103109754622,-0.000999200507067144,0.0005109884077683091,-9.817840576171875,0,0,28.270633697509766,1,1,760,800
1778627315.31963205,55525281,0,0.0007598584634251893,0.0007516122423112392,0.0008083565044216812,-0.001532670110464096,-0.0018278055358678102,-9.816536903381348,0,0,28.272920608520508,1,1,1000,1000
1778627315.31963205,55525281,1,0.000613124982919544,0.0008230023668147624,0.0009821063140407205,-0.00067997194128111,0.001205506268888712,-9.817479133605957,0,0,28.272865295410156,1,1,760,800
1778627315.35961604,55565265,0,0.0008215188281610608,0.0007575367344543338,0.0008125199819914997,-0.0003249374858569354,-0.00031433458207175136,-9.817187309265137,0,0,28.275150299072266,1,1,1000,1000
1778627315.35961604,55565265,1,0.0008192224777303636,0.000601705745793879,0.0007934761233627796,-0.00033238413743674755,-0.0010494370944797993,-9.818464279174805,0,0,28.275094985961914,1,1,760,800
1778627315.39960003,55605249,0,0.0008295072475448251,0.0007525345426984131,0.0007671806961297989,-0.0010728677734732628,-0.0006493480177596211,-9.816607475280762,0,0,28.277379989624023,1,1,1000,1000
1778627315.39960003,55605249,1,0.0007348068756982684,0.0005489219911396503,0.0006034538964740932,-0.0015339023666456342,-0.0013170248130336404,-9.815590858459473,0,0,28.277324676513672,1,1,760,800
1778627315.43958402,55645233,0,0.0008408575667999685,0.0007362935575656593,0.0007771480595692992,-0.0006881947047077119,-6.638457125518471e-05,-9.817255973815918,0,0,28.27955436706543,1,1,1000,1000
1778627315.43958402,55645233,1,0.0008129321504384279,0.0007397112203761935,0.0007576391799375415,-0.0036212445702403784,-0.0003167740651406348,-9.815861701965332,0,0,28.27955436706543,1,1,760,800
1778627315.47956800,55685217,0,0.0008316278690472245,0.0008201127639040351,0.0007777594728395343,-0.0013630371540784836,-0.000790894846431911,-9.818620681762695,0,0,28.281784057617188,1,1,1000,1000
1778627315.47956800,55685217,1,0.0009247081470675766,0.0007118677021935582,0.0006614649901166558,-0.004047316964715719,-0.00075960299000144,-9.817474365234375,0,0,28.281784057617188,1,1,760,800
1778627315.51955199,55725201,0,0.0007033492438495159,0.0007402357296086848,0.0007559272344224155,-0.0011340200435370207,-0.0009791671764105558,-9.816900253295898,0,0,28.284011840820312,1,1,1000,1000
1778627315.51955199,55725201,1,0.0007559140212833881,0.0005467747687362134,0.0010139595251530409,-0.00037801978760398924,-0.0011453565675765276,-9.817718505859375,0,0,28.284011840820312,1,1,760,800
1778627315.55953622,55765185,0,0.0007782458560541272,0.0007646807353012264,0.0007248091278597713,-0.001054648426361382,9.816682722885162e-05,-9.818553924560547,0,0,28.28624153137207,1,1,1000,1000
1778627315.55953622,55765185,1,0.0005123392911627889,0.0008761105127632618,0.0008283151546493173,-0.0007143710972741246,-0.0002382278034929186,-9.817438125610352,0,0,28.28624153137207,1,1,760,800
1778627315.59952021,55805169,0,0.0008640549494884908,0.0007204811554402113,0.0008168189087882638,-0.0005189914954826236,-0.0007203215500339866,-9.817261695861816,0,0,28.288469314575195,1,1,1000,1000
1778627315.59952021,55805169,1,0.0007898005424067378,0.0009759542299434543,0.0008620892185717821,-0.0015393092762678862,-0.0006501243333332241,-9.818567276000977,0,0,28.288469314575195,1,1,760,800
1778627315.63950419,55845153,0,0.0007908078841865063,0.000838381121866405,0.0007900767377577722,-0.00016314037202391773,-0.0013067828258499503,-9.817397117614746,0,0,28.29069709777832,1,1,1000,1000
1778627315.63950419,55845153,1,0.0005474758800119162,0.0009305931162089109,0.0009217364131473005,-0.0028714188374578953,-0.0008077670354396105,-9.819730758666992,0,0,28.29069709777832,1,1,760,800
1778627315.67948818,55885137,0,0.0007866399828344584,0.0008805120596662164,0.0007482297951355577,-0.00025626985006965697,-0.000821415800601244,-9.817089080810547,0,0,28.292924880981445,1,1,1000,1000
1778627315.67948818,55885137,1,0.000429548294050619,0.0007633392815478146,0.0007912688888609409,0.0007205606088973582,-0.001063453033566475,-9.817254066467285,0,0,28.292924880981445,1,1,760,800
1778627315.71947217,55925121,0,0.000800269772298634,0.0007876998279243708,0.0008129109046421945,-0.0010462915524840355,-0.0012551115360110998,-9.81760311126709,0,0,28.29515266418457,1,1,1000,1000
1778627315.71947217,55925121,1,0.0007783034816384315,0.0005998880369588733,0.0005510097835212946,0.0006539380992762744,7.481287320842966e-05,-9.817501068115234,0,0,28.29515266418457,1,1,760,800
1778627315.75945616,55965105,0,0.0008102009305730462,0.000729957188013941,0.0007504165405407548,-0.000697565614245832,-0.00034778352710418403,-9.817367553710938,0,0,28.297380447387695,1,1,1000,1000
1778627315.75945616,55965105,1,0.0009222312364727259,0.0008494950598105788,0.000740374787710607,0.00034944197977893054,-0.002349257469177246,-9.817405700683594,0,0,28.297380447387695,1,1,760,800
1778627315.79944015,56005089,0,0.000760879716835916,0.0008104942389763892,0.0007463631918653846,-0.0014975832309573889,-0.0013909402769058943,-9.817874908447266,0,0,28.299606323242188,1,1,1000,1000
1778627315.79944015,56005089,1,0.001064120209775865,0.0009603957878425717,0.0008194479160010815,-0.0024543446488678455,0.00042043632129207253,-9.817586898803711,0,0,28.299606323242188,1,1,760,800
1778627315.83942413,56045073,0,0.0007554809562861919,0.0007498688064515591,0.0008105122833512723,-0.002062091138213873,-0.001470815041102469,-9.818971633911133,0,0,28.30183219909668,1,1,1000,1000
1778627315.83942413,56045073,1,0.0007528380956500769,0.0006510952953249216,0.0006034468533471227,0.0004340076702646911,0.00017140639829449356,-9.818034172058105,0,0,28.30183219909668,1,1,760,800
1778627315.87940812,56085057,0,0.0007428668322972953,0.0007997465436346829,0.0007683078292757273,-0.0012505876366049051,-0.0010064960224553943,-9.817567825317383,0,0,28.304115295410156,1,1,1000,1000
1778627315.87940812,56085057,1,0.0006801086710765958,0.0008902609115466475,0.000829555734526366,-0.0028789611533284187,-0.0010119283106178045,-9.817675590515137,0,0,28.304115295410156,1,1,760,800
1778627315.91939211,56125041,0,0.0007921872311271727,0.0007549361907877028,0.0007528943242505193,-0.0002933717623818666,-0.0017191777005791664,-9.816673278808594,0,0,28.30634117126465,1,1,1000,1000
1778627315.91939211,56125041,1,0.0009464696631766856,0.000667677610181272,0.0009333885391242802,0.0001826154039008543,0.0007343036122620106,-9.817724227905273,0,0,28.30634117126465,1,1,760,800
1778627315.95937610,56165025,0,0.0007392109837383032,0.0007589075248688459,0.0008059670799411833,-0.0016841382021084428,-0.0002934160875156522,-9.817112922668457,0,0,28.30856704711914,1,1,1000,1000
1778627315.95937610,56165025,1,0.0008802617667242885,0.0007563139079138637,0.000600931525696069,-0.0013500176137313247,-0.004339330364018679,-9.818450927734375,0,0,28.30856704711914,1,1,760,800
1778627315.99936008,56205009,0,0.0007178515661507845,0.0007171905017457902,0.0007422663038596511,-0.0008422478567808867,-0.0016265751328319311,-9.817341804504395,0,0,28.310792922973633,1,1,1000,1000
1778627315.99936008,56205009,1,0.0007657759124413133,0.0004580270906444639,0.0006889840587973595,-0.001874179462902248,-0.00029807505779899657,-9.818016052246094,0,0,28.310792922973633,1,1,760,800
1778627316.03934407,56244993,0,0.0008123654406517744,0.0007801625179126859,0.0008526393794454634,-0.0008693650597706437,-0.00028651815955527127,-9.816572189331055,0,0,28.31296157836914,1,1,1000,1000
1778627316.03934407,56244993,1,0.000741609837859869,0.0009887218475341797,0.0006176343304105103,-0.0008941080886870623,-0.0010441303020343184,-9.815774917602539,0,0,28.31296157836914,1,1,760,800
1778627316.07932806,56284977,0,0.0007960405200719833,0.0008837785571813583,0.0007838208111934364,-0.0019025157671421766,-0.0025472366251051426,-9.817048072814941,0,0,28.315185546875,1,1,1000,1000
1778627316.07932806,56284977,1,0.000752760621253401,0.0009799185208976269,0.0007670982740819454,0.0002010111347772181,-0.0004773265973199159,-9.820225715637207,0,0,28.315185546875,1,1,760,800
1778627316.11931205,56324961,0,0.0007212396012619138,0.0008077496895566583,0.0008020267705433071,-0.0012947716750204563,-0.0009235187317244709,-9.817919731140137,0,0,28.317411422729492,1,1,1000,1000
1778627316.11931205,56324961,1,0.0009323899867013097,0.0007746084593236446,0.0008178191492334008,-9.671006409917027e-05,-0.0017563386354595423,-9.814857482910156,0,0,28.317411422729492,1,1,760,800
1778627316.15929604,56364945,0,0.0009130220860242844,0.0007952543091960251,0.000796378415543586,-0.0018813107162714005,-0.00020680960733443499,-9.818341255187988,0,0,28.31963539123535,1,1,1000,1000
1778627316.15929604,56364945,1,0.0007348651415668428,0.0008795470930635929,0.0008664199849590659,0.0002221380127593875,0.0005302096251398325,-9.818643569946289,0,0,28.31963539123535,1,1,760,800
1778627316.19928002,56404929,0,0.0007648401078768075,0.0008383094682358205,0.0008339760242961347,-0.0015963353216648102,-0.0015286107081919909,-9.816078186035156,0,0,28.32185935974121,1,1,1000,1000
1778627316.19928002,56404929,1,0.0006427323096431792,0.0006914795376360416,0.0007158747757785022,-0.00018899416318163276,-0.0011525190202519298,-9.817102432250977,0,0,28.32185935974121,1,1,760,800
1778627316.23926401,56444913,0,0.0007968212594278157,0.0007494146702811122,0.0007561921956948936,-0.0005097172688692808,-0.0015507282223552465,-9.818428993225098,0,0,28.32408332824707,1,1,1000,1000
1778627316.23926401,56444913,1,0.0007991313468664885,0.0008325579110532999,0.0006737782387062907,0.0009207899565808475,-0.0008467561565339565,-9.814793586730957,0,0,28.32408332824707,1,1,760,800
1778627316.27924800,56484897,0,0.0007463775109499693,0.0007333756657317281,0.000834291335195303,-0.0011053275084123015,-0.0013366756029427052,-9.816429138183594,0,0,28.326305389404297,1,1,1000,1000
1778627316.27924800,56484897,1,0.0008647100767120719,0.00098310480825603,0.0007481745560653508,-0.00011125941091449931,-0.0019912205170840025,-9.816715240478516,0,0,28.326305389404297,1,1,760,800
1778627316.31923199,56524881,0,0.0008568154880777001,0.0008935084915719926,0.00075388397090137,-0.0020737661980092525,-0.0002025848370976746,-9.816635131835938,0,0,28.328529357910156,1,1,1000,1000
1778627316.31923199,56524881,1,0.0006142867496237159,0.0008905724971555173,0.0010264137526974082,-0.0008313682628795505,-0.001914626220241189,-9.818211555480957,0,0,28.328529357910156,1,1,760,800
1778627316.35921621,56564865,0,0.0007687608012929559,0.000803235569037497,0.0008491993648931384,-0.0008887880831025541,-0.0005922095733694732,-9.817403793334961,0,0,28.330751419067383,1,1,1000,1000
1778627316.35921621,56564865,1,0.0006423494196496904,0.0008148188935592771,0.0007578613003715873,-0.00041808400419540703,-0.000544901704415679,-9.81537914276123,0,0,28.330751419067383,1,1,760,800
1778627316.39920020,56604849,0,0.0008480669930577278,0.0008174524991773069,0.0007999496883712709,-0.0008594012469984591,-0.00043351881322450936,-9.817493438720703,0,0,28.33297348022461,1,1,1000,1000
1778627316.39920020,56604849,1,0.0007972108433023095,0.0007227323367260396,0.0008873299229890108,-0.000793244456872344,-0.0012897381093353033,-9.81903076171875,0,0,28.33297348022461,1,1,760,800
1778627316.43918419,56644833,0,0.0007797569269314408,0.000825634109787643,0.0007980845402926207,-0.0002321310166735202,-0.0009486862691119313,-9.816900253295898,0,0,28.33519744873047,1,1,1000,1000
1778627316.43918419,56644833,1,0.0007854636060073972,0.00100241438485682,0.000715027388650924,-0.0003693219623528421,-0.0018303000833839178,-9.819570541381836,0,0,28.33519744873047,1,1,760,800
1778627316.48000121,56685650,0,0.0009079173905774951,0.0008637957507744431,0.0008004111587069929,-0.0004107224813196808,-0.0009297777432948351,-9.817817687988281,0,0,28.337474822998047,1,1,1000,1000
1778627316.48000121,56685650,1,0.0006369233597069979,0.0008073762292042375,0.0007129153818823397,-0.003025416284799576,-0.002406318439170718,-9.816951751708984,0,0,28.337474822998047,1,1,760,800
1778627316.51998520,56725634,0,0.0007748531061224639,0.0008357648621313274,0.0007360113086178899,-0.00027921824948862195,-0.0015068261418491602,-9.817493438720703,0,0,28.33969497680664,1,1,1000,1000
1778627316.51998520,56725634,1,0.0010807841317728162,0.0005910370964556932,0.0007861862541176379,0.0018825677689164877,-0.003161088563501835,-9.817573547363281,0,0,28.33969497680664,1,1,760,800
1778627316.55996919,56765618,0,0.0007517311023548245,0.0008188606007024646,0.0008196115959435701,-0.0011987010948359966,-0.001257939962670207,-9.817455291748047,0,0,28.341917037963867,1,1,1000,1000
1778627316.55996919,56765618,1,0.0008186993654817343,0.0008325321250595152,0.0008107150788418949,-0.0014442922547459602,-0.002589684445410967,-9.81735610961914,0,0,28.341917037963867,1,1,760,800
1778627316.59995317,56805602,0,0.000723718898370862,0.0008163985330611467,0.0007632633787579834,-0.0007284284220077097,0.0003251299785915762,-9.816780090332031,0,0,28.34413719177246,1,1,1000,1000
1778627316.59995317,56805602,1,0.0009352242341265082,0.0006629152921959758,0.0009064078330993652,-0.003419042332097888,-0.000351179187418893,-9.816819190979004,0,0,28.34413719177246,1,1,760,800
1778627316.63993716,56845586,0,0.000762472627684474,0.0007322971941903234,0.0008339195046573877,-0.0012116373982280493,-0.0006272278260439634,-9.817051887512207,0,0,28.346357345581055,1,1,1000,1000
1778627316.63993716,56845586,1,0.0008035185164771974,0.0006678916979581118,0.0007415294530801475,-0.0011026982683688402,0.0016253544017672539,-9.81701374053955,0,0,28.346357345581055,1,1,760,800
1778627316.67992115,56885570,0,0.0007919372874312103,0.0008341390639543533,0.0008279238827526569,-0.000447965256171301,-0.0010911696590483189,-9.817663192749023,0,0,28.34857749938965,1,1,1000,1000
1778627316.67992115,56885570,1,0.0006255992921069264,0.0006843588198535144,0.0006146663799881935,5.5321674153674394e-05,-0.00019813083054032177,-9.816564559936523,0,0,28.34857749938965,1,1,760,800
1778627316.71990514,56925554,0,0.0007614186033606529,0.0008185533224605024,0.0008630575030110776,-0.0006393285002559423,-0.0004983062972314656,-9.817901611328125,0,0,28.350797653198242,1,1,1000,1000
1778627316.71990514,56925554,1,0.0009492937242612243,0.0008360807551071048,0.0007765076588839293,0.00021497049601748586,0.00047025602543726563,-9.816349029541016,0,0,28.350797653198242,1,1,760,800
1778627316.75988913,56965538,0,0.0008644924964755774,0.000846856739372015,0.0007550619193352759,-0.0007710298523306847,-0.0004030133713968098,-9.817451477050781,0,0,28.353017807006836,1,1,1000,1000
1778627316.75988913,56965538,1,0.0008401315426453948,0.001189995906315744,0.000996211776509881,0.00020541108096949756,-0.0010445438092574477,-9.81628704071045,0,0,28.353017807006836,1,1,760,800
1778627316.79987311,57005522,0,0.0008123003062792122,0.0007098270580172539,0.0007814137497916818,-0.0006948127993382514,-0.0002717372844927013,-9.816852569580078,0,0,28.35523796081543,1,1,1000,1000
1778627316.79987311,57005522,1,0.0007459300686605275,0.0009589234832674265,0.0009188610129058361,-0.002146855229511857,-0.0006329718744382262,-9.81582260131836,0,0,28.35523796081543,1,1,760,800
1778627316.83985710,57045506,0,0.0008838794892653823,0.0008870111196301877,0.0007640346884727478,-0.0003785958106163889,-0.001181381638161838,-9.816482543945312,0,0,28.35745620727539,1,1,1000,1000
1778627316.83985710,57045506,1,0.0007220595143735409,0.0008554670494049788,0.0008214808185584843,-0.0019493086729198694,-0.001236278796568513,-9.817925453186035,0,0,28.35745620727539,1,1,760,800
1778627316.87984109,57085490,0,0.0007470608688890934,0.0008086603484116495,0.0008442067191936076,-0.0017488657031208277,-0.00042960947030223906,-9.818168640136719,0,0,28.359676361083984,1,1,1000,1000
1778627316.87984109,57085490,1,0.0005948996404185891,0.0005593306850641966,0.0007333206594921649,4.996187271899544e-05,0.0008842394454404712,-9.814959526062012,0,0,28.359676361083984,1,1,760,800
1778627316.91982508,57125474,0,0.0007988514262251556,0.0008397947531193495,0.0008156342664733529,-0.0005313618457876146,-0.001107682939618826,-9.817144393920898,0,0,28.361894607543945,1,1,1000,1000
1778627316.91982508,57125474,1,0.0009917716961354017,0.0010379457380622625,0.0007851923583075404,-0.00042456630035303533,-0.003339943243190646,-9.818126678466797,0,0,28.361839294433594,1,1,760,800
1778627316.95980906,57165458,0,0.000817375723272562,0.000811527541372925,0.0008203011238947511,-0.0012915281113237143,-0.00144495302811265,-9.817756652832031,0,0,28.364112854003906,1,1,1000,1000
1778627316.95980906,57165458,1,0.0005025084246881306,0.0008705467917025089,0.0007617708179168403,-0.0025043345522135496,-0.001289147767238319,-9.816882133483887,0,0,28.364057540893555,1,1,760,800
1778627316.99979305,57205442,0,0.0007449355907738209,0.0007987633580341935,0.0007407742086797953,3.6484569136518985e-05,-0.0009678443311713636,-9.81812572479248,0,0,28.366331100463867,1,1,1000,1000
1778627316.99979305,57205442,1,0.0008243911433964968,0.0006567909149453044,0.0008642759639769793,-0.001772088697180152,-0.0021601389162242413,-9.818574905395508,0,0,28.366275787353516,1,1,760,800
1778627317.03977704,57245426,0,0.0008056429796852171,0.0007513914024457335,0.0008612196543253958,-0.0011840946972370148,-0.0016668124590069056,-9.817974090576172,0,0,28.368547439575195,1,1,1000,1000
1778627317.03977704,57245426,1,0.0008900030516088009,0.00080416991841048,0.0007200631080195308,-0.0032870483119040728,0.0005847978172823787,-9.818666458129883,0,0,28.368492126464844,1,1,760,800
1778627317.07976103,57285410,0,0.0008285635849460959,0.000806448922958225,0.0007516026380471885,-0.0015691379085183144,-0.00026759415050037205,-9.817657470703125,0,0,28.370765686035156,1,1,1000,1000
1778627317.07976103,57285410,1,0.0007018061587586999,0.0008753588190302253,0.0007373997941613197,-0.0016056728782132268,-0.0013725637691095471,-9.816444396972656,0,0,28.370710372924805,1,1,760,800
1778627317.11974502,57325394,0,0.0007447270327247679,0.0008389101712964475,0.0007592846523039043,-0.0016850028187036514,-0.00022335740504786372,-9.817362785339355,0,0,28.372982025146484,1,1,1000,1000
1778627317.11974502,57325394,1,0.0007797477883286774,0.0008292224374599755,0.0005291296984069049,-0.0018453847151249647,-0.0009249461581930518,-9.817914962768555,0,0,28.372926712036133,1,1,760,800
1778627317.15972900,57365378,0,0.0007454595761373639,0.0007926649414002895,0.0007650396437384188,-0.0003317194350529462,-0.00028138927882537246,-9.817359924316406,0,0,28.375200271606445,1,1,1000,1000
1778627317.15972900,57365378,1,0.0007399054593406618,0.000881701591424644,0.0009720767266117036,-0.00038068214780651033,-0.0004619968531187624,-9.817655563354492,0,0,28.375144958496094,1,1,760,800
1778627317.19971299,57405362,0,0.0008245789213106036,0.0008002400863915682,0.0008362105581909418,-0.000807805045042187,-0.0006981332553550601,-9.817463874816895,0,0,28.377416610717773,1,1,1000,1000
1778627317.19971299,57405362,1,0.0007398771704174578,0.0009863377781584859,0.0006109789246693254,-0.0008472198387607932,0.0007125058909878135,-9.81966781616211,0,0,28.37735939025879,1,1,760,800
1778627317.23969722,57445346,0,0.0007893899455666542,0.0007717558182775974,0.0008244001655839384,-0.001152522279880941,-0.0012684676330536604,-9.81856918334961,0,0,28.3796329498291,1,1,1000,1000
1778627317.23969722,57445346,1,0.0008597640553489327,0.0010409128153696656,0.0008685915963724256,-0.0008603325113654137,-0.005372009705752134,-9.817562103271484,0,0,28.379575729370117,1,1,760,800
1778627317.27968121,57485330,0,0.0007789409137330949,0.0007571188034489751,0.0008045978611335158,-0.0013590995222330093,6.539872993016616e-05,-9.81753158569336,0,0,28.381847381591797,1,1,1000,1000
1778627317.27968121,57485330,1,0.00061498221475631,0.00086848100181669,0.0009815514786168933,0.0012591354316100478,-0.0013913734583184123,-9.817533493041992,0,0,28.381792068481445,1,1,760,800
1778627317.31966519,57525314,0,0.000859990541357547,0.0008402083767578006,0.0008941746200434864,-0.0007413332350552082,-0.001172674703411758,-9.818087577819824,0,0,28.384063720703125,1,1,1000,1000
1778627317.31966519,57525314,1,0.0007189311436377466,0.0007663971045985818,0.0008405526168644428,-0.0021780761890113354,-0.0035651482176035643,-9.818005561828613,0,0,28.384008407592773,1,1,760,800
1778627317.35964918,57565298,0,0.0007752868114039302,0.0008405072148889303,0.0007799629238434136,-0.0010175952920690179,-0.0014979711268097162,-9.817081451416016,0,0,28.38627815246582,1,1,1000,1000
1778627317.35964918,57565298,1,0.0006197734037414193,0.0007722839363850653,0.0007666710880585015,-0.002561501692980528,-0.0013322612503543496,-9.818170547485352,0,0,28.38622283935547,1,1,760,800
1778627317.39963317,57605282,0,0.000801820307970047,0.0008531931089237332,0.0007859111065044999,-0.00129117991309613,-0.0019322920124977827,-9.81747055053711,0,0,28.38849449157715,1,1,1000,1000
1778627317.39963317,57605282,1,0.0009413518710061908,0.0007353271939791739,0.001038978574797511,-0.0017171807121485472,-0.001160584855824709,-9.816730499267578,0,0,28.388439178466797,1,1,760,800
1778627317.43961716,57645266,0,0.0008505955338478088,0.000819031847640872,0.0007988279685378075,-0.0008273031562566757,-0.001528720953501761,-9.816726684570312,0,0,28.390708923339844,1,1,1000,1000
1778627317.43961716,57645266,1,0.00047475931933149695,0.0006755415233783424,0.0007279260316863656,-0.000739912036806345,0.00025984548847191036,-9.816079139709473,0,0,28.390653610229492,1,1,760,800
1778627317.47960114,57685250,0,0.0008598560816608369,0.0007750765653327107,0.0008216165006160736,2.367948036408052e-05,-0.002047593705356121,-9.81849479675293,0,0,28.39292335510254,1,1,1000,1000
1778627317.47960114,57685250,1,0.000832429388538003,0.0008926793816499412,0.0006687372224405408,0.0018706497503444552,0.00022248318418860435,-9.819122314453125,0,0,28.392868041992188,1,1,760,800
1778627317.51958513,57725234,0,0.0007309382781386375,0.0008218053844757378,0.0007456224411725998,-0.0005249257665127516,-0.0014998086262494326,-9.816837310791016,0,0,28.3951358795166,1,1,1000,1000
1778627317.51958513,57725234,1,0.0007952463929541409,0.0006927865906618536,0.0006611583521589637,0.0014495734358206391,-0.0014964193105697632,-9.81635856628418,0,0,28.395082473754883,1,1,760,800
1778627317.55956912,57765218,0,0.000855275196954608,0.0008675177814438939,0.0007793436525389552,-0.0014223026810213923,-0.001626724610105157,-9.817030906677246,0,0,28.397294998168945,1,1,1000,1000
1778627317.55956912,57765218,1,0.0009891389636322856,0.000853349338285625,0.0007399465539492667,-0.002190179890021682,-0.0028422933537513018,-9.81741714477539,0,0,28.397294998168945,1,1,760,800
1778627317.59955311,57805202,0,0.0007771849632263184,0.000746671692468226,0.0008303950307890773,-0.00046285655116662383,-0.0007817898876965046,-9.816896438598633,0,0,28.39950942993164,1,1,1000,1000
1778627317.59955311,57805202,1,0.0006592641002498567,0.0008961426210589707,0.0008091824711300433,-0.0010811740066856146,0.0006842953152954578,-9.818011283874512,0,0,28.39950942993164,1,1,760,800
1778627317.63953710,57845186,0,0.0008133906521834433,0.0008556804968975484,0.0007631658809259534,-0.0013112956658005714,-0.001576542854309082,-9.817421913146973,0,0,28.401721954345703,1,1,1000,1000
1778627317.63953710,57845186,1,0.0008626867784187198,0.0010374787962064147,0.0007572109461762011,-0.0026118529494851828,5.044890713179484e-06,-9.818662643432617,0,0,28.401721954345703,1,1,760,800
1778627317.67952108,57885170,0,0.0007788548246026039,0.0007989988080225885,0.0007845801883377135,-0.0006982488557696342,-0.0007013558060862124,-9.817498207092285,0,0,28.403934478759766,1,1,1000,1000
1778627317.67952108,57885170,1,0.000555013888515532,0.0010863060597330332,0.0009322165278717875,-0.0017555106896907091,0.001210954156704247,-9.815864562988281,0,0,28.403934478759766,1,1,760,800
1778627317.71950507,57925154,0,0.0007828082889318466,0.0008042227709665895,0.0008136334363371134,-0.0008310721023008227,-0.0008338698535226285,-9.817774772644043,0,0,28.406147003173828,1,1,1000,1000
1778627317.71950507,57925154,1,0.0007319895667023957,0.0005823486717417836,0.0008987519540823996,0.00020870545995421708,0.0003481385065242648,-9.814254760742188,0,0,28.406147003173828,1,1,760,800
1778627317.75948906,57965138,0,0.0007955130422487855,0.0008342229411937296,0.0008433287730440497,-0.001860438147559762,-0.0010721299331635237,-9.818408012390137,0,0,28.40835952758789,1,1,1000,1000
1778627317.75948906,57965138,1,0.0009696310735307634,0.0007551025482825935,0.0006696560885757208,-0.0021671252325177193,-0.0012039700523018837,-9.8158540725708,0,0,28.40835952758789,1,1,760,800
1778627317.79947305,58005122,0,0.0007403877680189908,0.0007868531392887235,0.0008633183315396309,-0.0013343661557883024,-0.002153521403670311,-9.818015098571777,0,0,28.410572052001953,1,1,1000,1000
1778627317.79947305,58005122,1,0.0006975794094614685,0.0007096360204741359,0.0007520203362219036,-0.0016266298480331898,-0.001341657480224967,-9.816410064697266,0,0,28.410572052001953,1,1,760,800
1778627317.83945704,58045106,0,0.0008730572299100459,0.0008578340639360249,0.0008228789665736258,-0.0012322660768404603,-0.0005919270915910602,-9.817256927490234,0,0,28.412784576416016,1,1,1000,1000
1778627317.83945704,58045106,1,0.0007095277542248368,0.0007006946252658963,0.0008315359009429812,-0.0002966029569506645,-0.0027257208712399006,-9.815927505493164,0,0,28.412784576416016,1,1,760,800
1778627317.87944102,58085090,0,0.0008083194843493402,0.000855684804264456,0.00083203986287117,-0.0002032154006883502,-0.0014711504336446524,-9.81727409362793,0,0,28.414995193481445,1,1,1000,1000
1778627317.87944102,58085090,1,0.0008235402638092637,0.0008052130579017103,0.0006519858725368977,-0.0006873010424897075,-0.0009549603564664721,-9.820384979248047,0,0,28.414995193481445,1,1,760,800
1778627317.91942501,58125074,0,0.0008478171657770872,0.0007591093890368938,0.0007728206692263484,-0.001392435748130083,-0.000929707195609808,-9.817476272583008,0,0,28.417207717895508,1,1,1000,1000
1778627317.91942501,58125074,1,0.0006487888749688864,0.0008143373997882009,0.0009291663300246,-9.81539415079169e-05,8.755675662541762e-05,-9.820561408996582,0,0,28.417207717895508,1,1,760,800
1778627317.95940900,58165058,0,0.0008668218506500125,0.0007776974816806614,0.000781875743996352,-0.000740851100999862,-0.0023263213224709034,-9.817144393920898,0,0,28.41947364807129,1,1,1000,1000
1778627317.95940900,58165058,1,0.0006970306276343763,0.0010329713113605976,0.0007201269618235528,-0.00033438968239352107,-0.001245170016773045,-9.820089340209961,0,0,28.41947364807129,1,1,760,800
1778627317.99939299,58205042,0,0.0008006555144675076,0.0008131936774589121,0.0008739710319787264,-2.302306893398054e-05,-0.001388014992699027,-9.816967964172363,0,0,28.42168426513672,1,1,1000,1000
1778627317.99939299,58205042,1,0.0008421623497270048,0.0006147829699330032,0.0006729082087986171,-0.001629537669941783,0.0007420244510285556,-9.818370819091797,0,0,28.42168426513672,1,1,760,800
1778627318.03937721,58245026,0,0.0007978935027495027,0.0008405407425016165,0.0007880257326178253,-0.0008933871285989881,-0.002354922704398632,-9.818202018737793,0,0,28.423892974853516,1,1,1000,1000
1778627318.03937721,58245026,1,0.0009017183328978717,0.0009056659764610231,0.0009172168793156743,-0.0006090821116231382,5.497292659129016e-05,-9.817469596862793,0,0,28.423892974853516,1,1,760,800
1778627318.07936120,58285010,0,0.0009128559613600373,0.000794006627984345,0.0007778892759233713,4.797818837687373e-05,-0.00092931161634624,-9.818195343017578,0,0,28.426103591918945,1,1,1000,1000
1778627318.07936120,58285010,1,0.0009416723041795194,0.0006758536328561604,0.0005868480657227337,0.0017869514413177967,-0.0047564031556248665,-9.820233345031738,0,0,28.426103591918945,1,1,760,800
1778627318.11934519,58324994,0,0.0008388441056013107,0.0007625923026353121,0.0008116363314911723,-0.0011077744420617819,-0.0006764055578969419,-9.817547798156738,0,0,28.428258895874023,1,1,1000,1000
1778627318.11934519,58324994,1,0.0005751578719355166,0.0007855789735913277,0.0008138160919770598,-0.000932057504542172,-0.0028748856857419014,-9.816741943359375,0,0,28.428258895874023,1,1,760,800
1778627318.15932918,58364978,0,0.0008417064091190696,0.0008241310133598745,0.0008137837867252529,-0.001558640506118536,-0.0007256497628986835,-9.817066192626953,0,0,28.43046760559082,1,1,1000,1000
1778627318.15932918,58364978,1,0.000747389392927289,0.0008294148137792945,0.0007644634461030364,0.00046023886534385383,-0.002442610915750265,-9.816479682922363,0,0,28.43046760559082,1,1,760,800
1778627318.19931316,58404962,0,0.0008374762837775052,0.0007925560930743814,0.0008365673129446805,-0.0004883294459432364,-0.0013479969929903746,-9.817896842956543,0,0,28.432676315307617,1,1,1000,1000
1778627318.19931316,58404962,1,0.0008139571291394532,0.0007364485063590109,0.0007309343200176954,-0.004687666427344084,-0.0036315058823674917,-9.817138671875,0,0,28.432676315307617,1,1,760,800
1778627318.23929715,58444946,0,0.0007572388276457787,0.0007443961803801358,0.0008563999435864389,-0.0008653861004859209,-0.0006135945441201329,-9.817124366760254,0,0,28.434885025024414,1,1,1000,1000
1778627318.23929715,58444946,1,0.0008000927628017962,0.0008201059536077082,0.0006890172953717411,-0.0013927127001807094,-0.002482751850038767,-9.820390701293945,0,0,28.434885025024414,1,1,760,800
1778627318.27928114,58484930,0,0.0008581067668274045,0.0007956617046147585,0.0008510906482115388,-0.001543944701552391,-0.0004771574749611318,-9.8181734085083,0,0,28.437095642089844,1,1,1000,1000
1778627318.27928114,58484930,1,0.0008096697274595499,0.0008218140574172139,0.0008737468160688877,0.00037125489325262606,-0.0001895084569696337,-9.818918228149414,0,0,28.437095642089844,1,1,760,800
1778627318.31926513,58524914,0,0.000888352922629565,0.0008058256935328245,0.0007443739450536668,-0.0004366086213849485,-0.0004798538866452873,-9.81733226776123,0,0,28.439302444458008,1,1,1000,1000
1778627318.31926513,58524914,1,0.0008637271821498871,0.0007921067299321294,0.0009067095234058797,-0.00016993486497085541,-0.0021608411334455013,-9.818562507629395,0,0,28.439302444458008,1,1,760,800
1778627318.35924911,58564898,0,0.0008828355930745602,0.0007316332194022834,0.0008023949339985847,0.0001328424405073747,-0.0016952718142420053,-9.817586898803711,0,0,28.441509246826172,1,1,1000,1000
1778627318.35924911,58564898,1,0.0011578418780118227,0.0009949574014171958,0.0008343781228177249,-0.00342675787396729,-0.0034009048249572515,-9.817522048950195,0,0,28.441509246826172,1,1,760,800
1778627318.39923310,58604882,0,0.0008965827291831374,0.0007189933094196022,0.0008493014611303806,-0.0001983031106647104,-0.0008498977986164391,-9.81689453125,0,0,28.44371795654297,1,1,1000,1000
1778627318.39923310,58604882,1,0.0005555868847295642,0.0009178302716463804,0.000854531186632812,-0.001149861142039299,0.0006563815986737609,-9.816719055175781,0,0,28.44371795654297,1,1,760,800
1778627318.43921709,58644866,0,0.0007804479100741446,0.000762044102884829,0.0007970742881298065,-0.0013367284554988146,-0.00013297758414410055,-9.817447662353516,0,0,28.445926666259766,1,1,1000,1000
1778627318.43921709,58644866,1,0.0007160024833865464,0.0005391666200011969,0.0008181818993762136,0.0003828750632237643,-0.0022007031366229057,-9.818726539611816,0,0,28.445926666259766,1,1,760,800
1778627318.47920108,58684850,0,0.0007875657174736261,0.000812105368822813,0.0007431627018377185,-0.0023865527473390102,-0.0007163220434449613,-9.817184448242188,0,0,28.448131561279297,1,1,1000,1000
1778627318.47920108,58684850,1,0.0005340003990568221,0.00048473698552697897,0.0007135621272027493,0.0002066635643132031,-0.0018135677091777325,-9.81705379486084,0,0,28.448131561279297,1,1,760,800
1778627318.51918507,58724834,0,0.0008653876720927656,0.0008356880862265825,0.000846139038912952,-0.0008557351538911462,-0.001205712789669633,-9.818402290344238,0,0,28.45033836364746,1,1,1000,1000
1778627318.51918507,58724834,1,0.0008186046034097672,0.0006265311967581511,0.0007429920369759202,-0.001942231087014079,-0.000287504808511585,-9.817647933959961,0,0,28.45033836364746,1,1,760,800
1778627318.56000209,58765651,0,0.0008093737997114658,0.0008123769075609744,0.0008534163935109973,-0.0014766608364880085,-0.0016471080016344786,-9.816940307617188,0,0,28.45260238647461,1,1,1000,1000
1778627318.56000209,58765651,1,0.0008779539493843913,0.0009203611989505589,0.0009347090381197631,-0.00011558834376046434,-0.0015436718240380287,-9.8163423538208,0,0,28.45260238647461,1,1,760,800
1778627318.59998608,58805635,0,0.0007958139758557081,0.000849077187012881,0.0008658215519972146,-0.0010341699235141277,-0.000534028047695756,-9.817754745483398,0,0,28.45480728149414,1,1,1000,1000
1778627318.59998608,58805635,1,0.0006764329737052321,0.0008653822587803006,0.0010332686360925436,-0.0021394225768744946,-0.0020514926873147488,-9.816496849060059,0,0,28.45480728149414,1,1,760,800
1778627318.63997006,58845619,0,0.0007931606378406286,0.0008281980408355594,0.000797077314928174,-0.0008343742229044437,-0.0006818004185333848,-9.81764030456543,0,0,28.457014083862305,1,1,1000,1000
1778627318.63997006,58845619,1,0.0008712003473192453,0.000602321291808039,0.001008188701234758,-0.0005449579330161214,-0.0001408771495334804,-9.812179565429688,0,0,28.457014083862305,1,1,760,800
1778627318.67995405,58885603,0,0.0008166275219991803,0.0008840531227178872,0.0008633005782030523,-0.0011854975018650293,-0.00016574980691075325,-9.81649398803711,0,0,28.459218978881836,1,1,1000,1000
1778627318.67995405,58885603,1,0.0006212340667843819,0.0008756460738368332,0.0007294785464182496,-0.00010003321222029626,-0.0013357133138924837,-9.816448211669922,0,0,28.459218978881836,1,1,760,800
1778627318.71993804,58925587,0,0.00081089191371575,0.000781285110861063,0.0008631814271211624,-0.0009738956578075886,-0.0009188640397042036,-9.817306518554688,0,0,28.461423873901367,1,1,1000,1000
1778627318.71993804,58925587,1,0.001041050418280065,0.0007305584149435163,0.0008377109188586473,0.0009319444070570171,-0.0019373559625819325,-9.814109802246094,0,0,28.461423873901367,1,1,760,800
1778627318.75992203,58965571,0,0.0008183340542018414,0.0008581303991377354,0.0008637128048576415,-0.0009046223713085055,-0.00036274403100833297,-9.817034721374512,0,0,28.4636287689209,1,1,1000,1000
1778627318.75992203,58965571,1,0.0008976501412689686,0.0008792240987531841,0.000794369145296514,-0.0017403272213414311,-0.0014893047045916319,-9.820246696472168,0,0,28.4636287689209,1,1,760,800
1778627318.79990602,59005555,0,0.0008171626250259578,0.000805283198133111,0.0008606609189882874,-0.0005251042312011123,-0.0003295775386504829,-9.817512512207031,0,0,28.46583366394043,1,1,1000,1000
1778627318.79990602,59005555,1,0.001029311679303646,0.0008018825901672244,0.0007631024345755577,-0.0002293497382197529,-0.0024881232529878616,-9.817273139953613,0,0,28.46583366394043,1,1,760,800
1778627318.83989000,59045539,0,0.0007429769029840827,0.0008430377347394824,0.0007579935481771827,-0.0016301344148814678,-0.0019102292135357857,-9.817384719848633,0,0,28.46803855895996,1,1,1000,1000
1778627318.83989000,59045539,1,0.0009711575694382191,0.0008964876178652048,0.0009158335160464048,0.0013287446927279234,-0.00042910181218758225,-9.818881034851074,0,0,28.46803855895996,1,1,760,800
1778627318.87987399,59085523,0,0.0008704360225237906,0.0008958826656453311,0.000862128334119916,-0.0008441359386779368,-0.0024401985574513674,-9.817525863647461,0,0,28.47024154663086,1,1,1000,1000
1778627318.87987399,59085523,1,0.0007557341596111655,0.0010136859491467476,0.0007990110316313803,-0.0019419958116486669,-0.0005254415445961058,-9.816558837890625,0,0,28.47024154663086,1,1,760,800
1778627318.91985822,59125507,0,0.0008727958193048835,0.0007957156049087644,0.0007821211474947631,-0.0013321106089279056,-0.0005140684079378843,-9.816182136535645,0,0,28.47244644165039,1,1,1000,1000
1778627318.91985822,59125507,1,0.0008430955349467695,0.0008742142817936838,0.0009693376487120986,-0.002163100754842162,-0.0011074708309024572,-9.81863021850586,0,0,28.47244644165039,1,1,760,800
1778627318.95984221,59165491,0,0.0008881635149009526,0.0007590059540234506,0.0008508558385074139,-0.0028487667441368103,-0.0006073318654671311,-9.817726135253906,0,0,28.47464942932129,1,1,1000,1000
1778627318.95984221,59165491,1,0.0008330337004736066,0.0006112762494012713,0.0005746351671405137,-0.0037981097120791674,-0.001712147262878716,-9.81692123413086,0,0,28.47464942932129,1,1,760,800
1778627318.99982619,59205475,0,0.0007765094051137567,0.0008879006491042674,0.000834384118206799,-0.0007990674930624664,-0.0010571859311312437,-9.817761421203613,0,0,28.476852416992188,1,1,1000,1000
1778627318.99982619,59205475,1,0.0005991258658468723,0.0007462576613761485,0.0007213616045191884,-0.0031051950063556433,0.00018711359007284045,-9.81753158569336,0,0,28.476797103881836,1,1,760,800
1778627319.03981018,59245459,0,0.0008632591343484819,0.0008296488085761666,0.0008827134734019637,-0.001192176714539528,0.0006148261018097401,-9.816973686218262,0,0,28.479055404663086,1,1,1000,1000
1778627319.03981018,59245459,1,0.0008782256627455354,0.0007979222573339939,0.0007818292360752821,-0.0011631111847236753,0.002870409283787012,-9.81717586517334,0,0,28.479000091552734,1,1,760,800
1778627319.07979417,59285443,0,0.0008068074239417911,0.0007718653068877757,0.0008208652143366635,-0.0008541665156371891,-0.001618918962776661,-9.817411422729492,0,0,28.481258392333984,1,1,1000,1000
1778627319.07979417,59285443,1,0.0008956128731369972,0.0007456215098500252,0.0007651977939531207,-0.002141810953617096,0.0012181894853711128,-9.816944122314453,0,0,28.481203079223633,1,1,760,800
1778627319.11977816,59325427,0,0.0008179430733434856,0.0007319893920794129,0.0008167605847120285,-0.00026166578754782677,0.00017755567387212068,-9.818373680114746,0,0,28.483461380004883,1,1,1000,1000
1778627319.11977816,59325427,1,0.0007838804740458727,0.0005606364575214684,0.0009849349735304713,-0.0023252388928085566,-0.0018157231388613582,-9.81698226928711,0,0,28.48340606689453,1,1,760,800
1778627319.15976214,59365411,0,0.0008327127434313297,0.0008536666864529252,0.0008167645428329706,-0.0005989141063764691,-0.000501507252920419,-9.818166732788086,0,0,28.48566246032715,1,1,1000,1000
1778627319.15976214,59365411,1,0.0008269096724689007,0.0009589925175532699,0.0009529251838102937,-0.002288325224071741,-0.0015471598599106073,-9.819441795349121,0,0,28.485607147216797,1,1,760,800
1778627319.19974613,59405395,0,0.0007895181188359857,0.0007679177215322852,0.0008289171964861453,-0.0011789316777139902,-0.0014186331536620855,-9.817734718322754,0,0,28.487865447998047,1,1,1000,1000
1778627319.19974613,59405395,1,0.0008026750292629004,0.0009318458614870906,0.0007771665696054697,-0.002824792405590415,-0.0005574218230322003,-9.81683349609375,0,0,28.487810134887695,1,1,760,800
1778627319.23973012,59445379,0,0.0008812876185402274,0.0008787387050688267,0.0007915119640529156,-0.0004490199207793921,-0.00044109090231359005,-9.817447662353516,0,0,28.49006462097168,1,1,1000,1000
1778627319.23973012,59445379,1,0.0009124373318627477,0.0008307592361234128,0.0009642166551202536,0.0007586705032736063,0.000410984706832096,-9.816680908203125,0,0,28.49001121520996,1,1,760,800
1778627319.27971411,59485363,0,0.0008245825883932412,0.0009327360312454402,0.0008097635582089424,-0.0004208642349112779,-0.0010555131593719125,-9.817283630371094,0,0,28.492267608642578,1,1,1000,1000
1778627319.27971411,59485363,1,0.0007965029217302799,0.0008579684072174132,0.0009179351036436856,-0.002381814643740654,-0.0010536722838878632,-9.816530227661133,0,0,28.492212295532227,1,1,760,800
1778627319.31969810,59525347,0,0.0009040627046488225,0.0008314314181916416,0.0009302472462877631,-0.000418918818468228,-0.0007547982968389988,-9.816821098327637,0,0,28.494468688964844,1,1,1000,1000
1778627319.31969810,59525347,1,0.0007187722949311137,0.0008682908955961466,0.0008723774226382375,-0.0005632602260448039,0.0018757623620331287,-9.816962242126465,0,0,28.494413375854492,1,1,760,800
1778627319.35968208,59565331,0,0.0007745657349005342,0.0008764344966039062,0.0008778829360380769,-0.001472282106988132,-0.0011582114966586232,-9.818156242370605,0,0,28.496667861938477,1,1,1000,1000
1778627319.35968208,59565331,1,0.0007331363158300519,0.0009025229373946786,0.0008130143978632987,-0.0018505733460187912,-0.00034047808730974793,-9.81648063659668,0,0,28.496612548828125,1,1,760,800
1778627319.39966607,59605315,0,0.0008255206630565226,0.0008282177150249481,0.0008657707367092371,-0.0015720383962616324,0.0004323426110204309,-9.817619323730469,0,0,28.498868942260742,1,1,1000,1000
1778627319.39966607,59605315,1,0.00047183569404296577,0.0006651563453488052,0.0008873330662027001,0.0014498878736048937,0.0003762523119803518,-9.818167686462402,0,0,28.49881362915039,1,1,760,800
1778627319.43965006,59645299,0,0.000866419286467135,0.0008202285971492529,0.0008425506530329585,-0.0013139051152393222,-0.00080094113945961,-9.817298889160156,0,0,28.501070022583008,1,1,1000,1000
1778627319.43965006,59645299,1,0.0009305650601163507,0.0008657807484269142,0.0009217211627401412,-0.003644132986664772,-0.00108286552131176,-9.818639755249023,0,0,28.501012802124023,1,1,760,800
1778627319.47963405,59685283,0,0.0008651987882331014,0.0007598934462293983,0.0007771853706799448,-0.0007125828415155411,-0.0006778652896173298,-9.817965507507324,0,0,28.50326919555664,1,1,1000,1000
1778627319.47963405,59685283,1,0.0009556857985444367,0.0010518466588109732,0.0006924921763129532,-0.003543795784935355,-0.0013478160835802555,-9.815658569335938,0,0,28.50321388244629,1,1,760,800
1778627319.51961803,59725267,0,0.0008678098092786968,0.0008075557998381555,0.000863629044033587,-0.00014606078912038356,-0.0006549681420437992,-9.817878723144531,0,0,28.505468368530273,1,1,1000,1000
1778627319.51961803,59725267,1,0.0007534754113294184,0.0010596627835184336,0.0009259568178094923,-0.00018572455155663192,0.0006267788121476769,-9.816141128540039,0,0,28.505413055419922,1,1,760,800
1778627319.55960202,59765251,0,0.0008059063111431897,0.0009148949757218361,0.000885595625732094,-0.001692524179816246,-0.0015671378932893276,-9.81640911102295,0,0,28.507667541503906,1,1,1000,1000
1778627319.55960202,59765251,1,0.0008460363605991006,0.000738335307687521,0.0009596642339602113,-0.0008879566448740661,-0.0018444819143041968,-9.817466735839844,0,0,28.507612228393555,1,1,760,800
1778627319.59958601,59805235,0,0.0008736595627851784,0.0007933917222544551,0.0007794412085786462,-0.0015454590320587158,-0.0003059052978642285,-9.816437721252441,0,0,28.50986671447754,1,1,1000,1000
1778627319.59958601,59805235,1,0.0007644932484254241,0.0010036090388894081,0.001012287801131606,-0.0006035681581124663,-0.0013804039917886257,-9.817052841186523,0,0,28.509811401367188,1,1,760,800
1778627319.63957000,59845219,0,0.0008375839679501951,0.0008657211437821388,0.0008040039101615548,-0.0011360074859112501,-0.0007080809446051717,-9.81820011138916,0,0,28.512008666992188,1,1,1000,1000
1778627319.63957000,59845219,1,0.0007841574843041599,0.00072170962812379,0.0008173758396878839,0.001837150426581502,-0.00026791333220899105,-9.818277359008789,0,0,28.512008666992188,1,1,760,800
1778627319.67955399,59885203,0,0.000803188537247479,0.0008085822337307036,0.0008266518707387149,-0.000671866990160197,-0.0009960836032405496,-9.816848754882812,0,0,28.51420783996582,1,1,1000,1000
1778627319.67955399,59885203,1,0.0006833148654550314,0.0009087734506465495,0.0010815251152962446,-0.0013284580782055855,0.0005236986326053739,-9.817645072937012,0,0,28.51420783996582,1,1,760,800
1778627319.71953821,59925187,0,0.0008229672093875706,0.0008320105262100697,0.0007755739497952163,-0.0015819675754755735,-0.0013553390745073557,-9.817927360534668,0,0,28.51640510559082,1,1,1000,1000
1778627319.71953821,59925187,1,0.0007242360152304173,0.0007617904921062291,0.0008349145064130425,0.0005660774186253548,-0.0015936506679281592,-9.817453384399414,0,0,28.51640510559082,1,1,760,800
1778627319.75952220,59965171,0,0.0009176979074254632,0.0008414055919274688,0.0008315853774547577,-0.0005500162369571626,-0.0009975014254450798,-9.817404747009277,0,0,28.518604278564453,1,1,1000,1000
1778627319.75952220,59965171,1,0.0008065904839895666,0.0008801046060398221,0.0008411598391830921,-0.002920316532254219,-0.002679873025044799,-9.81471061706543,0,0,28.518604278564453,1,1,760,800
1778627319.79950619,60005155,0,0.0008904721471481025,0.0008230766397900879,0.000859751075040549,-0.0015705678379163146,-0.0014538583345711231,-9.816946029663086,0,0,28.520801544189453,1,1,1000,1000
1778627319.79950619,60005155,1,0.0008754459558986127,0.000650478876195848,0.0008159364806488156,-0.0006043572211638093,-0.0014385480899363756,-9.817030906677246,0,0,28.520801544189453,1,1,760,800
1778627319.83949018,60045139,0,0.0007591105531901121,0.0008359503117389977,0.0008231350802816451,-0.001005660044029355,-0.0016637251246720552,-9.816923141479492,0,0,28.522998809814453,1,1,1000,1000
1778627319.83949018,60045139,1,0.000982852652668953,0.001176589634269476,0.0011410546721890569,-0.0015991928521543741,-0.001038775430060923,-9.816621780395508,0,0,28.522998809814453,1,1,760,800
1778627319.87947416,60085123,0,0.0008203196339309216,0.0009104468626901507,0.0008970805210992694,-0.001477213460020721,-0.0014360153581947088,-9.81706428527832,0,0,28.525196075439453,1,1,1000,1000
1778627319.87947416,60085123,1,0.0008030327153392136,0.0007266922038979828,0.0008839303045533597,0.00010026800009654835,-0.001187953632324934,-9.818243980407715,0,0,28.525196075439453,1,1,760,800
1778627319.91945815,60125107,0,0.0008604091126471758,0.0008692535338923335,0.0008658411097712815,-0.0014987315516918898,-0.0008248045342043042,-9.816581726074219,0,0,28.52739143371582,1,1,1000,1000
1778627319.91945815,60125107,1,0.0009017084375955164,0.0008707248489372432,0.0007570999441668391,0.0012069063959643245,-0.00027927415794692934,-9.821176528930664,0,0,28.52739143371582,1,1,760,800
1778627319.95944214,60165091,0,0.0008425841806456447,0.0007559146615676582,0.0008774156449362636,-0.0017742044292390347,-0.0012569031678140163,-9.817338943481445,0,0,28.529586791992188,1,1,1000,1000
1778627319.95944214,60165091,1,0.0008286595111712813,0.0008547519682906568,0.0006938509177416563,-0.0016891633858904243,-0.0022601375821977854,-9.816854476928711,0,0,28.529586791992188,1,1,760,800
1778627319.99942613,60205075,0,0.0008863398688845336,0.0009014679817482829,0.0008173203677870333,-0.0013445619260892272,-0.0012152858544141054,-9.817527770996094,0,0,28.531782150268555,1,1,1000,1000
1778627319.99942613,60205075,1,0.0007831533439457417,0.0008500465773977339,0.0007440678891725838,0.0023054941557347775,0.00035047667915932834,-9.818565368652344,0,0,28.531782150268555,1,1,760,800
1778627320.03941011,60245059,0,0.0008364913519471884,0.0008504814468324184,0.000897303456440568,-0.0010783930774778128,-0.001164315501227975,-9.817550659179688,0,0,28.534032821655273,1,1,1000,1000
1778627320.03941011,60245059,1,0.0007890556589700282,0.0008115182863548398,0.0007721100701019168,-0.001058174530044198,0.0011400480289012194,-9.818674087524414,0,0,28.534032821655273,1,1,760,800
1778627320.07939410,60285043,0,0.0008487568120472133,0.0008932638447731733,0.0008312041172757745,-0.0006355351652018726,-0.001207752269692719,-9.818086624145508,0,0,28.53622817993164,1,1,1000,1000
1778627320.07939410,60285043,1,0.0008429595036432147,0.0006395562668330967,0.0008275305735878646,-0.0010341659653931856,-0.0005186349153518677,-9.818511962890625,0,0,28.53622817993164,1,1,760,800
1778627320.11937809,60325027,0,0.0007832228438928723,0.000925544067285955,0.0008752260473556817,-0.0017855940386652946,-0.0015716335037723184,-9.817604064941406,0,0,28.538423538208008,1,1,1000,1000
1778627320.11937809,60325027,1,0.0006528655649162829,0.0008623647736385465,0.0007899670163169503,-0.0013562485110014677,0.0003625694662332535,-9.817708969116211,0,0,28.538423538208008,1,1,760,800
1778627320.15936208,60365011,0,0.0008462512632831931,0.000862402084749192,0.0008909885073080659,-0.0004133994225412607,-0.000670834444463253,-9.817782402038574,0,0,28.540618896484375,1,1,1000,1000
1778627320.15936208,60365011,1,0.0008194649126380682,0.0008895185892470181,0.0007385654025711119,-0.0009879411663860083,-0.0007944230455905199,-9.816072463989258,0,0,28.540618896484375,1,1,760,800
1778627320.19934607,60404995,0,0.0008666295325383544,0.0008524799486622214,0.0008639302104711533,-0.0005586593179032207,-0.0009529232047498226,-9.818559646606445,0,0,28.54275894165039,1,1,1000,1000
1778627320.19934607,60404995,1,0.0008577737607993186,0.0007277303957380354,0.0006633269367739558,-0.0028179497458040714,-0.001573455287143588,-9.819061279296875,0,0,28.54275894165039,1,1,760,800
1778627320.23933005,60444979,0,0.0007870972622185946,0.000904059736058116,0.0007307411869987845,-0.0014331454876810312,-0.0007306233164854348,-9.817558288574219,0,0,28.544952392578125,1,1,1000,1000
1778627320.23933005,60444979,1,0.0008123628213070333,0.000784917501732707,0.0008706196094863117,-0.002912368392571807,0.0005381132941693068,-9.815555572509766,0,0,28.544952392578125,1,1,760,800
1778627320.27931404,60484963,0,0.0008334140293300152,0.0008379372884519398,0.0008626717026345432,0.00011382074444554746,-0.0011686659418046474,-9.817586898803711,0,0,28.54714584350586,1,1,1000,1000
1778627320.27931404,60484963,1,0.0009339965181425214,0.0008731958223506808,0.0010153638431802392,-0.0011489697499200702,-0.0011331617133691907,-9.819892883300781,0,0,28.54714584350586,1,1,760,800
1778627320.31929803,60524947,0,0.0008278318564407527,0.0009442204609513283,0.0008441082900390029,-0.00043816695688292384,-0.0006219618953764439,-9.818105697631836,0,0,28.549339294433594,1,1,1000,1000
1778627320.31929803,60524947,1,0.0008721873164176941,0.0008069840259850025,0.0011872752802446485,-0.000890354800503701,0.00024344561097677797,-9.816699981689453,0,0,28.549339294433594,1,1,760,800
1778627320.35928202,60564931,0,0.0008338324842043221,0.0008351443102583289,0.0008930629119277,-0.0016554903704673052,-0.0010578427463769913,-9.816863059997559,0,0,28.551532745361328,1,1,1000,1000
1778627320.35928202,60564931,1,0.0007493270677514374,0.0007382904877886176,0.0009000366553664207,-0.0006446907063946128,-0.002640067134052515,-9.816618919372559,0,0,28.551532745361328,1,1,760,800
1778627320.39926600,60604915,0,0.0008121863938868046,0.0008948512258939445,0.0008935926016420126,-0.0020313342101871967,-0.0011533680371940136,-9.818405151367188,0,0,28.553726196289062,1,1,1000,1000
1778627320.39926600,60604915,1,0.0007991010788828135,0.0008761347271502018,0.0010312353260815144,-0.0005998896667733788,-0.0002650185488164425,-9.818254470825195,0,0,28.553726196289062,1,1,760,800
1778627320.43924999,60644899,0,0.0009021104197017848,0.000775498803704977,0.0008205563062801957,-0.0010946675902232528,-0.0010637282393872738,-9.816813468933105,0,0,28.555919647216797,1,1,1000,1000
1778627320.43924999,60644899,1,0.0005501329433172941,0.0008765156380832195,0.0010159863159060478,-0.0017537482781335711,-0.0040968433022499084,-9.815954208374023,0,0,28.555919647216797,1,1,760,800
