timestamp,TimeUS,C,Roll,Pitch,Yaw,VN,VE,VD,dPD,PN,PE,PD,GX,GY,GZ,OH
1778785729.95918298,71144031,0,0.06,0.05,354.51,-0.014548826031386852,0.017519012093544006,-2.3367920221062377e-05,1.0609751370793674e-05,-0.011432531289756298,0.013669348321855068,-0.003851814428344369,0.03,0.04,-0.03,584.09
1778785729.95918298,71144031,1,0.07,0.05,354.52,-0.013521432876586914,0.01860785111784935,0.0003811308415606618,0.00014758406905457377,-0.010783782228827477,0.014558269642293453,0.006337630096822977,0.03,0.04,-0.03,584.08
1778785730.05997586,71244824,0,0.06,0.05,354.51,-0.014456189237535,0.017383327707648277,-1.8321146853850223e-05,4.342587089922745e-06,-0.011315073817968369,0.013544538989663124,-0.0038523138500750065,0.03,0.04,-0.03,584.09
1778785730.05997586,71244824,1,0.07,0.05,354.51,-0.013310497626662254,0.01839916966855526,0.0004268096527084708,0.00017512468912173063,-0.01054849661886692,0.014264460653066635,0.006352894473820925,0.03,0.04,-0.03,584.08
1778785730.15993595,71344784,0,0.06,0.05,354.51,-0.0144382668659091,0.017251472920179367,7.379980502264516e-07,1.4372621080838144e-05,-0.01136019453406334,0.013602507300674915,-0.0038527543656527996,0.03,0.04,-0.03,584.09
1778785730.15993595,71344784,1,0.07,0.05,354.51,-0.013340471312403679,0.018345924094319344,0.00042144767940044403,0.00018068488861899823,-0.01058692391961813,0.014338296838104725,0.006372700911015272,0.03,0.04,-0.03,584.08
1778785730.25989604,71444744,0,0.06,0.05,354.51,-0.014038341119885445,0.016820153221488,3.607321559684351e-05,5.1431507017696276e-05,-0.011234073899686337,0.013454779982566833,-0.003848804859444499,0.03,0.04,-0.03,584.09
1778785730.25989604,71444744,1,0.07,0.05,354.51,-0.012980743311345577,0.017905142158269882,0.0003219956415705383,7.751098746666685e-05,-0.010470923036336899,0.01419318001717329,0.006387145258486271,0.03,0.04,-0.03,584.08
1778785730.35985589,71544704,0,0.06,0.05,354.51,-0.013619953766465187,0.01634042151272297,2.058909012703225e-05,4.032354263472371e-05,-0.01122119277715683,0.013443953357636929,-0.00384479365311563,0.03,0.04,-0.03,584.09
1778785730.35985589,71544704,1,0.07,0.05,354.51,-0.012579103000462055,0.017456749454140663,0.00018281045777257532,-7.901211938587949e-05,-0.010457061231136322,0.014193091541528702,0.006387464236468077,0.03,0.04,-0.03,584.08
1778785730.45981598,71644664,0,0.07,0.05,354.51,-0.012810246087610722,0.015412642620503902,2.2593800167669542e-05,3.366333112353459e-05,-0.010999569669365883,0.0131869837641716,-0.003841303288936615,0.03,0.04,-0.03,584.09
1778785730.45981598,71644664,1,0.07,0.05,354.51,-0.011945460923016071,0.0163241196423769,0.00020627022604458034,-4.911095311399549e-05,-0.010258721187710762,0.013928593136370182,0.006383753847330809,0.03,0.04,-0.03,584.08
1778785730.55977583,71744624,0,0.07,0.05,354.51,-0.011915236711502075,0.014415811747312546,1.2728375622828025e-05,1.2757054719259031e-05,-0.010829131118953228,0.012991116382181644,-0.003841341007500887,0.03,0.04,-0.03,584.09
1778785730.55977583,71744624,1,0.07,0.05,354.51,-0.011211147531867027,0.015290623530745506,0.00028308454784564674,3.820204074145295e-05,-0.010003293864428997,0.013574030250310898,0.006385474931448698,0.03,0.04,-0.03,584.08
1778785730.65973592,71844584,0,0.07,0.05,354.5,-0.010779119096696377,0.0130750248208642,1.5163582247623708e-06,1.5378897160189808e-06,-0.010435353964567184,0.012530365027487278,-0.003840068355202675,0.03,0.04,-0.03,584.09
1778785730.65973592,71844584,1,0.07,0.05,354.51,-0.010252098552882671,0.013802846893668175,0.00027159202727489173,6.207736441865563e-05,-0.009717138484120369,0.01317217294126749,0.006390113849192858,0.03,0.04,-0.03,584.08
1778785730.75969601,71944544,0,0.07,0.05,354.5,-0.00965044368058443,0.011643359437584877,5.092924038763158e-05,5.324374433257617e-05,-0.010062200017273426,0.012094300240278244,-0.0038364878855645657,0.03,0.04,-0.03,584.09
1778785730.75969601,71944544,1,0.07,0.05,354.5,-0.00916332472115755,0.012302392162382603,0.0002731539716478437,7.074791210470721e-05,-0.009426232427358627,0.012754895724356174,0.006397378630936146,0.03,0.04,-0.03,584.08
1778785730.85965586,72044504,0,0.07,0.05,354.5,-0.008217427879571915,0.010029497556388378,2.220291571575217e-05,1.9320057617733255e-05,-0.009485408663749695,0.011412687599658966,-0.0038329241797327995,0.03,0.04,-0.03,584.09
1778785730.85965586,72044504,1,0.07,0.05,354.5,-0.007967226207256317,0.010518639348447323,0.0003496321733109653,0.00014905973512213677,-0.008931897580623627,0.012058896943926811,0.006408232264220715,0.03,0.04,-0.03,584.08
1778785730.95961595,72144464,0,0.07,0.06,354.5,-0.006857817526906729,0.008511336520314217,1.1978041584370658e-05,7.575208087473584e-07,-0.008924861438572407,0.01075921393930912,-0.003831629641354084,0.03,0.04,-0.03,584.09
1778785730.95961595,72144464,1,0.07,0.05,354.5,-0.0067725940607488155,0.008937686681747437,0.00027059594867751,5.85321249673143e-05,-0.008446669206023216,0.011371505446732044,0.006421055644750595,0.03,0.04,-0.03,584.08
1778785731.05957603,72244424,0,0.07,0.06,354.5,-0.005493981763720512,0.006852361839264631,3.177319740643725e-05,1.6956788385869004e-05,-0.008214112371206284,0.00992461945861578,-0.003832243150100112,0.03,0.04,-0.03,584.09
1778785731.05957603,72244424,1,0.07,0.05,354.5,-0.005448604933917522,0.007148511242121458,0.0004199123359285295,0.00019999389769509435,-0.0078058731742203236,0.010486672632396221,0.006432641763240099,0.03,0.04,-0.03,584.08
1778785731.15953588,72344384,0,0.07,0.06,354.5,-0.004379366524517536,0.005406386684626341,3.5175049561075866e-05,1.8443577573634684e-05,-0.007552641909569502,0.009141047485172749,-0.0038314280100166798,0.03,0.04,-0.03,584.09
1778785731.15953588,72344384,1,0.07,0.06,354.5,-0.00421188585460186,0.005478005390614271,0.00037458157748915255,0.00012397464888636023,-0.007100139278918505,0.009519258514046669,0.006446534767746925,0.03,0.04,-0.03,584.08
1778785731.25949597,72444344,0,0.07,0.06,354.5,-0.003213224932551384,0.00395244499668479,3.3596763387322426e-05,1.9321418221807107e-05,-0.006809514947235584,0.008245822973549366,-0.0038295479025691748,0.03,0.04,-0.03,584.09
1778785731.25949597,72444344,1,0.08,0.06,354.5,-0.0031727594323456287,0.00405601691454649,0.0003022948803845793,5.7386645494261757e-05,-0.006452604662626982,0.008637324906885624,0.006456001196056604,0.03,0.04,-0.03,584.08
1778785731.35945582,72544304,0,0.07,0.06,354.49,-0.0021645864471793175,0.0027298617642372847,2.434772250126116e-05,1.2675211110035889e-05,-0.006138404831290245,0.0074326335452497005,-0.0038292701356112957,0.03,0.04,-0.03,584.09
1778785731.35945582,72544304,1,0.08,0.06,354.5,-0.0023591790813952684,0.0028317905962467194,0.000386129628168419,0.00012129812239436433,-0.005856824107468128,0.007820547558367252,0.006465703248977661,0.03,0.04,-0.03,584.08
1778785731.45941591,72644264,0,0.07,0.06,354.49,-0.0012198660988360643,0.0016129143768921494,-2.837094507412985e-05,-3.573188587324694e-05,-0.005422127898782492,0.006570485886186361,-0.0038298603612929583,0.03,0.04,-0.03,584.09
1778785731.45941591,72644264,1,0.08,0.06,354.5,-0.0015306093264371157,0.0016631854232400656,0.0002998327254317701,4.015889862785116e-05,-0.005205216817557812,0.006941076368093491,0.006471102591603994,0.03,0.04,-0.03,584.08
1778785731.55937600,72744224,0,0.08,0.06,354.49,-0.0004661631537601352,0.0006904698675498366,-4.143362821196206e-05,-4.574126796796918e-05,-0.004791412502527237,0.0058128549717366695,-0.0038322897162288427,0.03,0.04,-0.03,584.09
1778785731.55937600,72744224,1,0.08,0.06,354.49,-0.0008794494206085801,0.0006785753066651523,0.00018024961173068732,-9.616084571462125e-05,-0.0046367584727704525,0.006155597977340221,0.00646879430860281,0.03,0.04,-0.03,584.08
1778785731.65933585,72844184,0,0.08,0.07,354.49,0.0002080860431306064,-0.00017504373681731522,-1.8630946669873083e-06,-3.735334530574619e-07,-0.004157627001404762,0.005048984196037054,-0.0038345595821738243,0.03,0.04,-0.03,584.09
1778785731.65933585,72844184,1,0.08,0.06,354.49,-0.00014447655121330172,-0.00020218973804730922,0.0001610146719031036,-9.014383249450475e-05,-0.004046158865094185,0.005353860091418028,0.006460782140493393,0.03,0.04,-0.03,584.08
1778785731.75929594,72944144,0,0.08,0.07,354.49,0.0007779491716064513,-0.0008187340572476387,1.6622268958599307e-05,2.3389977286569774e-05,-0.0036159451119601727,0.004395063500851393,-0.0038325421046465635,0.03,0.04,-0.03,584.09
1778785731.75929594,72944144,1,0.08,0.06,354.49,0.00029254055698402226,-0.0009505866328254342,6.738383672200143e-05,-0.0001768693618942052,-0.003543108468875289,0.0046570636332035065,0.006451097317039967,0.03,0.04,-0.03,584.08
1778785731.85925603,73044104,0,0.08,0.07,354.49,0.0012685077963396907,-0.0013432656414806843,2.7002217393601313e-05,3.497685611364432e-05,-0.0030804313719272614,0.0037568272091448307,-0.003829129971563816,0.03,0.04,-0.03,584.09
1778785731.85925603,73044104,1,0.08,0.07,354.49,0.0005501889972947538,-0.0014774277806282043,3.784693490160862e-06,-0.00019965905812568963,-0.00309645663946867,0.004028705880045891,0.006435771472752094,0.03,0.04,-0.03,584.08
1778785731.95921588,73144064,0,0.08,0.07,354.48,0.0016212750924751163,-0.0016838709125295281,3.69873087038286e-05,4.477866241359152e-05,-0.0026320205070078373,0.0032288036309182644,-0.0038251420482993126,0.03,0.04,-0.03,584.09
1778785731.95921588,73144064,1,0.09,0.07,354.49,0.0008983133011497557,-0.0019788662903010845,2.524232149880845e-05,-0.0001356317661702633,-0.0026834465097635984,0.003447002964094281,0.0064214314334094524,0.03,0.04,-0.03,584.08
1778785732.05917597,73244024,0,0.08,0.07,354.48,0.0018393556820228696,-0.0019809138029813766,8.662147592986003e-06,1.2410050658218097e-05,-0.002207420766353607,0.002727870363742113,-0.0038219220004975796,0.03,0.04,-0.03,584.09
1778785732.05917597,73244024,1,0.09,0.07,354.48,0.00119808129966259,-0.0023786958772689104,-0.00015704827092122287,-0.0002700834593269974,-0.002299961866810918,0.0029060584492981434,0.006401363760232925,0.03,0.04,-0.03,584.08
1778785732.15996885,73344817,0,0.09,0.07,354.48,0.0020280657336115837,-0.0021927477791905403,1.7656908312346786e-05,1.6979996871668845e-05,-0.0018632098799571395,0.002321265172213316,-0.0038210554048419,0.03,0.04,-0.03,584.09
1778785732.15996885,73344817,1,0.09,0.07,354.48,0.0014357028994709253,-0.0026126145385205746,-0.00022368146164808422,-0.0003147732059005648,-0.001946501899510622,0.0024190216790884733,0.00636699004098773,0.03,0.04,-0.03,584.08
1778785732.25992894,73444777,0,0.09,0.08,354.48,0.0020663414616137743,-0.0023158767726272345,-2.5779700081329793e-05,-2.658719131432008e-05,-0.001538631273433566,0.001933584688231349,-0.0038212151266634464,0.03,0.04,-0.03,584.09
1778785732.25992894,73444777,1,0.09,0.07,354.48,0.0017016149358823895,-0.0026995069347321987,-0.00021389812172856182,-0.00022067407553549856,-0.001628424972295761,0.0020005281548947096,0.006346141453832388,0.03,0.04,-0.03,584.08
1778785732.35988903,73544737,0,0.09,0.08,354.48,0.0021186238154768944,-0.0023783743381500244,-1.4780473975406494e-05,-1.4432022908295039e-05,-0.0012886078329756856,0.0016294937813654542,-0.0038239937275648117,0.03,0.04,-0.03,584.09
1778785732.35988903,73544737,1,0.09,0.07,354.48,0.0017726082587614655,-0.0026725323405116796,-0.00022577602067030966,-0.0001506052794866264,-0.0013627520529553294,0.0016716064419597387,0.006326480768620968,0.03,0.04,-0.03,584.08
1778785732.45984888,73644697,0,0.09,0.08,354.48,0.002047328045591712,-0.002425265032798052,-1.0864613386729616e-06,1.1974013432336506e-05,-0.0010522585362195969,0.001338363392278552,-0.0038228894118219614,0.03,0.04,-0.03,584.09
1778785732.45984888,73644697,1,0.09,0.08,354.48,0.0017663425533100963,-0.002649543108418584,-0.00027378665981814265,-0.00014799072232563049,-0.0011164796305820346,0.00136193900834769,0.006317389663308859,0.03,0.04,-0.03,584.08
1778785732.55980897,73744657,0,0.09,0.08,354.47,0.00196837424300611,-0.002353034680709243,-1.545800841995515e-05,9.33102364797378e-06,-0.0008783170487731695,0.0011176980333402753,-0.0038212754298001528,0.03,0.04,-0.03,584.09
1778785732.55980897,73744657,1,0.09,0.08,354.48,0.0016428435919806361,-0.002517621498554945,-0.0003494208795018494,-0.00018887847545556724,-0.0009366534650325775,0.0011380229843780398,0.006295761093497276,0.03,0.04,-0.03,584.08
1778785732.65976882,73844617,0,0.09,0.08,354.47,0.0019303723238408566,-0.002295057289302349,-9.665717698226217e-06,1.3609563211502973e-05,-0.0007138996734283864,0.0009069343795999885,-0.00382228079251945,0.03,0.04,-0.03,584.09
1778785732.65976882,73844617,1,0.1,0.08,354.48,0.0015144732315093279,-0.0023112609051167965,-0.00030143276671878994,-0.00010456897143740207,-0.0007719170534983277,0.0009301324025727808,0.006279413588345051,0.03,0.04,-0.03,584.08
1778785732.75972891,73944577,0,0.1,0.08,354.47,0.0017751754494383931,-0.002125828992575407,-2.986332037835382e-05,-1.1261710824328475e-05,-0.0005993943195790052,0.0007591446628794074,-0.003824165090918541,0.03,0.04,-0.03,584.09
1778785732.75972891,73944577,1,0.1,0.08,354.47,0.0014267992228269577,-0.0021038856357336044,-0.00028745675808750093,-5.37595697096549e-05,-0.000659693730995059,0.000791069061961025,0.006270323880016804,0.03,0.04,-0.02,584.08
1778785732.85968900,74044537,0,0.1,0.09,354.47,0.0015980120515450835,-0.001884719356894493,-5.5395812523784116e-05,-3.3842090488178656e-05,-0.0005096244276501238,0.0006429338827729225,-0.0038278892170637846,0.03,0.04,-0.03,584.09
1778785732.85968900,74044537,1,0.1,0.08,354.47,0.0012365771690383554,-0.0019224737770855427,-0.00022750165953766555,2.198085348936729e-05,-0.0005543924053199589,0.000660484773106873,0.006268896162509918,0.03,0.04,-0.02,584.08
1778785732.95964885,74144497,0,0.1,0.09,354.47,0.0013799240114167333,-0.0016210003523156047,-2.984169259434566e-05,-1.3062799553154036e-06,-0.00044587254524230957,0.0005612614913843572,-0.0038298084400594234,0.03,0.04,-0.03,584.09
1778785732.95964885,74144497,1,0.1,0.09,354.47,0.0011161885922774673,-0.0016635983483865857,-0.00047354242997244,-0.0002173142129322514,-0.0005127846961840987,0.0006118013989180326,0.006256693974137306,0.03,0.04,-0.02,584.08
1778785733.05960894,74244457,0,0.1,0.09,354.47,0.0011987286852672696,-0.0014143422013148665,-9.365185178467073e-06,2.6078439987031743e-05,-0.0003958993183914572,0.0004987697466276586,-0.0038290550000965595,0.03,0.04,-0.02,584.09
1778785733.05960894,74244457,1,0.1,0.09,354.47,0.0009664851822890341,-0.0014020371017977595,-0.00038311356911435723,-0.00014245063357520849,-0.00044869506382383406,0.0005352006992325187,0.0062384773045778275,0.03,0.04,-0.02,584.08
1778785733.15956903,74344417,0,0.1,0.09,354.46,0.001010189880616963,-0.001118808751925826,-2.6641997465048917e-05,1.6780022633611225e-05,-0.00036501415888778865,0.00046256271889433265,-0.0038271539378911257,0.03,0.04,-0.02,584.09
1778785733.15956903,74344417,1,0.1,0.09,354.47,0.0007153752376325428,-0.001007388113066554,-0.0003642807132564485,-0.00010876189480768517,-0.00042420998215675354,0.0005128536140546203,0.006227265577763319,0.03,0.04,-0.02,584.08
1778785733.25952888,74444377,0,0.1,0.09,354.46,0.0007861945196054876,-0.0007696370594203472,-1.7083106286008842e-05,2.3951466573635116e-05,-0.0003433969395700842,0.0004433475842233747,-0.003824434243142605,0.03,0.04,-0.02,584.09
1778785733.25952888,74444377,1,0.11,0.09,354.46,0.00027930582291446626,-0.0007642486016266048,-0.0003971837868448347,-0.0001366382057312876,-0.0004061967192683369,0.00048255795263685286,0.006217402406036854,0.03,0.04,-0.02,584.08
1778785733.35948896,74544337,0,0.11,0.09,354.46,0.00041566829895600677,-0.0004180913092568517,-5.813376628793776e-05,-1.8874299712479115e-05,-0.0003469145449344069,0.0004542376263998449,-0.003824236337095499,0.03,0.04,-0.02,584.09
1778785733.35948896,74544337,1,0.11,0.09,354.46,-0.00011397700291126966,-0.0003913377586286515,-0.00037542113568633795,-0.00010214517533313483,-0.00043947072117589414,0.0005010247114114463,0.006204462610185146,0.03,0.04,-0.02,584.08
1778785733.45944881,74644297,0,0.11,0.1,354.46,0.00014413372264243662,-5.395782136474736e-05,-4.725647158920765e-05,-1.1076183000113815e-05,-0.00036502856528386474,0.00047837872989475727,-0.0038256747648119926,0.03,0.04,-0.02,584.09
1778785733.45944881,74644297,1,0.11,0.1,354.46,-0.0004854230210185051,4.944329702993855e-05,-0.00044103615800850093,-0.00015848885232117027,-0.00047585132415406406,0.0005134647944942117,0.006192302796989679,0.03,0.04,-0.02,584.08
1778785733.55940890,74744257,0,0.11,0.1,354.46,-0.00015500823792535812,0.00036636905861087143,-8.377147423743736e-06,2.7674621378537267e-05,-0.0004046013345941901,0.0005306616658344865,-0.003826524829491973,0.03,0.04,-0.02,584.09
1778785733.55940890,74744257,1,0.11,0.1,354.46,-0.0007726792246103287,0.00027053224039264023,-0.00031076406594365835,8.785359568719286e-06,-0.0005608258070424199,0.0005914811044931412,0.006182937882840633,0.03,0.04,-0.02,584.08
1778785733.65936899,74844217,0,0.11,0.1,354.45,-0.00047328020446002483,0.0007317716954275966,-1.6237730960710905e-05,2.237272019556258e-05,-0.00045023372513242066,0.0005906589794903994,-0.0038226672913879156,0.03,0.04,-0.02,584.09
1778785733.65936899,74844217,1,0.11,0.1,354.45,-0.0010506100952625275,0.0006056042038835585,-0.000359196012141183,-5.970868733129464e-05,-0.000623407366219908,0.0006266884156502783,0.0061795590445399284,0.03,0.04,-0.02,584.08
1778785733.75932884,74944177,0,0.11,0.1,354.45,-0.0008586258045397699,0.0011058255331590772,-4.478438859223388e-05,-6.302383894762897e-07,-0.000518619257491082,0.000670703942887485,-0.003819928504526615,0.03,0.04,-0.02,584.09
1778785733.75932884,74944177,1,0.11,0.1,354.45,-0.001348481746390462,0.0010015952866524458,-0.0003977695305366069,-8.388327114516869e-05,-0.0007131521706469357,0.0007067099795676768,0.006171561311930418,0.03,0.04,-0.02,584.08
1778785733.85928893,75044137,0,0.11,0.1,354.45,-0.001183129963465035,0.0015243462985381484,-4.798175359610468e-05,-8.073917342699133e-06,-0.0005941264098510146,0.0007590772002004087,-0.0038225874304771423,0.03,0.04,-0.02,584.09
1778785733.85928893,75044137,1,0.12,0.1,354.45,-0.0018055110704153776,0.0014052599435672164,-0.0003865428443532437,-7.587404252262786e-05,-0.0007837230223231018,0.0007670620107091963,0.006162593141198158,0.03,0.04,-0.02,584.08
1778785733.95924902,75144097,0,0.12,0.11,354.45,-0.0015602706698700786,0.0019658966921269894,-0.0001123381734942086,-7.654241198906675e-05,-0.0006899071158841252,0.0008711518603377044,-0.0038263434544205666,0.03,0.04,-0.02,584.09
1778785733.95924902,75144097,1,0.12,0.1,354.45,-0.0021864003501832485,0.0017509781755506992,-0.0002812147722579539,4.748926585307345e-05,-0.0009042933816090226,0.0008731379639357328,0.006156006827950478,0.03,0.04,-0.02,584.08
1778785734.05920887,75244057,0,0.12,0.11,354.45,-0.001964403549209237,0.0024253542069345713,-6.0708716773660854e-05,-1.909301136038266e-05,-0.0007895322050899267,0.000987550592981279,-0.0038302880711853504,0.03,0.04,-0.02,584.09
1778785734.05920887,75244057,1,0.12,0.11,354.45,-0.0026439193170517683,0.00215724459849298,-0.00015227375843096524,0.00016965715622063726,-0.001002888078801334,0.0009554398711770773,0.006164399906992912,0.03,0.04,-0.02,584.08
1778785734.16000199,75344850,0,0.12,0.11,354.44,-0.002290476346388459,0.002795400330796838,-9.935597336152568e-05,-4.336639540269971e-05,-0.0009047871571965516,0.0011188937351107597,-0.003832149086520076,0.03,0.04,-0.02,584.09
1778785734.16000199,75344850,1,0.12,0.11,354.45,-0.003109056269749999,0.002660631202161312,-0.00017697768635116518,0.0001716173574095592,-0.0011645607883110642,0.0011012357426807284,0.0061790733598172665,0.03,0.04,-0.02,584.08
1778785734.25996184,75444810,0,0.12,0.11,354.44,-0.002601306652650237,0.003146291943266988,-0.00010478590411366895,-4.076418190379627e-05,-0.0010006085503846407,0.001230657915584743,-0.003834758186712861,0.03,0.04,-0.02,584.09
1778785734.25996184,75444810,1,0.12,0.11,354.44,-0.0034134804736822844,0.0029570881742984056,-0.00013273910735733807,0.00014811495202593505,-0.0012851828942075372,0.0012085072230547667,0.006190259009599686,0.03,0.04,-0.02,584.08
1778785734.35992193,75544770,0,0.12,0.11,354.44,-0.0029911641031503677,0.003615597728639841,-0.00013167198630981147,-5.5483578762505203e-05,-0.00114318891428411,0.0013972611632198095,-0.0038401924539357424,0.03,0.04,-0.02,584.09
1778785734.35992193,75544770,1,0.13,0.11,354.44,-0.003684778232127428,0.0033720172941684723,-0.0001010386404232122,0.00010877604654524475,-0.0014453777112066746,0.001362409209832549,0.006199351977556944,0.03,0.04,-0.02,584.08
1778785734.45988202,75644730,0,0.12,0.11,354.44,-0.003293239278718829,0.004065894056111574,-0.00011370499123586342,-2.6295163479517214e-05,-0.0012503438629209995,0.001527671585790813,-0.0038453906308859587,0.03,0.04,-0.02,584.09
1778785734.45988202,75644730,1,0.13,0.11,354.44,-0.004020550288259983,0.0037459589075297117,-0.00017835460312198848,-1.2736904864141252e-05,-0.0015585244400426745,0.0014809536514803767,0.0062028286047279835,0.03,0.04,-0.02,584.08
1778785734.55984187,75744690,0,0.13,0.12,354.44,-0.0036936707329005003,0.004459039308130741,-9.057831630343571e-05,1.3419282367976848e-05,-0.001407036790624261,0.0017198101850226521,-0.0038460465148091316,0.03,0.04,-0.02,584.09
1778785734.55984187,75744690,1,0.13,0.12,354.44,-0.00442245788872242,0.004192902706563473,-0.0001602861302671954,-2.2913760403753258e-05,-0.001726851798593998,0.0016535696340724826,0.006204654462635517,0.03,0.04,-0.02,584.08
1778785734.65980196,75844650,0,0.13,0.12,354.43,-0.004081821534782648,0.004880096763372421,-4.9274516641162336e-05,5.150593278813176e-05,-0.0015310026938095689,0.0018635581946000457,-0.0038428669795393944,0.03,0.04,-0.02,584.09
1778785734.65980196,75844650,1,0.13,0.12,354.43,-0.004703901708126068,0.004700536374002695,-6.677446071989834e-05,5.5926444474607706e-05,-0.001844797283411026,0.0017893867334350944,0.0062104021199047565,0.03,0.04,-0.02,584.08
1778785734.75976205,75944610,0,0.13,0.12,354.43,-0.004521004855632782,0.005352117121219635,-6.428781489375979e-05,3.544913124642335e-05,-0.0017164312303066254,0.002074674004688859,-0.003839633194729686,0.03,0.04,-0.02,584.09
1778785734.75976205,75944610,1,0.13,0.12,354.43,-0.005156863480806351,0.00516046117991209,-0.00011934877693420276,-1.1253676348133013e-05,-0.002041998552158475,0.002010712632909417,0.006213091779500246,0.03,0.04,-0.02,584.08
1778785734.85972190,76044570,0,0.13,0.12,354.43,-0.004916724748909473,0.005802113097161055,-5.622595926979557e-05,2.6767960662255064e-05,-0.001861630822531879,0.0022367904894053936,-0.0038375663571059704,0.03,0.04,-0.02,584.09
1778785734.85972190,76044570,1,0.13,0.12,354.43,-0.005512419622391462,0.0056294542737305164,-0.0002218603913206607,-0.00012356550723779947,-0.002189996652305126,0.0021821879781782627,0.0062087043188512325,0.03,0.04,-0.02,584.08
1778785734.95968199,76144530,0,0.13,0.12,354.43,-0.005360848270356655,0.006265632342547178,-9.37427394092083e-05,-2.2984968381933868e-05,-0.002071504248306155,0.0024728719145059586,-0.0038396029267460108,0.03,0.04,-0.02,584.09
1778785734.95968199,76144530,1,0.14,0.12,354.43,-0.005817848723381758,0.006120446603745222,-0.0002513508079573512,-0.0001585461723152548,-0.0023937078658491373,0.0024266508407890797,0.006192570086568594,0.03,0.04,-0.02,584.08
1778785735.05964184,76244490,0,0.14,0.13,354.43,-0.005747078452259302,0.006747940555214882,-0.00012743602565024048,-6.198494520504028e-05,-0.0022340654395520687,0.0026538209058344364,-0.003842798061668873,0.03,0.04,-0.02,584.09
1778785735.05964184,76244490,1,0.14,0.13,354.43,-0.006221281364560127,0.00654769130051136,-0.0002709936525207013,-0.0001397654414176941,-0.0025402498431503773,0.002608638722449541,0.0061834449879825115,0.03,0.04,-0.02,584.08
1778785735.15960193,76344450,0,0.14,0.13,354.42,-0.0062047517858445644,0.007203286048024893,-0.0001829625980462879,-0.00011432478640927002,-0.0024644844233989716,0.0029142717830836773,-0.0038514570333063602,0.03,0.04,-0.02,584.09
1778785735.15960193,76344450,1,0.14,0.13,354.42,-0.006746378727257252,0.007105070631951094,-0.00033960159635171294,-0.0001636863307794556,-0.0027651097625494003,0.0028689310420304537,0.006171484477818012,0.03,0.04,-0.02,584.08
1778785735.25956202,76444410,0,0.14,0.13,354.42,-0.006577583029866219,0.0076803481206297874,-0.0001548756699776277,-7.274502422660589e-05,-0.0026389393024146557,0.0031115682795643806,-0.00385872321203351,0.03,0.04,-0.02,584.09
1778785735.25956202,76444410,1,0.14,0.13,354.42,-0.007286051753908396,0.007600066252052784,-0.00037014548433944583,-0.000173696709680371,-0.0029513465706259012,0.0030712930019944906,0.006152206566184759,0.03,0.04,-0.02,584.08
1778785735.35952187,76544370,0,0.14,0.13,354.42,-0.00704529881477356,0.008199287578463554,-0.0001609831233508885,-5.5608965340070426e-05,-0.0028862636536359787,0.0033977448474615812,-0.0038639470003545284,0.03,0.04,-0.02,584.09
1778785735.35952187,76544370,1,0.14,0.13,354.42,-0.007666179910302162,0.008094406686723232,-0.00029597841785289347,-9.63433922152035e-05,-0.0031823362223803997,0.0033219431061297655,0.006137256044894457,0.03,0.04,-0.02,584.08
1778785735.45948195,76644330,0,0.14,0.13,354.42,-0.007402725517749786,0.008643727749586105,-0.00017684466729406267,-6.279102672124282e-05,-0.0030709293205291033,0.00361079815775156,-0.0038682029116898775,0.03,0.04,-0.02,584.09
1778785735.45948195,76644330,1,0.15,0.13,354.42,-0.007911423221230507,0.0086204269900918,-0.00023246237833518535,-2.1197247406234965e-05,-0.003390940371900797,0.003567212261259556,0.006130078341811895,0.03,0.04,-0.02,584.08
1778785735.55944204,76744290,0,0.14,0.13,354.41,-0.007829316891729832,0.009216265752911568,-0.00011628071661107242,9.318716365669388e-06,-0.0033342887181788683,0.003920908086001873,-0.003871627850458026,0.03,0.04,-0.02,584.09
1778785735.55944204,76744290,1,0.15,0.14,354.41,-0.008472027257084846,0.009143128991127014,-0.00036594775156117976,-0.00011343406367814168,-0.0036658926401287317,0.003894905326887965,0.006122020538896322,0.03,0.04,-0.02,584.08
1778785735.65940189,76844250,0,0.15,0.14,354.41,-0.008215006440877914,0.009622779674828053,-0.0001317592104896903,-6.711791684210766e-06,-0.003527480410411954,0.0041483729146420956,-0.003869679057970643,0.03,0.04,-0.02,584.09
1778785735.65940189,76844250,1,0.15,0.14,354.41,-0.008830933831632137,0.00968149583786726,-0.0005004500271752477,-0.00023833817976992577,-0.0038728811778128147,0.00414170790463686,0.0061024934984743595,0.03,0.04,-0.02,584.08
1778785735.75936198,76944210,0,0.15,0.14,354.41,-0.008615798316895962,0.010163433849811554,-0.00012457792763598263,8.479705684294458e-06,-0.003798713907599449,0.004467659164220095,-0.0038704772014170885,0.03,0.04,-0.02,584.09
1778785735.75936198,76944210,1,0.15,0.14,354.41,-0.009120317175984383,0.010240321047604084,-0.000512841041199863,-0.00023979049001354724,-0.004148604813963175,0.004482591990381479,0.0060770162381231785,0.03,0.04,-0.02,584.08
1778785735.85932183,77044170,0,0.15,0.14,354.41,-0.008930019102990627,0.010676365345716476,-0.00011384848039597273,1.003421493805945e-05,-0.003996288403868675,0.004709836561232805,-0.0038685789331793785,0.03,0.04,-0.02,584.09
1778785735.85932183,77044170,1,0.15,0.14,354.41,-0.009663085453212261,0.010635145008563995,-0.0004760391020681709,-0.0001722735760267824,-0.004355185199528933,0.004730697255581617,0.006060496438294649,0.03,0.04,-0.02,584.08
1778785735.95928192,77144130,0,0.15,0.14,354.4,-0.009318212047219276,0.011182955466210842,-0.00012466762564145029,-1.1191286830580793e-06,-0.004279508721083403,0.00506219919770956,-0.00386782712303102,0.03,0.04,-0.02,584.09
1778785735.95928192,77144130,1,0.16,0.14,354.4,-0.010161147452890873,0.01114279218018055,-0.0004637140955310315,-9.220578067470342e-05,-0.004672023467719555,0.005084163974970579,0.006042368244379759,0.03,0.04,-0.02,584.08
1778785736.05924201,77244090,0,0.15,0.14,354.4,-0.009716549888253212,0.011631466448307037,-0.00016010207764338702,-4.752194945467636e-05,-0.004479723516851664,0.005314511712640524,-0.003871107706800103,0.03,0.04,-0.02,584.09
1778785736.05924201,77244090,1,0.16,0.14,354.4,-0.010477823205292225,0.011549017392098904,-0.0004350585804786533,-6.512571417260915e-05,-0.004849974066019058,0.005289534572511911,0.006038194056600332,0.03,0.04,-0.02,584.08
1778785736.15920186,77344050,0,0.15,0.14,354.4,-0.010228574275970459,0.012120220810174942,-0.0001904502569232136,-8.133206574711949e-05,-0.004791849758476019,0.005690296180546284,-0.003876477712765336,0.03,0.04,-0.02,584.09
1778785736.15920186,77344050,1,0.16,0.14,354.4,-0.010992764495313168,0.012056243605911732,-0.0002914319920819253,0.00010781627497635782,-0.0051857950165867805,0.005669021978974342,0.00603467458859086,0.03,0.04,-0.02,584.08
1778785736.25999498,77444843,0,0.16,0.15,354.4,-0.01056097075343132,0.012513946741819382,-0.0002088720939354971,-9.29211382754147e-05,-0.005019397474825382,0.005957616493105888,-0.003883760655298829,0.03,0.04,-0.02,584.09
1778785736.25999498,77444843,1,0.16,0.15,354.4,-0.01144017931073904,0.012521914206445217,-0.00017873836623039097,0.00019824921037070453,-0.005443827249109745,0.005953775253146887,0.006047836504876614,0.03,0.04,-0.02,584.08
1778785736.35995483,77544803,0,0.16,0.15,354.39,-0.01099647767841816,0.013019789941608906,-0.00019069867266807705,-6.383068830473348e-05,-0.00533906789496541,0.006334178149700165,-0.003891740459948778,0.03,0.04,-0.02,584.09
1778785736.35995483,77544803,1,0.16,0.15,354.39,-0.011893870308995247,0.013019599951803684,-0.0002020225510932505,0.00017599925922695547,-0.005798285827040672,0.006338420789688826,0.0060621602460742,0.03,0.04,-0.02,584.08
1778785736.45991492,77644763,0,0.16,0.15,354.39,-0.011250407434999943,0.013408656232059002,-0.00021546450443565845,-7.056412869133055e-05,-0.005557082127779722,0.00659501738846302,-0.0038964543491601944,0.03,0.04,-0.02,584.09
1778785736.45991492,77644763,1,0.16,0.15,354.39,-0.01216271985322237,0.013514005579054356,-0.0002444943820592016,5.048624370829202e-05,-0.006039618048816919,0.006611473858356476,0.006070470437407494,0.03,0.04,-0.02,584.08
1778785736.55987501,77744723,0,0.16,0.15,354.39,-0.011676785536110401,0.013934359885752201,-0.00015899536083452404,5.096731911180541e-06,-0.005877639167010784,0.006982768885791302,-0.0039000397082418203,0.03,0.04,-0.02,584.09
1778785736.55987501,77744723,1,0.16,0.15,354.39,-0.012515195645391941,0.014088228344917297,-0.00018910739163402468,4.355789496912621e-05,-0.006378553342074156,0.007017682306468487,0.0060693952254951,0.03,0.04,-0.02,584.08
1778785736.65983486,77844683,0,0.16,0.15,354.39,-0.012031195685267448,0.014378076419234276,-0.025055645033717155,-0.02468704991042614,-0.006093829404562712,0.0072493040934205055,-0.0044198231771588326,0.03,0.04,-0.02,584.09
1778785736.65983486,77844683,1,0.17,0.15,354.39,-0.013028600253164768,0.014533769339323044,-0.024670014157891273,-0.024263747036457062,-0.006609335076063871,0.007293906528502703,0.00557051133364439,0.03,0.04,-0.02,584.08
1778785736.75979495,77944643,0,0.16,0.15,354.38,-0.012561943382024765,0.015070156194269657,-0.08356916904449463,-0.0828644186258316,-0.006433882284909487,0.007664062082767487,-0.00997377373278141,0.03,0.04,-0.02,584.09
1778785736.75979495,77944643,1,0.17,0.15,354.38,-0.01359259057790041,0.015254870057106018,-0.08310943841934204,-0.08243447542190552,-0.006976884789764881,0.0077200885862112045,6.44630054011941e-05,0.03,0.04,-0.02,584.08
1778785736.85975504,78044603,0,0.16,0.15,354.38,-0.012957452796399593,0.015629174187779427,-0.14083732664585114,-0.14013506472110748,-0.006668987683951855,0.007960553281009197,-0.021240346133708954,0.03,0.04,-0.02,584.09
1778785736.85975504,78044603,1,0.17,0.16,354.38,-0.014022700488567352,0.01589275524020195,-0.14003412425518036,-0.13983753323554993,-0.0072309705428779125,0.008030316792428493,-0.011191013269126415,0.03,0.04,-0.02,584.08
1778785736.95971489,78144563,0,0.17,0.15,354.38,-0.013490983285009861,0.016273194923996925,-0.19378724694252014,-0.19311463832855225,-0.00703566987067461,0.00841590017080307,-0.03800259530544281,0.04,0.04,-0.02,584.09
1778785736.95971489,78144563,1,0.17,0.16,354.38,-0.01458414364606142,0.016585698351264,-0.19264376163482666,-0.1929481327533722,-0.007625692058354616,0.008505001664161682,-0.027923068031668663,0.03,0.04,-0.01,584.08
1778785737.05967498,78244523,0,0.17,0.16,354.37,-0.01389872096478939,0.016787881031632423,-0.24736493825912476,-0.24555982649326324,-0.007287872023880482,0.008732374757528305,-0.059873566031455994,0.04,0.04,-0.02,584.09
1778785737.05967498,78244523,1,0.17,0.16,354.38,-0.014978474006056786,0.01706094853579998,-0.24606823921203613,-0.24441863596439362,-0.007819194346666336,0.008753081783652306,-0.049605466425418854,0.03,0.04,-0.01,584.08
1778785737.15963483,78344483,0,0.17,0.16,354.37,-0.014342360198497772,0.017339717596769333,-0.3045136630535126,-0.30180028080940247,-0.007666627876460552,0.009203806519508362,-0.0872812420129776,0.04,0.04,-0.01,584.09
1778785737.15963483,78344483,1,0.17,0.16,354.37,-0.015327784232795238,0.01770617440342903,-0.30318397283554077,-0.29886481165885925,-0.008244319818913937,0.009270468726754189,-0.07676113396883011,0.03,0.04,-0.01,584.08
1778785737.25959492,78444443,0,0.17,0.16,354.37,-0.014749567024409771,0.01784466952085495,-0.36578369140625,-0.36387741565704346,-0.007918373681604862,0.0095184575766325,-0.1206706240773201,0.04,0.04,-0.01,584.09
1778785737.25959492,78444443,1,0.17,0.16,354.37,-0.015808438882231712,0.018223758786916733,-0.3642990291118622,-0.3608457148075104,-0.008525160141289234,0.009619022719562054,-0.10990769416093826,0.03,0.04,-0.01,584.08
1778785737.35955501,78544403,0,0.02,0.01,354.37,-0.014779663644731045,0.01798160746693611,-0.7848575711250305,-0.7806464433670044,-0.00830371305346489,0.009996612556278706,-0.17470891773700714,0.04,0.04,-0.01,584.09
1778785737.35955501,78544403,1,0.03,0.02,354.37,-0.015881918370723724,0.01862713135778904,-0.7843873500823975,-0.7790690064430237,-0.008936055935919285,0.010133893229067326,-0.16377928853034973,0.03,0.04,-0.01,584.08
1778785737.45951486,78644363,0,-0.12,-0.13,354.37,-0.012731315568089485,0.015488876961171627,-1.1563538312911987,-1.1902430057525635,-0.008380329236388206,0.01010901853442192,-0.27921539545059204,0.04,0.04,-0.01,584.09
1778785737.45951486,78644363,1,-0.12,-0.12,354.37,-0.013855054043233395,0.016292857006192207,-1.1557366847991943,-1.1841301918029785,-0.009031900204718113,0.010300067253410816,-0.26778268814086914,0.03,0.04,-0.01,584.08
1778785737.55947495,78744323,0,-0.21,-0.21,354.38,-0.009168123826384544,0.011132272891700268,-1.2523945569992065,-1.3278241157531738,-0.008266921155154705,0.009992003440856934,-0.4078664481639862,0.04,0.04,-0.01,584.09
1778785737.55947495,78744323,1,-0.2,-0.2,354.38,-0.010358268395066261,0.011964134871959686,-1.2512524127960205,-1.3203376531600952,-0.008945955894887447,0.010235443711280823,-0.3958328068256378,0.03,0.04,-0.01,584.08
1778785737.65943503,78844283,0,-0.22,-0.22,354.38,-0.00410135043784976,0.004753686022013426,-1.2027926445007324,-1.233485221862793,-0.007509666960686445,0.009079115465283394,-0.5313495397567749,0.04,0.04,-0.01,584.09
1778785737.65943503,78844283,1,-0.21,-0.21,354.38,-0.005309015978127718,0.005645698867738247,-1.2014561891555786,-1.2292227745056152,-0.008203853853046894,0.009370352141559124,-0.5188342332839966,0.03,0.04,-0.01,584.08
1778785737.75939488,78944243,0,-0.18,-0.17,354.38,0.00122613157145679,-0.002003439934924245,-1.153083086013794,-1.1357401609420776,-0.006325879599899054,0.007621046621352434,-0.6475284099578857,0.04,0.04,-0.01,584.09
1778785737.75939488,78944243,1,-0.17,-0.17,354.38,5.0603961426531896e-05,-0.001328057493083179,-1.1514898538589478,-1.1310060024261475,-0.006914753932505846,0.0078061483800411224,-0.6345171928405762,0.03,0.04,-0.01,584.08
1778785737.85935497,79044203,0,-0.1,-0.1,354.38,0.005713730584830046,-0.00777380121871829,-1.16527259349823,-1.158549189567566,-0.004518795292824507,0.005359217524528503,-0.7626713514328003,0.04,0.04,-0.01,584.09
1778785737.85935497,79044203,1,-0.09,-0.09,354.38,0.004469674080610275,-0.007061556912958622,-1.1638126373291016,-1.1577224731445312,-0.005191582255065441,0.005641387775540352,-0.7497491240501404,0.03,0.04,-0.01,584.08
1778785737.95931482,79144163,0,-0.01,0.0,354.38,0.008465452119708061,-0.011392734944820404,-1.2330965995788574,-1.2466657161712646,-0.0024846394080668688,0.002787235425785184,-0.8840582966804504,0.04,0.04,-0.01,584.09
1778785737.95931482,79144163,1,0.0,0.0,354.38,0.007169776130467653,-0.01055079698562622,-1.2317341566085815,-1.2504878044128418,-0.0032400854397565126,0.0031521690543740988,-0.8714554905891418,0.03,0.04,-0.01,584.08
1778785738.05927491,79244123,0,0.08,0.07,354.38,0.0095363799482584,-0.012955020181834698,-1.32794189453125,-1.3548712730407715,-0.00022781574807595462,-0.00032040581572800875,-1.0146414041519165,0.04,0.04,-0.01,584.09
1778785738.05927491,79244123,1,0.08,0.08,354.38,0.008178826421499252,-0.012093937955796719,-1.3265949487686157,-1.3597828149795532,-0.0010435506701469421,0.00011817755876109004,-1.0023895502090454,0.03,0.04,-0.01,584.08
1778785738.15923500,79344083,0,0.15,0.14,354.38,0.009130931459367275,-0.012574723921716213,-1.429356336593628,-1.4625924825668335,0.0018890859792008996,-0.0033354503102600574,-1.155454158782959,0.04,0.04,-0.01,584.09
1778785738.15923500,79344083,1,0.16,0.14,354.38,0.00777403311803937,-0.011756799183785915,-1.4278842210769653,-1.4675313234329224,0.0010187019361183047,-0.002839727560058236,-1.1435823440551758,0.03,0.04,-0.01,584.08
1778785738.25919485,79444043,0,0.21,0.19,354.38,0.007943973876535892,-0.011007815599441528,-1.5300712585449219,-1.560317873954773,0.004211516585201025,-0.006603810004889965,-1.307291865348816,0.04,0.04,-0.01,584.09
1778785738.25919485,79444043,1,0.21,0.19,354.38,0.006587041076272726,-0.010310248471796513,-1.5278987884521484,-1.5647661685943604,0.0033023501746356487,-0.006070895120501518,-1.2945247888565063,0.03,0.04,-0.01,584.08
1778785738.35998797,79544836,0,0.25,0.23,354.38,0.005942157004028559,-0.008414882235229015,-1.630115032196045,-1.657677412033081,0.0062814862467348576,-0.009514587931334972,-1.4692248106002808,0.04,0.04,-0.01,584.09
1778785738.35998797,79544836,1,0.26,0.23,354.38,0.004619620740413666,-0.00771615095436573,-1.628883719444275,-1.6634705066680908,0.005343008320778608,-0.008966668508946896,-1.458141803741455,0.04,0.04,-0.01,584.08
1778785738.45994782,79644796,0,0.28,0.25,354.38,0.003478291444480419,-0.005166280083358288,-1.7309499979019165,-1.7546237707138062,0.008168751373887062,-0.012168459594249725,-1.639477252960205,0.04,0.04,-0.01,584.09
1778785738.45994782,79644796,1,0.29,0.25,354.38,0.002209908328950405,-0.004584500100463629,-1.7297824621200562,-1.7596640586853027,0.007209802512079477,-0.01160889957100153,-1.628820776939392,0.04,0.04,-0.01,584.08
1778785738.55990791,79744756,0,0.3,0.27,354.38,0.0006946937646716833,-0.0014696408761665225,-1.834919810295105,-1.8541741371154785,0.009781830944120884,-0.01444877777248621,-1.8198117017745972,0.04,0.04,-0.01,584.09
1778785738.55990791,79744756,1,0.31,0.27,354.38,-0.0005465717986226082,-0.0008832988096401095,-1.8338340520858765,-1.8564504384994507,0.00881472323089838,-0.013890218921005726,-1.8093491792678833,0.04,0.04,-0.01,584.08
1778785738.65986800,79844716,0,0.31,0.28,354.38,-0.002169645158573985,0.002355640521273017,-1.9411736726760864,-1.9605923891067505,0.011309816502034664,-0.016497718170285225,-2.010633945465088,0.04,0.04,-0.01,584.09
1778785738.65986800,79844716,1,0.32,0.28,354.38,-0.0033806373830884695,0.002991831162944436,-1.9401729106903076,-1.9613596200942993,0.01034488994628191,-0.015946179628372192,-2.0003061294555664,0.04,0.04,-0.01,584.08
1778785738.75982785,79944676,0,0.32,0.29,354.38,-0.005077481269836426,0.006242457777261734,-2.048999309539795,-2.0685441493988037,0.01263014692813158,-0.018192846328020096,-2.2122652530670166,0.04,0.04,-0.01,584.09
1778785738.75982785,79944676,1,0.32,0.29,354.38,-0.006106178276240826,0.0066935401409864426,-2.04801082611084,-2.0691425800323486,0.01184605248272419,-0.01786586456000805,-2.202317237854004,0.04,0.04,-0.01,584.08
1778785738.85978794,80044636,0,0.32,0.28,354.38,-0.00784450676292181,0.010077969171106815,-2.1567420959472656,-2.1773083209991455,0.013726689852774143,-0.019701117649674416,-2.4246065616607666,0.04,0.04,-0.01,584.09
1778785738.85978794,80044636,1,0.33,0.28,354.38,-0.00879725068807602,0.010293529368937016,-2.1556591987609863,-2.1785335540771484,0.013010451570153236,-0.019486261531710625,-2.4145820140838623,0.04,0.04,-0.01,584.08
1778785738.95974803,80144596,0,0.32,0.28,354.38,-0.01048261672258377,0.013836842961609364,-2.2635252475738525,-2.2831802368164062,0.014540541917085648,-0.020884545519948006,-2.647684097290039,0.04,0.04,-0.01,584.09
1778785738.95974803,80144596,1,0.32,0.28,354.38,-0.011451061815023422,0.014145477674901485,-2.262453556060791,-2.281184196472168,0.013744357973337173,-0.020573077723383904,-2.6374526023864746,0.04,0.04,-0.01,584.08
1778785739.05970788,80244556,0,0.31,0.28,352.58,-0.012871069833636284,0.017410488799214363,-2.3616535663604736,-2.382282257080078,0.015118422918021679,-0.0217529758810997,-2.8811702728271484,0.04,0.04,-0.01,584.09
1778785739.05970788,80244556,1,0.31,0.28,352.57,-0.013933952897787094,0.017586298286914825,-2.3604137897491455,-2.3796451091766357,0.014382556080818176,-0.021534448489546776,-2.870795965194702,0.04,0.04,-0.01,584.08
1778785739.15966797,80344516,0,0.29,0.27,352.58,-0.015109890140593052,0.02054135501384735,-2.43432879447937,-2.4520750045776367,0.015428542159497738,-0.022236527875065804,-3.1229441165924072,0.04,0.04,-0.01,584.09
1778785739.15966797,80344516,1,0.3,0.27,352.57,-0.01614721119403839,0.0210095327347517,-2.433295249938965,-2.452039957046509,0.01460173912346363,-0.021903453394770622,-3.112596273422241,0.04,0.04,-0.01,584.08
1778785739.25962782,80444476,0,0.27,0.27,352.57,-0.017108531668782234,0.023181570693850517,-2.4843661785125732,-2.499088764190674,0.015532947145402431,-0.022449331358075142,-3.3704187870025635,0.04,0.04,-0.01,584.09
1778785739.25962782,80444476,1,0.28,0.27,352.57,-0.018221573904156685,0.023550301790237427,-2.4833483695983887,-2.4987316131591797,0.014651007950305939,-0.022040309384465218,-3.359975576400757,0.04,0.04,-0.01,584.08
1778785739.35958791,80544436,0,0.26,0.26,352.58,-0.01894214190542698,0.025344660505652428,-2.5165517330169678,-2.5274744033813477,0.015391903929412365,-0.02235237881541252,-3.621786594390869,0.04,0.04,-0.01,584.09
1778785739.35958791,80544436,1,0.26,0.26,352.57,-0.02007330395281315,0.025749176740646362,-2.515531539916992,-2.5257155895233154,0.014470193535089493,-0.02190064825117588,-3.6111671924591064,0.04,0.04,-0.01,584.08
1778785739.45954800,80644396,0,0.25,0.24,352.59,-0.02046051062643528,0.0270784143358469,-2.5348215103149414,-2.5466365814208984,0.015086629427969456,-0.022056637331843376,-3.8756537437438965,0.04,0.04,-0.01,584.09
1778785739.45954800,80644396,1,0.25,0.24,352.59,-0.021564561873674393,0.027322227135300636,-2.5338168144226074,-2.544874429702759,0.01437283493578434,-0.021890051662921906,-3.864924192428589,0.04,0.04,-0.01,584.08
1778785739.55950785,80744356,0,0.24,0.23,352.61,-0.021624000743031502,0.028498344123363495,-2.542975664138794,-2.5551841259002686,0.014598321169614792,-0.021523894742131233,-4.130856513977051,0.04,0.04,-0.01,584.09
1778785739.55950785,80744356,1,0.24,0.23,352.6,-0.022739479318261147,0.028766436502337456,-2.542037010192871,-2.5570645332336426,0.01376858539879322,-0.021222064271569252,-4.120375633239746,0.04,0.04,-0.01,584.08
1778785739.65946794,80844316,0,0.22,0.21,352.61,-0.022456370294094086,0.029477648437023163,-2.5437252521514893,-2.5579373836517334,0.01402998249977827,-0.020919417962431908,-4.386567115783691,0.04,0.04,-0.01,584.09
1778785739.65946794,80844316,1,0.22,0.21,352.61,-0.023605642840266228,0.02971472218632698,-2.5428695678710938,-2.559231758117676,0.013124627061188221,-0.020539725199341774,-4.376070976257324,0.04,0.04,-0.01,584.08
1778785739.75942802,80944276,0,0.21,0.19,352.62,-0.022966718301177025,0.03009716235101223,-2.539512872695923,-2.554206132888794,0.013363508507609367,-0.020205028355121613,-4.642128944396973,0.04,0.04,-0.01,584.09
1778785739.75942802,80944276,1,0.21,0.19,352.61,-0.02422867901623249,0.03043844737112522,-2.5386927127838135,-2.5528249740600586,0.012404777109622955,-0.01978519931435585,-4.631458282470703,0.04,0.04,-0.01,584.08
1778785739.85938787,81044236,0,0.2,0.18,352.62,-0.023057404905557632,0.03037041798233986,-2.531954526901245,-2.547661304473877,0.012723652645945549,-0.019512353464961052,-4.897130966186523,0.04,0.04,-0.01,584.09
1778785739.85938787,81044236,1,0.2,0.18,352.61,-0.02432035654783249,0.030728252604603767,-2.531184196472168,-2.5446503162384033,0.011732539162039757,-0.01906883530318737,-4.886190891265869,0.04,0.04,-0.01,584.08
1778785739.95934796,81144196,0,0.19,0.18,352.62,-0.02303006313741207,0.030363094061613083,-2.523247480392456,-2.538611650466919,0.012098723091185093,-0.01880994252860546,-5.149174690246582,0.04,0.04,-0.01,584.09
1778785739.95934796,81144196,1,0.2,0.18,352.62,-0.024146296083927155,0.030766615644097328,-2.522421360015869,-2.5346429347991943,0.011101046577095985,-0.018359258770942688,-5.1379008293151855,0.04,0.04,-0.01,584.08
1778785740.05930781,81244156,0,0.19,0.17,352.62,-0.022876909002661705,0.0301052276045084,-2.5136566162109375,-2.528630495071411,0.011518078856170177,-0.01817435771226883,-5.402370452880859,0.04,0.04,-0.01,584.09
1778785740.05930781,81244156,1,0.19,0.17,352.62,-0.02399042248725891,0.030421806499361992,-2.5127458572387695,-2.524480104446411,0.010525436140596867,-0.017729073762893677,-5.390735626220703,0.04,0.04,-0.01,584.08
1778785740.15926790,81344116,0,0.18,0.17,352.62,-0.022577479481697083,0.029728969559073448,-2.5042872428894043,-2.5188093185424805,0.010960516519844532,-0.017561735585331917,-5.654601573944092,0.04,0.04,-0.01,584.09
1778785740.15926790,81344116,1,0.19,0.17,352.61,-0.023454423993825912,0.029909800738096237,-2.503345251083374,-2.5155184268951416,0.010146514512598515,-0.01734970510005951,-5.642725944519043,0.04,0.04,-0.01,584.08
1778785740.25922799,81444076,0,0.19,0.17,352.61,-0.02216644026339054,0.029297832399606705,-2.4960215091705322,-2.5107858180999756,0.010503267869353294,-0.017054492607712746,-5.905954360961914,0.04,0.04,-0.01,584.09
1778785740.25922799,81444076,1,0.19,0.17,352.61,-0.023048777133226395,0.029326852411031723,-2.495147943496704,-2.5111489295959473,0.00964371021836996,-0.016770171001553535,-5.894222259521484,0.04,0.04,-0.01,584.08
1778785740.35918784,81544036,0,0.19,0.18,352.62,-0.02154073677957058,0.028630191460251808,-2.4890713691711426,-2.5036985874176025,0.01025893073529005,-0.016794150695204735,-6.158787250518799,0.04,0.04,-0.01,584.09
1778785740.35918784,81544036,1,0.19,0.17,352.61,-0.02258661761879921,0.02890641987323761,-2.488468647003174,-2.5104870796203613,0.00921908114105463,-0.016263272613286972,-6.145471572875977,0.04,0.04,-0.01,584.08
1778785740.45998096,81644829,0,0.2,0.18,352.62,-0.0211639441549778,0.028199585154652596,-2.482935905456543,-2.5004892349243164,0.009883961640298367,-0.016335876658558846,-6.411093235015869,0.04,0.04,-0.01,584.09
1778785740.45998096,81644829,1,0.2,0.18,352.62,-0.021990058943629265,0.02840806543827057,-2.4824180603027344,-2.5093436241149902,0.008881572633981705,-0.015844296663999557,-6.400439739227295,0.04,0.04,-0.01,584.08
1778785740.55994081,81744789,0,0.2,0.19,352.62,-0.02084490843117237,0.02776670828461647,-2.4773313999176025,-2.4974546432495117,0.009585919789969921,-0.015959659591317177,-6.660966396331787,0.04,0.04,-0.01,584.09
1778785740.55994081,81744789,1,0.2,0.19,352.62,-0.02148916944861412,0.027931667864322662,-2.476854085922241,-2.504349946975708,0.008638180792331696,-0.015510265715420246,-6.650722026824951,0.04,0.04,-0.01,584.08
1778785740.65990090,81844749,0,0.2,0.19,352.62,-0.020431144163012505,0.027319567278027534,-2.4734549522399902,-2.4956133365631104,0.009371491149067879,-0.01569679006934166,-6.910462856292725,0.04,0.04,-0.01,584.09
1778785740.65990090,81844749,1,0.2,0.19,352.62,-0.02095879800617695,0.02728693000972271,-2.473043918609619,-2.4949116706848145,0.008481696248054504,-0.015285675413906574,-6.900035381317139,0.04,0.04,-0.01,584.08
1778785740.75986099,81944709,0,0.2,0.19,352.62,-0.020078787580132484,0.026876071467995644,-2.470968723297119,-2.493623971939087,0.009182591922581196,-0.015455997548997402,-7.159717082977295,0.04,0.04,-0.01,584.09
1778785740.75986099,81944709,1,0.21,0.19,352.62,-0.020507752895355225,0.02682040072977543,-2.4704136848449707,-2.4859883785247803,0.008353183045983315,-0.015089723281562328,-7.148662567138672,0.04,0.04,-0.01,584.08
1778785740.85982084,82044669,0,0.2,0.2,352.62,-0.01964910887181759,0.02635837346315384,-2.4690890312194824,-2.491610288619995,0.009051455184817314,-0.015298699028789997,-7.40872049331665,0.04,0.04,-0.01,584.09
1778785740.85982084,82044669,1,0.2,0.19,352.62,-0.02017071098089218,0.026186175644397736,-2.4683117866516113,-2.4798288345336914,0.008273555897176266,-0.014975394122302532,-7.396749019622803,0.04,0.04,-0.01,584.08
1778785740.95978093,82144629,0,0.2,0.2,352.62,-0.019366005435585976,0.025827355682849884,-2.468224287033081,-2.4895858764648438,0.00891785230487585,-0.015153269283473492,-7.65753698348999,0.04,0.04,-0.01,584.09
1778785740.95978093,82144629,1,0.21,0.2,352.62,-0.019890671595931053,0.02570728398859501,-2.467367172241211,-2.4760055541992188,0.008176020346581936,-0.014866777695715427,-7.644448280334473,0.04,0.04,-0.01,584.08
1778785741.05974102,82244589,0,0.22,0.2,352.61,-0.019112108275294304,0.025494612753391266,-2.4678802490234375,-2.4882302284240723,0.008794189430773258,-0.015064970590174198,-7.906177520751953,0.04,0.04,-0.01,584.09
1778785741.05974102,82244589,1,0.22,0.2,352.61,-0.01953199692070484,0.025462664663791656,-2.4668936729431152,-2.473910093307495,0.008084896951913834,-0.0148006621748209,-7.891892910003662,0.04,0.04,-0.01,584.08
1778785741.15970087,82344549,0,0.23,0.2,352.61,-0.018906597048044205,0.02544218674302101,-2.468043565750122,-2.486816167831421,0.008622478693723679,-0.014928236603736877,-8.154714584350586,0.04,0.04,-0.01,584.09
1778785741.15970087,82344549,1,0.23,0.2,352.61,-0.01911994069814682,0.02524115890264511,-2.466923475265503,-2.472191095352173,0.008130569942295551,-0.014916842803359032,-8.139229774475098,0.04,0.04,-0.01,584.08
1778785741.25966096,82444509,0,0.24,0.21,352.61,-0.018724627792835236,0.02555210143327713,-2.4686644077301025,-2.486161231994629,0.008454123511910439,-0.014767607674002647,-8.403162956237793,0.04,0.04,-0.01,584.09
1778785741.25966096,82444509,1,0.24,0.2,352.61,-0.0188581682741642,0.02547512575984001,-2.467366933822632,-2.4745888710021973,0.007929024286568165,-0.014671427197754383,-8.386638641357422,0.04,0.04,-0.01,584.08
1778785741.35962105,82544469,0,0.24,0.21,352.61,-0.018619542941451073,0.025755319744348526,-2.4693541526794434,-2.481313943862915,0.00823674164712429,-0.014507880434393883,-8.651105880737305,0.04,0.04,-0.01,584.09
1778785741.35962105,82544469,1,0.24,0.21,352.61,-0.018795035779476166,0.025799447670578957,-2.467980146408081,-2.4739251136779785,0.007713574916124344,-0.014347748830914497,-8.633902549743652,0.04,0.04,-0.01,584.08
1778785741.45958090,82644429,0,0.24,0.21,352.6,-0.01859339140355587,0.025962287560105324,-2.470391035079956,-2.475764751434326,0.00801781378686428,-0.014220223762094975,-8.898591995239258,0.04,0.04,-0.01,584.09
1778785741.45958090,82644429,1,0.24,0.21,352.6,-0.018752632662653923,0.02608215995132923,-2.4690206050872803,-2.4728827476501465,0.007502627093344927,-0.014014099724590778,-8.881056785583496,0.04,0.04,-0.01,584.08
1778785741.55954099,82744389,0,0.24,0.22,352.6,-0.01866801083087921,0.02626696228981018,-2.471482515335083,-2.4713308811187744,0.007740912493318319,-0.01382489874958992,-9.145790100097656,0.04,0.04,-0.01,584.09
1778785741.55954099,82744389,1,0.24,0.21,352.6,-0.018847644329071045,0.02629062719643116,-2.470090389251709,-2.471743106842041,0.007244700100272894,-0.013598104938864708,-9.128157615661621,0.04,0.04,-0.01,584.08
1778785741.65950084,82844349,0,0.24,0.22,352.6,-0.01878562569618225,0.026636427268385887,-2.472639799118042,-2.4692280292510986,0.007432287093251944,-0.013375869020819664,-9.392765045166016,0.04,0.04,-0.01,584.09
1778785741.65950084,82844349,1,0.24,0.21,352.6,-0.018978094682097435,0.026621216908097267,-2.4712443351745605,-2.4713616371154785,0.0069554392248392105,-0.013149706646800041,-9.375195503234863,0.04,0.04,-0.01,584.08
1778785741.75946093,82944309,0,0.23,0.2,352.6,-0.01885746605694294,0.02698821760714054,-2.4749324321746826,-2.4688384532928467,0.007041908800601959,-0.012796657159924507,-9.639678955078125,0.04,0.04,-0.01,584.09
1778785741.75946093,82944309,1,0.24,0.2,352.6,-0.019013524055480957,0.026884619146585464,-2.473710775375366,-2.472142219543457,0.006582928355783224,-0.012582945637404919,-9.622283935546875,0.04,0.04,-0.01,584.08
1778785741.85942101,83044269,0,0.22,0.19,352.6,-0.018692513927817345,0.027025889605283737,-2.477482318878174,-2.4701642990112305,0.006639599334448576,-0.01220417395234108,-9.886648178100586,0.04,0.04,-0.01,584.09
1778785741.85942101,83044269,1,0.22,0.19,352.6,-0.018700700253248215,0.026829633861780167,-2.4764797687530518,-2.4738216400146484,0.006402865517884493,-0.012287353165447712,-9.869484901428223,0.04,0.04,-0.01,584.08
1778785741.95938087,83144229,0,0.21,0.18,352.6,-0.01845795102417469,0.0268979724496603,-2.4804370403289795,-2.4723246097564697,0.006203809753060341,-0.011565272696316242,-10.131767272949219,0.04,0.04,-0.01,584.09
1778785741.95938087,83144229,1,0.21,0.18,352.6,-0.018481004983186722,0.026749009266495705,-2.4795026779174805,-2.4789514541625977,0.005905730649828911,-0.011539100669324398,-10.115255355834961,0.04,0.04,-0.01,584.08
1778785742.05934095,83244189,0,0.2,0.18,352.6,-0.01818837597966194,0.02663370408117771,-2.4835045337677,-2.4758706092834473,0.0057729193940758705,-0.010932871140539646,-10.379199028015137,0.04,0.04,-0.01,584.09
1778785742.05934095,83244189,1,0.2,0.18,352.6,-0.01824711076915264,0.02638520859181881,-2.482713222503662,-2.4836745262145996,0.005442500114440918,-0.010842261835932732,-10.363286972045898,0.04,0.04,-0.01,584.08
1778785742.15930104,83344149,0,0.19,0.18,352.6,-0.017942246049642563,0.02621936984360218,-2.4869112968444824,-2.4787306785583496,0.005311502609401941,-0.010260794311761856,-10.62690258026123,0.04,0.04,-0.01,584.09
1778785742.15930104,83344149,1,0.19,0.17,352.6,-0.01792733184993267,0.025957053527235985,-2.4862236976623535,-2.4848713874816895,0.004972634371370077,-0.010142858140170574,-10.611474990844727,0.04,0.04,-0.01,584.08
1778785742.25926089,83444109,0,0.18,0.18,352.6,-0.01762945018708706,0.025716304779052734,-2.490039110183716,-2.481975555419922,0.004897634964436293,-0.009479583241045475,-10.874886512756348,0.04,0.04,-0.01,584.09
1778785742.25926089,83444109,1,0.18,0.17,352.6,-0.0175174493342638,0.025578349828720093,-2.489459753036499,-2.4864799976348877,0.004576414357870817,-0.009353868663311005,-10.859867095947266,0.04,0.04,-0.01,584.08
1778785742.35922098,83544069,0,0.18,0.18,352.6,-0.017364919185638428,0.025233721360564232,-2.4925472736358643,-2.484337329864502,0.004470907151699066,-0.008572107180953026,-11.123188018798828,0.04,0.04,-0.01,584.09
1778785742.35922098,83544069,1,0.18,0.17,352.6,-0.017130395397543907,0.025078603997826576,-2.4920144081115723,-2.4878017902374268,0.004189775325357914,-0.008446023799479008,-11.108524322509766,0.04,0.04,-0.01,584.08
1778785742.45918083,83644029,0,0.18,0.17,352.6,-0.0170555729418993,0.02481740526854992,-2.494690179824829,-2.487657070159912,0.0040673548355698586,-0.007476653903722763,-11.373847007751465,0.04,0.04,-0.01,584.09
1778785742.45918083,83644029,1,0.18,0.17,352.6,-0.01673380844295025,0.02473970502614975,-2.494183301925659,-2.49039363861084,0.0038426846731454134,-0.007376890629529953,-11.35740852355957,0.04,0.04,-0.01,584.08
1778785742.55997396,83744822,0,0.17,0.17,352.59,-0.01676575466990471,0.024408096447587013,-2.489348888397217,-2.4827158451080322,0.003635542234405875,-0.006222485098987818,-11.624556541442871,0.04,0.04,-0.01,584.09
1778785742.55997396,83744822,1,0.18,0.16,352.6,-0.016218440607190132,0.02439252659678459,-2.4888458251953125,-2.485029697418213,0.003564599435776472,-0.006211397238075733,-11.610428810119629,0.04,0.04,-0.01,584.08
1778785742.65993404,83844782,0,0.16,0.17,352.59,-0.0163238737732172,0.023861045017838478,-2.4600250720977783,-2.4536542892456055,0.0032816207967698574,-0.0049825101159513,-11.871400833129883,0.04,0.04,-0.01,584.09
1778785742.65993404,83844782,1,0.17,0.16,352.6,-0.015833048149943352,0.023875417187809944,-2.459782361984253,-2.458470344543457,0.003207148751243949,-0.004916181322187185,-11.857818603515625,0.04,0.04,-0.01,584.08
1778785742.75989389,83944742,0,0.15,0.17,352.59,-0.015914617106318474,0.023109765723347664,-2.408787727355957,-2.401453971862793,0.0029276127461344004,-0.0037231671158224344,-12.11413860321045,0.04,0.04,-0.01,584.09
1778785742.75989389,83944742,1,0.16,0.16,352.6,-0.015272697433829308,0.023085106164216995,-2.408701181411743,-2.4099984169006348,0.002876575570553541,-0.0036310781724750996,-12.101417541503906,0.04,0.04,-0.01,584.08
1778785742.85985398,84044702,0,0.15,0.16,352.59,-0.015489045530557632,0.02218562737107277,-2.3399784564971924,-2.3336074352264404,0.0026414296589791775,-0.002406451851129532,-12.350900650024414,0.04,0.04,-0.01,584.09
1778785742.85985398,84044702,1,0.15,0.16,352.6,-0.014779414981603622,0.022224774584174156,-2.3402082920074463,-2.345747709274292,0.0026282798498868942,-0.0023040699306875467,-12.339316368103027,0.04,0.04,-0.01,584.08
1778785742.95981383,84144662,0,0.14,0.16,352.6,-0.015016594901680946,0.021206650882959366,-2.2577877044677734,-2.2518551349639893,0.002357776276767254,-0.001053547253832221,-12.580093383789062,0.04,0.04,-0.01,584.09
1778785742.95981383,84144662,1,0.14,0.16,352.6,-0.014189095236361027,0.021272189915180206,-2.25839900970459,-2.2665891647338867,0.0023821352515369654,-0.0009372167405672371,-12.569794654846191,0.04,0.04,-0.01,584.08
1778785743.05977392,84244622,0,0.13,0.16,352.6,-0.014627712778747082,0.020119423046708107,-2.1651530265808105,-2.160580635070801,0.0019202226540073752,0.0002142652083421126,-12.80065631866455,0.04,0.04,-0.01,584.09
1778785743.05977392,84244622,1,0.14,0.16,352.6,-0.013712801039218903,0.020199082791805267,-2.1661269664764404,-2.17630934715271,0.0019839636515825987,0.0003447717463131994,-12.79175853729248,0.04,0.04,-0.01,584.08
1778785743.15973401,84344582,0,0.13,0.16,352.6,-0.014367491938173771,0.01900741271674633,-2.064829111099243,-2.0615103244781494,0.001340470160357654,0.0014195474795997143,-13.011617660522461,0.04,0.04,-0.01,584.09
1778785743.15973401,84344582,1,0.13,0.16,352.6,-0.013397111557424068,0.019090848043560982,-2.066007614135742,-2.0749125480651855,0.0014625174226239324,0.0015453444793820381,-13.00390338897705,0.04,0.04,-0.01,584.08
1778785743.25969386,84444542,0,0.12,0.16,352.6,-0.014087282121181488,0.017785146832466125,-1.959770679473877,-1.9573115110397339,0.0007399877067655325,0.002458225004374981,-13.212395668029785,0.04,0.04,-0.01,584.09
1778785743.25969386,84444542,1,0.13,0.16,352.6,-0.013157838024199009,0.01775091513991356,-1.961097240447998,-1.9662355184555054,0.0009094924316741526,0.002569897100329399,-13.205524444580078,0.04,0.04,-0.01,584.08
1778785743.35965395,84544502,0,0.12,0.16,352.59,-0.01378232054412365,0.016550829634070396,-1.8512312173843384,-1.8494077920913696,9.716159547679126e-05,0.003378144698217511,-13.40250301361084,0.04,0.04,-0.01,584.09
1778785743.35965395,84544502,1,0.12,0.16,352.6,-0.012814478017389774,0.016528967767953873,-1.852578043937683,-1.85443913936615,0.00031160423532128334,0.0034725796431303024,-13.396218299865723,0.04,0.04,-0.01,584.08
1778785743.45961404,84644462,0,0.12,0.16,352.59,-0.01352173276245594,0.01539494190365076,-1.741139531135559,-1.7389216423034668,-0.000518138287588954,0.0042725903913378716,-13.581692695617676,0.04,0.04,-0.01,584.09
