timestamp,TimeUS,I,Alt,AltAMSL,Press,Temp,CRt,SMS,Offset,GndTemp,H,CPress
1778782973.16001606,52344054,0,0.00372314453125,584.0936889648438,94502.828125,30.12,0.0,52344,0.0,28.02182960510254,1,94502.828125
1778782973.16001606,52344054,1,-0.22869873046875,583.8612670898438,94504.1953125,30.12,0.0,52344,0.0,28.02182960510254,1,94504.1953125
1778782973.26080918,52444847,0,0.00372314453125,584.0936889648438,94502.828125,30.12,0.0,52444,0.0,28.02182960510254,1,94502.828125
1778782973.26080918,52444847,1,-0.21942138671875,583.8705444335938,94504.0859375,30.12,0.0,52444,0.0,28.02182960510254,1,94504.0859375
1778782973.36076903,52544807,0,0.00372314453125,584.0936889648438,94502.828125,30.13,0.0,52544,0.0,28.02182960510254,1,94502.828125
1778782973.36076903,52544807,1,-0.17547607421875,583.9144897460938,94503.59375,30.13,0.0,52544,0.0,28.02182960510254,1,94503.59375
1778782973.46072912,52644767,0,0.00372314453125,584.0936889648438,94502.828125,30.13,0.0,52644,0.0,28.02182960510254,1,94502.828125
1778782973.46072912,52644767,1,-0.23455810546875,583.8554077148438,94504.2578125,30.13,0.0,52644,0.0,28.02182960510254,1,94504.2578125
1778782973.56068897,52744727,0,0.00372314453125,584.0936889648438,94502.828125,30.13,0.0,52744,0.0,28.02182960510254,1,94502.828125
1778782973.56068897,52744727,1,-0.24627685546875,583.8436889648438,94504.3984375,30.14,0.0,52744,0.0,28.02182960510254,1,94504.3984375
1778782973.66064906,52844687,0,0.00372314453125,584.0936889648438,94502.828125,30.14,0.0,52844,0.0,28.02182960510254,1,94502.828125
1778782973.66064906,52844687,1,-0.23748779296875,583.8524780273438,94504.2890625,30.14,0.0,52844,0.0,28.02182960510254,1,94504.2890625
1778782973.76060915,52944647,0,0.00372314453125,584.0936889648438,94502.828125,30.14,0.0,52944,0.0,28.02182960510254,1,94502.828125
1778782973.76060915,52944647,1,-0.22869873046875,583.8612670898438,94504.1953125,30.14,0.0,52944,0.0,28.02182960510254,1,94504.1953125
1778782973.86056900,53044607,0,0.00372314453125,584.0936889648438,94502.828125,30.14,0.0,53044,0.0,28.02182960510254,1,94502.828125
1778782973.86056900,53044607,1,-0.24334716796875,583.8466186523438,94504.359375,30.15,0.0,53044,0.0,28.02182960510254,1,94504.359375
1778782973.96052909,53144567,0,0.00372314453125,584.0936889648438,94502.828125,30.15,0.0,53144,0.0,28.02182960510254,1,94502.828125
1778782973.96052909,53144567,1,-0.14031982421875,583.9496459960938,94503.1875,30.15,0.0,53144,0.0,28.02182960510254,1,94503.1875
1778782974.06048918,53244527,0,0.00372314453125,584.0936889648438,94502.828125,30.15,0.0,53244,0.0,28.02182960510254,1,94502.828125
1778782974.06048918,53244527,1,-0.19012451171875,583.8998413085938,94503.7578125,30.15,0.0,53244,0.0,28.02182960510254,1,94503.7578125
1778782974.16044903,53344487,0,0.00372314453125,584.0936889648438,94502.828125,30.16,0.0,53344,0.0,28.02182960510254,1,94502.828125
1778782974.16044903,53344487,1,-0.03143310546875,584.0585327148438,94501.9609375,30.16,0.0,53344,0.0,28.02182960510254,1,94501.9609375
1778782974.26040912,53444447,0,0.00372314453125,584.0936889648438,94502.828125,30.16,0.0,53444,0.0,28.02182960510254,1,94502.828125
1778782974.26040912,53444447,1,-0.11688232421875,583.9730834960938,94502.921875,30.16,0.0,53444,0.0,28.02182960510254,1,94502.921875
1778782974.36036897,53544407,0,0.00372314453125,584.0936889648438,94502.828125,30.16,0.0,53544,0.0,28.02182960510254,1,94502.828125
1778782974.36036897,53544407,1,0.08038330078125,584.1703491210938,94500.6875,30.16,0.0,53544,0.0,28.02182960510254,1,94500.6875
1778782974.46032906,53644367,0,0.00372314453125,584.0936889648438,94502.828125,30.17,0.0,53644,0.0,28.02182960510254,1,94502.828125
1778782974.46032906,53644367,1,-0.03729248046875,584.0526733398438,94502.0234375,30.17,0.0,53644,0.0,28.02182960510254,1,94502.0234375
1778782974.56028914,53744327,0,0.00372314453125,584.0936889648438,94502.828125,30.17,0.0,53744,0.0,28.02182960510254,1,94502.828125
1778782974.56028914,53744327,1,-0.25799560546875,583.8319702148438,94504.5234375,30.17,0.0,53744,0.0,28.02182960510254,1,94504.5234375
1778782974.66024899,53844287,0,0.00372314453125,584.0936889648438,94502.828125,30.17,0.0,53844,0.0,28.02182960510254,1,94502.828125
1778782974.66024899,53844287,1,-0.06951904296875,584.0204467773438,94502.390625,30.17,0.0,53844,0.0,28.02182960510254,1,94502.390625
1778782974.76020908,53944247,0,0.00372314453125,584.0936889648438,94502.828125,30.18,0.0,53944,0.0,28.02182960510254,1,94502.828125
1778782974.76020908,53944247,1,-0.29022216796875,583.7997436523438,94504.890625,30.18,0.0,53944,0.0,28.02182960510254,1,94504.890625
1778782974.86016917,54044207,0,0.00372314453125,584.0936889648438,94502.828125,30.18,0.0,54044,0.0,28.02182960510254,1,94502.828125
1778782974.86016917,54044207,1,0.02130126953125,584.1112670898438,94501.3515625,30.18,0.0,54044,0.0,28.02182960510254,1,94501.3515625
1778782974.96012902,54144167,0,0.00372314453125,584.0936889648438,94502.828125,30.18,0.0,54144,0.0,28.02182960510254,1,94502.828125
1778782974.96012902,54144167,1,0.04766845703125,584.1376342773438,94501.0625,30.18,0.0,54144,0.0,28.02182960510254,1,94501.0625
1778782975.06008911,54244127,0,0.00372314453125,584.0936889648438,94502.828125,30.19,0.0,54244,0.0,28.02182960510254,1,94502.828125
1778782975.06008911,54244127,1,0.08038330078125,584.1703491210938,94500.6875,30.19,0.0,54244,0.0,28.02182960510254,1,94500.6875
1778782975.16004896,54344087,0,0.00372314453125,584.0936889648438,94502.828125,30.19,0.0,54344,0.0,28.02182960510254,1,94502.828125
1778782975.16004896,54344087,1,0.00665283203125,584.0966186523438,94501.5234375,30.19,0.0,54344,0.0,28.02182960510254,1,94501.5234375
1778782975.26000905,54444047,0,0.00372314453125,584.0936889648438,94502.828125,30.19,0.0,54444,0.0,28.02182960510254,1,94502.828125
1778782975.26000905,54444047,1,-0.24334716796875,583.8466186523438,94504.359375,30.19,0.0,54444,0.0,28.02182960510254,1,94504.359375
1778782975.36080217,54544840,0,0.00372314453125,584.0936889648438,94502.828125,30.2,0.0,54544,0.0,28.02182960510254,1,94502.828125
1778782975.36080217,54544840,1,-0.04022216796875,584.0497436523438,94502.0546875,30.2,0.0,54544,0.0,28.02182960510254,1,94502.0546875
1778782975.46076202,54644800,0,0.00372314453125,584.0936889648438,94502.828125,30.2,0.0,54644,0.0,28.02182960510254,1,94502.828125
1778782975.46076202,54644800,1,0.0540771484375,584.14404296875,94500.984375,30.2,0.0,54644,0.0,28.02182960510254,1,94500.984375
1778782975.56072211,54744760,0,0.00372314453125,584.0936889648438,94502.828125,30.2,0.0,54744,0.0,28.02182960510254,1,94502.828125
1778782975.56072211,54744760,1,-0.29022216796875,583.7997436523438,94504.890625,30.2,0.0,54744,0.0,28.02182960510254,1,94504.890625
1778782975.66068196,54844720,0,0.00372314453125,584.0936889648438,94502.828125,30.21,0.0,54844,0.0,28.02182960510254,1,94502.828125
1778782975.66068196,54844720,1,0.02130126953125,584.1112670898438,94501.3515625,30.21,0.0,54844,0.0,28.02182960510254,1,94501.3515625
1778782975.76064205,54944680,0,0.00372314453125,584.0936889648438,94502.828125,30.21,0.0,54944,0.0,28.02182960510254,1,94502.828125
1778782975.76064205,54944680,1,0.05694580078125,584.1469116210938,94500.953125,30.21,0.0,54944,0.0,28.02182960510254,1,94500.953125
1778782975.86060214,55044640,0,0.00372314453125,584.0936889648438,94502.828125,30.21,0.0,55044,0.0,28.02182960510254,1,94502.828125
1778782975.86060214,55044640,1,-0.11102294921875,583.9789428710938,94502.859375,30.21,0.0,55044,0.0,28.02182960510254,1,94502.859375
1778782975.96056199,55144600,0,0.00372314453125,584.0936889648438,94502.828125,30.22,0.0,55144,0.0,28.02182960510254,1,94502.828125
1778782975.96056199,55144600,1,-0.08758544921875,584.0023803710938,94502.59375,30.22,0.0,55144,0.0,28.02182960510254,1,94502.59375
1778782976.06052208,55244560,0,0.00372314453125,584.0936889648438,94502.828125,30.22,0.0,55244,0.0,28.02182960510254,1,94502.828125
1778782976.06052208,55244560,1,-0.22283935546875,583.8671264648438,94504.1328125,30.22,0.0,55244,0.0,28.02182960510254,1,94504.1328125
1778782976.16048217,55344520,0,0.00372314453125,584.0936889648438,94502.828125,30.22,0.0,55344,0.0,28.02182960510254,1,94502.828125
1778782976.16048217,55344520,1,-0.25213623046875,583.8378295898438,94504.4609375,30.22,0.0,55344,0.0,28.02182960510254,1,94504.4609375
1778782976.26044202,55444480,0,0.00372314453125,584.0936889648438,94502.828125,30.23,0.0,55444,0.0,28.02182960510254,1,94502.828125
1778782976.26044202,55444480,1,-0.10809326171875,583.9818725585938,94502.828125,30.23,0.0,55444,0.0,28.02182960510254,1,94502.828125
1778782976.36040211,55544440,0,0.00372314453125,584.0936889648438,94502.828125,30.23,0.0,55544,0.0,28.02182960510254,1,94502.828125
1778782976.36040211,55544440,1,0.0628662109375,584.15283203125,94500.890625,30.23,0.0,55544,0.0,28.02182960510254,1,94500.890625
1778782976.46036196,55644400,0,0.00372314453125,584.0936889648438,94502.828125,30.23,0.0,55644,0.0,28.02182960510254,1,94502.828125
1778782976.46036196,55644400,1,-0.21356201171875,583.8764038085938,94504.0234375,30.23,0.0,55644,0.0,28.02182960510254,1,94504.0234375
1778782976.56032205,55744360,0,0.00372314453125,584.0936889648438,94502.828125,30.24,0.0,55744,0.0,28.02182960510254,1,94502.828125
1778782976.56032205,55744360,1,-0.28143310546875,583.8085327148438,94504.796875,30.24,0.0,55744,0.0,28.02182960510254,1,94504.796875
1778782976.66028214,55844320,0,0.00372314453125,584.0936889648438,94502.828125,30.24,0.0,55844,0.0,28.02182960510254,1,94502.828125
1778782976.66028214,55844320,1,0.04766845703125,584.1376342773438,94501.0625,30.24,0.0,55844,0.0,28.02182960510254,1,94501.0625
1778782976.76024199,55944280,0,0.00372314453125,584.0936889648438,94502.828125,30.24,0.0,55944,0.0,28.02182960510254,1,94502.828125
1778782976.76024199,55944280,1,-0.02264404296875,584.0673217773438,94501.8515625,30.24,0.0,55944,0.0,28.02182960510254,1,94501.8515625
1778782976.86020207,56044240,0,0.00372314453125,584.0936889648438,94502.828125,30.25,0.0,56044,0.0,28.02182960510254,1,94502.828125
1778782976.86020207,56044240,1,-0.04608154296875,584.0438842773438,94502.125,30.25,0.0,56044,0.0,28.02182960510254,1,94502.125
1778782976.96016216,56144200,0,0.00372314453125,584.0936889648438,94502.828125,30.25,0.0,56144,0.0,28.02182960510254,1,94502.828125
1778782976.96016216,56144200,1,-0.03143310546875,584.0585327148438,94501.9609375,30.25,0.0,56144,0.0,28.02182960510254,1,94501.9609375
1778782977.06012201,56244160,0,0.00372314453125,584.0936889648438,94502.828125,30.25,0.0,56244,0.0,28.02182960510254,1,94502.828125
1778782977.06012201,56244160,1,0.0628662109375,584.15283203125,94500.890625,30.25,0.0,56244,0.0,28.02182960510254,1,94500.890625
1778782977.16008210,56344120,0,0.00372314453125,584.0936889648438,94502.828125,30.26,0.0,56344,0.0,28.02182960510254,1,94502.828125
1778782977.16008210,56344120,1,0.0155029296875,584.10546875,94501.421875,30.25,0.0,56344,0.0,28.02182960510254,1,94501.421875
1778782977.26004219,56444080,0,0.00372314453125,584.0936889648438,94502.828125,30.26,0.0,56444,0.0,28.02182960510254,1,94502.828125
1778782977.26004219,56444080,1,-0.22283935546875,583.8671264648438,94504.1328125,30.26,0.0,56444,0.0,28.02182960510254,1,94504.1328125
1778782977.36000204,56544040,0,0.00372314453125,584.0936889648438,94502.828125,30.26,0.0,56544,0.0,28.02182960510254,1,94502.828125
1778782977.36000204,56544040,1,0.0389404296875,584.12890625,94501.15625,30.26,0.0,56544,0.0,28.02182960510254,1,94501.15625
1778782977.46079516,56644833,0,0.00372314453125,584.0936889648438,94502.828125,30.26,0.0,56644,0.0,28.02182960510254,1,94502.828125
1778782977.46079516,56644833,1,-0.23455810546875,583.8554077148438,94504.2578125,30.27,0.0,56644,0.0,28.02182960510254,1,94504.2578125
1778782977.56075501,56744793,0,0.00372314453125,584.0936889648438,94502.828125,30.27,0.0,56744,0.0,28.02182960510254,1,94502.828125
1778782977.56075501,56744793,1,0.02130126953125,584.1112670898438,94501.3515625,30.27,0.0,56744,0.0,28.02182960510254,1,94501.3515625
1778782977.66071510,56844753,0,0.00372314453125,584.0936889648438,94502.828125,30.27,0.0,56844,0.0,28.02182960510254,1,94502.828125
1778782977.66071510,56844753,1,-0.02264404296875,584.0673217773438,94501.8515625,30.27,0.0,56844,0.0,28.02182960510254,1,94501.8515625
1778782977.76067519,56944713,0,0.00372314453125,584.0936889648438,94502.828125,30.27,0.0,56944,0.0,28.02182960510254,1,94502.828125
1778782977.76067519,56944713,1,-0.21063232421875,583.8793334960938,94503.9921875,30.27,0.0,56944,0.0,28.02182960510254,1,94503.9921875
1778782977.86063504,57044673,0,0.00372314453125,584.0936889648438,94502.828125,30.28,0.0,57044,0.0,28.02182960510254,1,94502.828125
1778782977.86063504,57044673,1,-0.28436279296875,583.8056030273438,94504.828125,30.28,0.0,57044,0.0,28.02182960510254,1,94504.828125
1778782977.96059513,57144633,0,0.00372314453125,584.0936889648438,94502.828125,30.28,0.0,57144,0.0,28.02182960510254,1,94502.828125
1778782977.96059513,57144633,1,-0.21063232421875,583.8793334960938,94503.9921875,30.28,0.0,57144,0.0,28.02182960510254,1,94503.9921875
1778782978.06055498,57244593,0,0.00372314453125,584.0936889648438,94502.828125,30.28,0.0,57244,0.0,28.02182960510254,1,94502.828125
1778782978.06055498,57244593,1,-0.00213623046875,584.0878295898438,94501.6171875,30.28,0.0,57244,0.0,28.02182960510254,1,94501.6171875
1778782978.16051507,57344553,0,0.00372314453125,584.0936889648438,94502.828125,30.29,0.0,57344,0.0,28.02182960510254,1,94502.828125
1778782978.16051507,57344553,1,0.07159423828125,584.1615600585938,94500.78125,30.29,0.0,57344,0.0,28.02182960510254,1,94500.78125
1778782978.26047516,57444513,0,0.00372314453125,584.0936889648438,94502.828125,30.29,0.0,57444,0.0,28.02182960510254,1,94502.828125
1778782978.26047516,57444513,1,-0.25213623046875,583.8378295898438,94504.4609375,30.29,0.0,57444,0.0,28.02182960510254,1,94504.4609375
1778782978.36043501,57544473,0,0.00372314453125,584.0936889648438,94502.828125,30.29,0.0,57544,0.0,28.02182960510254,1,94502.828125
1778782978.36043501,57544473,1,0.07159423828125,584.1615600585938,94500.78125,30.29,0.0,57544,0.0,28.02182960510254,1,94500.78125
1778782978.46039510,57644433,0,0.00372314453125,584.0936889648438,94502.828125,30.3,0.0,57644,0.0,28.02182960510254,1,94502.828125
1778782978.46039510,57644433,1,-0.14324951171875,583.9467163085938,94503.2265625,30.3,0.0,57644,0.0,28.02182960510254,1,94503.2265625
1778782978.56035519,57744393,0,0.00372314453125,584.0936889648438,94502.828125,30.3,0.0,57744,0.0,28.02182960510254,1,94502.828125
1778782978.56035519,57744393,1,0.00665283203125,584.0966186523438,94501.5234375,30.3,0.0,57744,0.0,28.02182960510254,1,94501.5234375
1778782978.66031504,57844353,0,0.00372314453125,584.0936889648438,94502.828125,30.3,0.0,57844,0.0,28.02182960510254,1,94502.828125
1778782978.66031504,57844353,1,-0.21356201171875,583.8764038085938,94504.0234375,30.3,0.0,57844,0.0,28.02182960510254,1,94504.0234375
1778782978.76027513,57944313,0,0.00372314453125,584.0936889648438,94502.828125,30.3,0.0,57944,0.0,28.02182960510254,1,94502.828125
1778782978.76027513,57944313,1,-0.04608154296875,584.0438842773438,94502.125,30.3,0.0,57944,0.0,28.02182960510254,1,94502.125
1778782978.86023498,58044273,0,0.00372314453125,584.0936889648438,94502.828125,30.31,0.0,58044,0.0,28.02182960510254,1,94502.828125
1778782978.86023498,58044273,1,-0.14910888671875,583.9408569335938,94503.296875,30.31,0.0,58044,0.0,28.02182960510254,1,94503.296875
1778782978.96019506,58144233,0,0.00372314453125,584.0936889648438,94502.828125,30.31,0.0,58144,0.0,28.02182960510254,1,94502.828125
1778782978.96019506,58144233,1,0.07745361328125,584.1674194335938,94500.71875,30.31,0.0,58144,0.0,28.02182960510254,1,94500.71875
1778782979.06015515,58244193,0,0.00372314453125,584.0936889648438,94502.828125,30.31,0.0,58244,0.0,28.02182960510254,1,94502.828125
1778782979.06015515,58244193,1,-0.21063232421875,583.8793334960938,94503.9921875,30.31,0.0,58244,0.0,28.02182960510254,1,94503.9921875
1778782979.16011500,58344153,0,0.00372314453125,584.0936889648438,94502.828125,30.32,0.0,58344,0.0,28.02182960510254,1,94502.828125
1778782979.16011500,58344153,1,-0.06365966796875,584.0263061523438,94502.3203125,30.32,0.0,58344,0.0,28.02182960510254,1,94502.3203125
1778782979.26007509,58444113,0,0.00372314453125,584.0936889648438,94502.828125,30.32,0.0,58444,0.0,28.02182960510254,1,94502.828125
1778782979.26007509,58444113,1,-0.27557373046875,583.8143920898438,94504.7265625,30.32,0.0,58444,0.0,28.02182960510254,1,94504.7265625
1778782979.36003518,58544073,0,0.00372314453125,584.0936889648438,94502.828125,30.32,0.0,58544,0.0,28.02182960510254,1,94502.828125
1778782979.36003518,58544073,1,-0.16375732421875,583.9262084960938,94503.4609375,30.32,0.0,58544,0.0,28.02182960510254,1,94503.4609375
1778782979.45999503,58644033,0,0.00372314453125,584.0936889648438,94502.828125,30.33,0.0,58644,0.0,28.02182960510254,1,94502.828125
1778782979.45999503,58644033,1,0.09210205078125,584.1820678710938,94500.546875,30.32,0.0,58644,0.0,28.02182960510254,1,94500.546875
1778782979.56078815,58744826,0,0.00372314453125,584.0936889648438,94502.828125,30.33,0.0,58744,0.0,28.02182960510254,1,94502.828125
1778782979.56078815,58744826,1,-0.06072998046875,584.0292358398438,94502.2890625,30.33,0.0,58744,0.0,28.02182960510254,1,94502.2890625
1778782979.66074800,58844786,0,0.00372314453125,584.0936889648438,94502.828125,30.33,0.0,58844,0.0,28.02182960510254,1,94502.828125
1778782979.66074800,58844786,1,0.05694580078125,584.1469116210938,94500.953125,30.33,0.0,58844,0.0,28.02182960510254,1,94500.953125
1778782979.76070809,58944746,0,0.00372314453125,584.0936889648438,94502.828125,30.33,0.0,58944,0.0,28.02182960510254,1,94502.828125
1778782979.76070809,58944746,1,-0.03729248046875,584.0526733398438,94502.0234375,30.33,0.0,58944,0.0,28.02182960510254,1,94502.0234375
1778782979.86066818,59044706,0,0.00372314453125,584.0936889648438,94502.828125,30.34,0.0,59044,0.0,28.02182960510254,1,94502.828125
1778782979.86066818,59044706,1,-0.22283935546875,583.8671264648438,94504.1328125,30.34,0.0,59044,0.0,28.02182960510254,1,94504.1328125
1778782979.96062803,59144666,0,0.00372314453125,584.0936889648438,94502.828125,30.34,0.0,59144,0.0,28.02182960510254,1,94502.828125
1778782979.96062803,59144666,1,-0.26678466796875,583.8231811523438,94504.625,30.34,0.0,59144,0.0,28.02182960510254,1,94504.625
1778782980.06058812,59244626,0,0.00372314453125,584.0936889648438,94502.828125,30.34,0.0,59244,0.0,28.02182960510254,1,94502.828125
1778782980.06058812,59244626,1,-0.18719482421875,583.9027709960938,94503.7265625,30.34,0.0,59244,0.0,28.02182960510254,1,94503.7265625
1778782980.16054797,59344586,0,0.00372314453125,584.0936889648438,94502.828125,30.35,0.0,59344,0.0,28.02182960510254,1,94502.828125
1778782980.16054797,59344586,1,0.09210205078125,584.1820678710938,94500.546875,30.34,0.0,59344,0.0,28.02182960510254,1,94500.546875
1778782980.26050806,59444546,0,0.00372314453125,584.0936889648438,94502.828125,30.35,0.0,59444,0.0,28.02182960510254,1,94502.828125
1778782980.26050806,59444546,1,0.00958251953125,584.0995483398438,94501.4921875,30.35,0.0,59444,0.0,28.02182960510254,1,94501.4921875
1778782980.36046815,59544506,0,0.00372314453125,584.0936889648438,94502.828125,30.35,0.0,59544,0.0,28.02182960510254,1,94502.828125
1778782980.36046815,59544506,1,-0.19891357421875,583.8910522460938,94503.8515625,30.35,0.0,59544,0.0,28.02182960510254,1,94503.8515625
1778782980.46042800,59644466,0,0.00372314453125,584.0936889648438,94502.828125,30.35,0.0,59644,0.0,28.02182960510254,1,94502.828125
1778782980.46042800,59644466,1,-0.22283935546875,583.8671264648438,94504.1328125,30.35,0.0,59644,0.0,28.02182960510254,1,94504.1328125
1778782980.56038809,59744426,0,0.00372314453125,584.0936889648438,94502.828125,30.36,0.0,59744,0.0,28.02182960510254,1,94502.828125
1778782980.56038809,59744426,1,-0.18719482421875,583.9027709960938,94503.7265625,30.36,0.0,59744,0.0,28.02182960510254,1,94503.7265625
1778782980.66034818,59844386,0,0.00372314453125,584.0936889648438,94502.828125,30.36,0.0,59844,0.0,28.02182960510254,1,94502.828125
1778782980.66034818,59844386,1,-0.07830810546875,584.0116577148438,94502.4921875,30.36,0.0,59844,0.0,28.02182960510254,1,94502.4921875
1778782980.76030803,59944346,0,0.00372314453125,584.0936889648438,94502.828125,30.36,0.0,59944,0.0,28.02182960510254,1,94502.828125
1778782980.76030803,59944346,1,-0.28436279296875,583.8056030273438,94504.828125,30.36,0.0,59944,0.0,28.02182960510254,1,94504.828125
1778782980.86026812,60044306,0,0.00372314453125,584.0936889648438,94502.828125,30.37,0.0,60044,0.0,28.02182960510254,1,94502.828125
1778782980.86026812,60044306,1,-0.28143310546875,583.8085327148438,94504.796875,30.37,0.0,60044,0.0,28.02182960510254,1,94504.796875
1778782980.96022797,60144266,0,0.00372314453125,584.0936889648438,94502.828125,30.37,0.0,60144,0.0,28.02182960510254,1,94502.828125
1778782980.96022797,60144266,1,-0.03143310546875,584.0585327148438,94501.9609375,30.37,0.0,60144,0.0,28.02182960510254,1,94501.9609375
1778782981.06018806,60244226,0,0.00372314453125,584.0936889648438,94502.828125,30.37,0.0,60244,0.0,28.02182960510254,1,94502.828125
1778782981.06018806,60244226,1,-0.00213623046875,584.0878295898438,94501.6171875,30.37,0.0,60244,0.0,28.02182960510254,1,94501.6171875
1778782981.16014814,60344186,0,0.00372314453125,584.0936889648438,94502.828125,30.37,0.0,60344,0.0,28.02182960510254,1,94502.828125
1778782981.16014814,60344186,1,-0.03143310546875,584.0585327148438,94501.9609375,30.37,0.0,60344,0.0,28.02182960510254,1,94501.9609375
1778782981.26010799,60444146,0,0.00372314453125,584.0936889648438,94502.828125,30.38,0.0,60444,0.0,28.02182960510254,1,94502.828125
1778782981.26010799,60444146,1,0.0863037109375,584.17626953125,94500.625,30.38,0.0,60444,0.0,28.02182960510254,1,94500.625
1778782981.36006808,60544106,0,0.00372314453125,584.0936889648438,94502.828125,30.38,0.0,60544,0.0,28.02182960510254,1,94502.828125
1778782981.36006808,60544106,1,-0.12567138671875,583.9642944335938,94503.03125,30.38,0.0,60544,0.0,28.02182960510254,1,94503.03125
1778782981.46002817,60644066,0,0.00372314453125,584.0936889648438,94502.828125,30.38,0.0,60644,0.0,28.02182960510254,1,94502.828125
1778782981.46002817,60644066,1,0.03302001953125,584.1229858398438,94501.21875,30.38,0.0,60644,0.0,28.02182960510254,1,94501.21875
1778782981.55998802,60744026,0,0.00372314453125,584.0936889648438,94502.828125,30.38,0.0,60744,0.0,28.02182960510254,1,94502.828125
1778782981.55998802,60744026,1,-0.17547607421875,583.9144897460938,94503.59375,30.39,0.0,60744,0.0,28.02182960510254,1,94503.59375
1778782981.66078115,60844819,0,0.01544189453125,584.1054077148438,94502.6875,30.39,0.003662109375,60844,0.0,28.02182960510254,1,94502.6875
1778782981.66078115,60844819,1,0.03302001953125,584.1229858398438,94501.21875,30.39,0.003662109375,60844,0.0,28.02182960510254,1,94501.21875
1778782981.76074100,60944779,0,0.01544189453125,584.1054077148438,94502.6875,30.39,0.01831054501235485,60944,0.0,28.02182960510254,1,94502.6875
1778782981.76074100,60944779,1,-0.25799560546875,583.8319702148438,94504.5234375,30.39,0.01831054501235485,60944,0.0,28.02182960510254,1,94504.5234375
1778782981.86070108,61044739,0,0.03350830078125,584.1234741210938,94502.4921875,30.39,0.042266845703125,61044,0.0,28.02182960510254,1,94502.4921875
1778782981.86070108,61044739,1,-0.02557373046875,584.0643920898438,94501.8828125,30.39,0.042266845703125,61044,0.0,28.02182960510254,1,94501.8828125
1778782981.96066117,61144699,0,0.05694580078125,584.1469116210938,94502.2265625,30.4,0.072174072265625,61144,0.0,28.02182960510254,1,94502.2265625
1778782981.96066117,61144699,1,0.05694580078125,584.1469116210938,94500.953125,30.39,0.072174072265625,61144,0.0,28.02182960510254,1,94500.953125
1778782982.06062102,61244659,0,0.07452392578125,584.1644897460938,94502.0234375,30.4,0.11688232421875,61244,0.0,28.02182960510254,1,94502.0234375
1778782982.06062102,61244659,1,-0.00213623046875,584.0878295898438,94501.6171875,30.4,0.11688232421875,61244,0.0,28.02182960510254,1,94501.6171875
1778782982.16058111,61344619,0,0.1038818359375,584.19384765625,94501.6953125,30.4,0.17000199854373932,61344,0.0,28.02182960510254,1,94501.6953125
1778782982.16058111,61344619,1,0.15667724609375,584.2466430664062,94499.8203125,30.4,0.17000199854373932,61344,0.0,28.02182960510254,1,94499.8203125
1778782982.26054096,61444579,0,0.14483642578125,584.2348022460938,94501.21875,30.4,0.2150726169347763,61444,0.0,28.02182960510254,1,94501.21875
1778782982.26054096,61444579,1,-0.00213623046875,584.0878295898438,94501.6171875,30.4,0.2150726169347763,61444,0.0,28.02182960510254,1,94501.6171875
1778782982.36050105,61544539,0,0.20684814453125,584.2968139648438,94500.515625,30.41,0.2723121643066406,61544,0.0,28.02182960510254,1,94500.515625
1778782982.36050105,61544539,1,0.2684326171875,584.3583984375,94498.546875,30.4,0.2723121643066406,61544,0.0,28.02182960510254,1,94498.546875
1778782982.46046114,61644499,0,0.31585693359375,584.4058227539062,94499.2890625,30.41,0.38547512888908386,61644,0.0,28.02182960510254,1,94499.2890625
1778782982.46046114,61644499,1,0.32464599609375,584.4146118164062,94497.9140625,30.41,0.38547512888908386,61644,0.0,28.02182960510254,1,94497.9140625
1778782982.56042099,61744459,0,0.44818115234375,584.5381469726562,94497.7890625,30.41,0.5848122239112854,61744,0.0,28.02182960510254,1,94497.7890625
1778782982.56042099,61744459,1,0.40960693359375,584.4995727539062,94496.953125,30.41,0.5848122239112854,61744,0.0,28.02182960510254,1,94496.953125
1778782982.66038108,61844419,0,0.56243896484375,584.6524047851562,94496.484375,30.41,0.850067138671875,61844,0.0,28.02182960510254,1,94496.484375
1778782982.66038108,61844419,1,0.60687255859375,584.6968383789062,94494.7109375,30.41,0.850067138671875,61844,0.0,28.02182960510254,1,94494.7109375
1778782982.76034117,61944379,0,0.68597412109375,584.7759399414062,94495.078125,30.41,1.0809898376464844,61944,0.0,28.02182960510254,1,94495.078125
1778782982.76034117,61944379,1,0.70068359375,584.7906494140625,94493.6484375,30.41,1.0809898376464844,61944,0.0,28.02182960510254,1,94493.6484375
1778782982.86030102,62044339,0,0.794921875,584.8848876953125,94493.84375,30.41,1.1873435974121094,62044,0.0,28.02182960510254,1,94493.84375
1778782982.86030102,62044339,1,0.87451171875,584.9644775390625,94491.671875,30.41,1.1873435974121094,62044,0.0,28.02182960510254,1,94491.671875
1778782982.96026111,62144299,0,0.92431640625,585.0142822265625,94492.375,30.42,1.1945915222167969,62144,0.0,28.02182960510254,1,94492.375
1778782982.96026111,62144299,1,0.91265869140625,585.0026245117188,94491.2421875,30.42,1.1945915222167969,62144,0.0,28.02182960510254,1,94491.2421875
1778782983.06022120,62244259,0,1.056640625,585.1466064453125,94490.8671875,30.42,1.1899185180664062,62244,0.0,28.02182960510254,1,94490.8671875
1778782983.06022120,62244259,1,0.8330078125,584.9229736328125,94492.140625,30.42,1.1899185180664062,62244,0.0,28.02182960510254,1,94492.140625
1778782983.16018105,62344219,0,1.19781494140625,585.2877807617188,94489.2734375,30.42,1.2244224548339844,62344,0.0,28.02182960510254,1,94489.2734375
1778782983.16018105,62344219,1,1.16558837890625,585.2555541992188,94488.3671875,30.42,1.2244224548339844,62344,0.0,28.02182960510254,1,94488.3671875
1778782983.26014113,62444179,0,1.34478759765625,585.4347534179688,94487.59375,30.42,1.2932204008102417,62444,0.0,28.02182960510254,1,94487.59375
1778782983.26014113,62444179,1,1.26861572265625,585.3585815429688,94487.203125,30.42,1.2932204008102417,62444,0.0,28.02182960510254,1,94487.203125
1778782983.36010098,62544139,0,1.5186767578125,585.608642578125,94485.625,30.42,1.374893069267273,62544,0.0,28.02182960510254,1,94485.625
1778782983.36010098,62544139,1,1.28326416015625,585.3732299804688,94487.0390625,30.42,1.374893069267273,62544,0.0,28.02182960510254,1,94487.0390625
1778782983.46006107,62644099,0,1.6861572265625,585.776123046875,94483.734375,30.43,1.4716911315917969,62644,0.0,28.02182960510254,1,94483.734375
1778782983.46006107,62644099,1,1.6300048828125,585.719970703125,94483.09375,30.43,1.4716911315917969,62644,0.0,28.02182960510254,1,94483.09375
1778782983.56002116,62744059,0,1.86541748046875,585.9553833007812,94481.6953125,30.43,1.5823365449905396,62744,0.0,28.02182960510254,1,94481.6953125
1778782983.56002116,62744059,1,1.5596923828125,585.649658203125,94483.8984375,30.43,1.5823365449905396,62744,0.0,28.02182960510254,1,94483.8984375
1778782983.66081405,62844852,0,2.05682373046875,586.1467895507812,94479.5234375,30.43,1.680450439453125,62844,0.0,28.02182960510254,1,94479.5234375
1778782983.66081405,62844852,1,1.77117919921875,585.8611450195312,94481.5,30.43,1.680450439453125,62844,0.0,28.02182960510254,1,94481.5
1778782983.76077414,62944812,0,2.265380859375,586.3553466796875,94477.15625,30.43,1.76544189453125,62944,0.0,28.02182960510254,1,94477.15625
1778782983.76077414,62944812,1,2.138916015625,586.2288818359375,94477.328125,30.43,1.76544189453125,62944,0.0,28.02182960510254,1,94477.328125
1778782983.86073399,63044772,0,2.474365234375,586.5643310546875,94474.78125,30.43,1.86553955078125,63044,0.0,28.02182960510254,1,94474.78125
1778782983.86073399,63044772,1,2.50372314453125,586.5936889648438,94473.1796875,30.43,1.86553955078125,63044,0.0,28.02182960510254,1,94473.1796875
1778782983.96069407,63144732,0,2.69464111328125,586.7846069335938,94472.28125,30.43,1.977691650390625,63144,0.0,28.02182960510254,1,94472.28125
1778782983.96069407,63144732,1,2.7064208984375,586.79638671875,94470.8828125,30.43,1.977691650390625,63144,0.0,28.02182960510254,1,94470.8828125
1778782984.06065416,63244692,0,2.9359130859375,587.02587890625,94469.5390625,30.43,2.079486846923828,63244,0.0,28.02182960510254,1,94469.5390625
1778782984.06065416,63244692,1,2.98284912109375,587.0728149414062,94467.7421875,30.43,2.079486846923828,63244,0.0,28.02182960510254,1,94467.7421875
1778782984.16061401,63344652,0,3.17425537109375,587.2642211914062,94466.8359375,30.43,2.1785926818847656,63344,0.0,28.02182960510254,1,94466.8359375
1778782984.16061401,63344652,1,3.0477294921875,587.1376953125,94467.0078125,30.43,2.1785926818847656,63344,0.0,28.02182960510254,1,94467.0078125
1778782984.26057410,63444612,0,3.41546630859375,587.5054321289062,94464.109375,30.44,2.2818374633789062,63444,0.0,28.02182960510254,1,94464.109375
1778782984.26057410,63444612,1,3.42138671875,587.5113525390625,94462.7734375,30.43,2.2818374633789062,63444,0.0,28.02182960510254,1,94462.7734375
1778782984.36053419,63544572,0,3.66845703125,587.7584228515625,94461.234375,30.44,2.3642349243164062,63544,0.0,28.02182960510254,1,94461.234375
1778782984.36053419,63544572,1,3.37396240234375,587.4639282226562,94463.3046875,30.44,2.3642349243164062,63544,0.0,28.02182960510254,1,94463.3046875
1778782984.46049404,63644532,0,3.92681884765625,588.0167846679688,94458.3046875,30.44,2.4204635620117188,63644,0.0,28.02182960510254,1,94458.3046875
1778782984.46049404,63644532,1,3.9356689453125,588.025634765625,94456.9296875,30.44,2.4204635620117188,63644,0.0,28.02182960510254,1,94456.9296875
1778782984.56045413,63744492,0,4.1739501953125,588.263916015625,94455.5,30.44,2.4731063842773438,63744,0.0,28.02182960510254,1,94455.5
1778782984.56045413,63744492,1,4.1300048828125,588.219970703125,94454.7265625,30.44,2.4731063842773438,63744,0.0,28.02182960510254,1,94454.7265625
1778782984.66041398,63844452,0,4.42401123046875,588.5139770507812,94452.65625,30.44,2.5136373043060303,63844,0.0,28.02182960510254,1,94452.65625
1778782984.66041398,63844452,1,4.16815185546875,588.2581176757812,94454.2890625,30.44,2.5136373043060303,63844,0.0,28.02182960510254,1,94454.2890625
1778782984.76037407,63944412,0,4.68572998046875,588.7756958007812,94449.6953125,30.44,2.522850275039673,63944,0.0,28.02182960510254,1,94449.6953125
1778782984.76037407,63944412,1,4.42987060546875,588.5198364257812,94451.3203125,30.44,2.522850275039673,63944,0.0,28.02182960510254,1,94451.3203125
1778782984.86033416,64044372,0,4.935791015625,589.0257568359375,94446.8515625,30.44,2.5235557556152344,64044,0.0,28.02182960510254,1,94446.8515625
1778782984.86033416,64044372,1,4.777099609375,588.8670654296875,94447.3828125,30.44,2.5235557556152344,64044,0.0,28.02182960510254,1,94447.3828125
1778782984.96029401,64144332,0,5.18585205078125,589.2758178710938,94444.015625,30.44,2.5350570678710938,64144,0.0,28.02182960510254,1,94444.015625
1778782984.96029401,64144332,1,5.20050048828125,589.2904663085938,94442.5859375,30.44,2.5350570678710938,64144,0.0,28.02182960510254,1,94442.5859375
1778782985.06025410,64244292,0,5.4329833984375,589.52294921875,94441.2109375,30.44,2.5352094173431396,64244,0.0,28.02182960510254,1,94441.2109375
1778782985.06025410,64244292,1,5.5238037109375,589.61376953125,94438.9140625,30.44,2.5352094173431396,64244,0.0,28.02182960510254,1,94438.9140625
1778782985.16021419,64344252,0,5.6888427734375,589.77880859375,94438.3046875,30.44,2.516059637069702,64344,0.0,28.02182960510254,1,94438.3046875
1778782985.16021419,64344252,1,5.4119873046875,589.501953125,94440.1796875,30.45,2.516059637069702,64344,0.0,28.02182960510254,1,94440.1796875
1778782985.26017404,64444212,0,5.93548583984375,590.0254516601562,94435.5078125,30.45,2.5030899047851562,64444,0.0,28.02182960510254,1,94435.5078125
1778782985.26017404,64444212,1,5.78558349609375,589.8755493164062,94435.9453125,30.45,2.5030899047851562,64444,0.0,28.02182960510254,1,94435.9453125
1778782985.36013412,64544172,0,6.1767578125,590.2667236328125,94432.765625,30.45,2.5014877319335938,64544,0.0,28.02182960510254,1,94432.765625
1778782985.36013412,64544172,1,5.97357177734375,590.0635375976562,94433.8046875,30.45,2.5014877319335938,64544,0.0,28.02182960510254,1,94433.8046875
1778782985.46009398,64644132,0,6.42388916015625,590.5138549804688,94429.96875,30.45,2.488823175430298,64644,0.0,28.02182960510254,1,94429.96875
1778782985.46009398,64644132,1,6.45025634765625,590.5402221679688,94428.40625,30.45,2.488823175430298,64644,0.0,28.02182960510254,1,94428.40625
1778782985.56005406,64744092,0,6.67388916015625,590.7638549804688,94427.1328125,30.45,2.4660112857818604,64744,0.0,28.02182960510254,1,94427.1328125
1778782985.56005406,64744092,1,6.7032470703125,590.793212890625,94425.53125,30.45,2.4660112857818604,64744,0.0,28.02182960510254,1,94425.53125
1778782985.66001415,64844052,0,6.9268798828125,591.016845703125,94424.265625,30.45,2.4612808227539062,64844,0.0,28.02182960510254,1,94424.265625
1778782985.66001415,64844052,1,6.7413330078125,590.831298828125,94425.1015625,30.45,2.4612808227539062,64844,0.0,28.02182960510254,1,94425.1015625
1778782985.76080704,64944845,0,7.1676025390625,591.257568359375,94421.53125,30.45,2.4781227111816406,64944,0.0,28.02182960510254,1,94421.53125
1778782985.76080704,64944845,1,7.16180419921875,591.2517700195312,94420.3203125,30.45,2.4781227111816406,64944,0.0,28.02182960510254,1,94420.3203125
1778782985.86076713,65044805,0,7.41473388671875,591.5046997070312,94418.7265625,30.45,2.486743688583374,65044,0.0,28.02182960510254,1,94418.7265625
1778782985.86076713,65044805,1,7.270751953125,591.3607177734375,94419.09375,30.45,2.486743688583374,65044,0.0,28.02182960510254,1,94419.09375
1778782985.96072698,65144765,0,7.656005859375,591.7459716796875,94415.9921875,30.45,2.472248077392578,65144,0.0,28.02182960510254,1,94415.9921875
1778782985.96072698,65144765,1,7.70587158203125,591.7958374023438,94414.15625,30.45,2.472248077392578,65144,0.0,28.02182960510254,1,94414.15625
1778782986.06068707,65244725,0,7.90313720703125,591.9931030273438,94413.1875,30.45,2.4521827697753906,65244,0.0,28.02182960510254,1,94413.1875
1778782986.06068707,65244725,1,7.9793701171875,592.0693359375,94411.0546875,30.45,2.4521827697753906,65244,0.0,28.02182960510254,1,94411.0546875
1778782986.16064715,65344685,0,8.1561279296875,592.24609375,94410.3125,30.45,2.4466514587402344,65344,0.0,28.02182960510254,1,94410.3125
1778782986.16064715,65344685,1,8.20892333984375,592.2988891601562,94408.453125,30.45,2.4466514587402344,65344,0.0,28.02182960510254,1,94408.453125
1778782986.26060700,65444645,0,8.39739990234375,592.4873657226562,94407.5859375,30.46,2.458324670791626,65444,0.0,28.02182960510254,1,94407.5859375
1778782986.26060700,65444645,1,8.21478271484375,592.3047485351562,94408.390625,30.46,2.458324670791626,65444,0.0,28.02182960510254,1,94408.390625
1778782986.36056709,65544605,0,8.64691162109375,592.7368774414062,94404.7421875,30.46,2.472057342529297,65544,0.0,28.02182960510254,1,94404.7421875
1778782986.36056709,65544605,1,8.67041015625,592.7603759765625,94403.21875,30.46,2.472057342529297,65544,0.0,28.02182960510254,1,94403.21875
1778782986.46052718,65644565,0,8.89404296875,592.9840087890625,94401.9453125,30.46,2.4732017517089844,65644,0.0,28.02182960510254,1,94401.9453125
1778782986.46052718,65644565,1,8.708984375,592.7989501953125,94402.78125,30.46,2.4732017517089844,65644,0.0,28.02182960510254,1,94402.78125
1778782986.56048703,65744525,0,9.13525390625,593.2252197265625,94399.21875,30.46,2.4677464962005615,65744,0.0,28.02182960510254,1,94399.21875
1778782986.56048703,65744525,1,9.10308837890625,593.1930541992188,94398.3125,30.46,2.4677464962005615,65744,0.0,28.02182960510254,1,94398.3125
1778782986.66044712,65844485,0,9.3883056640625,593.478271484375,94396.34375,30.46,2.4640274047851562,65844,0.0,28.02182960510254,1,94396.34375
1778782986.66044712,65844485,1,9.1148681640625,593.204833984375,94398.1796875,30.46,2.4640274047851562,65844,0.0,28.02182960510254,1,94398.1796875
1778782986.76040697,65944445,0,9.6353759765625,593.725341796875,94393.5390625,30.46,2.4639317989349365,65944,0.0,28.02182960510254,1,94393.5390625
1778782986.76040697,65944445,1,9.63250732421875,593.7224731445312,94392.3125,30.46,2.4639317989349365,65944,0.0,28.02182960510254,1,94392.3125
1778782986.86036706,66044405,0,9.87664794921875,593.9666137695312,94390.8046875,30.46,2.470130681991577,66044,0.0,28.02182960510254,1,94390.8046875
1778782986.86036706,66044405,1,9.95281982421875,594.0427856445312,94388.6640625,30.46,2.470130681991577,66044,0.0,28.02182960510254,1,94388.6640625
1778782986.96032715,66144365,0,10.12322998046875,594.2131958007812,94388.0078125,30.46,2.4710464477539062,66144,0.0,28.02182960510254,1,94388.0078125
1778782986.96032715,66144365,1,10.041259765625,594.1312255859375,94387.671875,30.46,2.4710464477539062,66144,0.0,28.02182960510254,1,94387.671875
1778782987.06028700,66244325,0,10.37335205078125,594.4633178710938,94385.171875,30.46,2.4602890014648438,66244,0.0,28.02182960510254,1,94385.171875
1778782987.06028700,66244325,1,10.36456298828125,594.4545288085938,94384.0078125,30.46,2.4602890014648438,66244,0.0,28.02182960510254,1,94384.0078125
1778782987.16024709,66344285,0,10.61749267578125,594.7074584960938,94382.3984375,30.46,2.4567792415618896,66344,0.0,28.02182960510254,1,94382.3984375
1778782987.16024709,66344285,1,10.59112548828125,594.6810913085938,94381.4375,30.46,2.4567792415618896,66344,0.0,28.02182960510254,1,94381.4375
1778782987.26020718,66444245,0,10.8675537109375,594.95751953125,94379.5703125,30.46,2.4660110473632812,66444,0.0,28.02182960510254,1,94379.5703125
1778782987.26020718,66444245,1,10.94378662109375,595.0337524414062,94377.4296875,30.46,2.4660110473632812,66444,0.0,28.02182960510254,1,94377.4296875
1778782987.36016703,66544205,0,11.11468505859375,595.2046508789062,94376.765625,30.46,2.4732017517089844,66544,0.0,28.02182960510254,1,94376.765625
1778782987.36016703,66544205,1,11.04681396484375,595.1367797851562,94376.265625,30.46,2.4732017517089844,66544,0.0,28.02182960510254,1,94376.265625
1778782987.46012712,66644165,0,11.35595703125,595.4459228515625,94374.03125,30.47,2.4737930297851562,66644,0.0,28.02182960510254,1,94374.03125
1778782987.46012712,66644165,1,11.2470703125,595.3370361328125,94374.0,30.47,2.4737930297851562,66644,0.0,28.02182960510254,1,94374.0
1778782987.56008697,66744125,0,11.60260009765625,595.6925659179688,94371.234375,30.47,2.4674224853515625,66744,0.0,28.02182960510254,1,94371.234375
1778782987.56008697,66744125,1,11.52935791015625,595.6193237304688,94370.796875,30.47,2.4674224853515625,66744,0.0,28.02182960510254,1,94370.796875
1778782987.66004705,66844085,0,11.85845947265625,595.9484252929688,94368.3359375,30.47,2.4586105346679688,66844,0.0,28.02182960510254,1,94368.3359375
1778782987.66004705,66844085,1,11.60552978515625,595.6954956054688,94369.9296875,30.47,2.4586105346679688,66844,0.0,28.02182960510254,1,94369.9296875
1778782987.76000714,66944045,0,12.0968017578125,596.186767578125,94365.6328125,30.47,2.4632837772369385,66944,0.0,28.02182960510254,1,94365.6328125
1778782987.76000714,66944045,1,11.9849853515625,596.074951171875,94365.6328125,30.47,2.4632837772369385,66944,0.0,28.02182960510254,1,94365.6328125
1778782987.86080003,67044838,0,12.32635498046875,596.4163208007812,94363.0234375,30.47,2.4686813354492188,67044,0.0,28.02182960510254,1,94363.0234375
1778782987.86080003,67044838,1,12.15838623046875,596.2483520507812,94363.6640625,30.47,2.4686813354492188,67044,0.0,28.02182960510254,1,94363.6640625
1778782987.96076012,67144798,0,12.54364013671875,596.6336059570312,94360.5625,30.47,2.4317359924316406,67144,0.0,28.02182960510254,1,94360.5625
1778782987.96076012,67144798,1,12.482177734375,596.5721435546875,94360.0,30.47,2.4317359924316406,67144,0.0,28.02182960510254,1,94360.0
1778782988.06071997,67244758,0,12.764404296875,596.8543701171875,94358.0625,30.47,2.3475263118743896,67244,0.0,28.02182960510254,1,94358.0625
1778782988.06071997,67244758,1,12.84063720703125,596.9306030273438,94355.9296875,30.47,2.3475263118743896,67244,0.0,28.02182960510254,1,94355.9296875
1778782988.16068006,67344718,0,12.96759033203125,597.0575561523438,94355.7578125,30.47,2.2571752071380615,67344,0.0,28.02182960510254,1,94355.7578125
1778782988.16068006,67344718,1,12.708251953125,596.7982177734375,94357.421875,30.47,2.2571752071380615,67344,0.0,28.02182960510254,1,94357.421875
1778782988.26064014,67444678,0,13.16436767578125,597.2543334960938,94353.5234375,30.47,2.1810340881347656,67444,0.0,28.02182960510254,1,94353.5234375
1778782988.26064014,67444678,1,12.97003173828125,597.0599975585938,94354.4609375,30.47,2.1810340881347656,67444,0.0,28.02182960510254,1,94354.4609375
1778782988.36059999,67544638,0,13.3465576171875,597.4365234375,94351.4609375,30.47,2.1004867553710938,67544,0.0,28.02182960510254,1,94351.4609375
1778782988.36059999,67544638,1,13.4320068359375,597.52197265625,94349.2265625,30.47,2.1004867553710938,67544,0.0,28.02182960510254,1,94349.2265625
1778782988.46056008,67644598,0,13.5262451171875,597.6162109375,94349.4296875,30.47,2.0035552978515625,67644,0.0,28.02182960510254,1,94349.4296875
1778782988.46056008,67644598,1,13.3055419921875,597.3955078125,94350.65625,30.47,2.0035552978515625,67644,0.0,28.02182960510254,1,94350.65625
1778782988.56052017,67744558,0,13.68499755859375,597.7749633789062,94347.625,30.48,1.9011116027832031,67744,0.0,28.02182960510254,1,94347.625
1778782988.56052017,67744558,1,13.5584716796875,597.6484375,94347.7890625,30.48,1.9011116027832031,67744,0.0,28.02182960510254,1,94347.7890625
1778782988.66048002,67844518,0,13.8349609375,597.9249267578125,94345.921875,30.48,1.7967414855957031,67844,0.0,28.02182960510254,1,94345.921875
1778782988.66048002,67844518,1,13.62884521484375,597.7188110351562,94346.9921875,30.48,1.7967414855957031,67844,0.0,28.02182960510254,1,94346.9921875
1778782988.76044011,67944478,0,13.97607421875,598.0660400390625,94344.3203125,30.48,1.682205080986023,67944,0.0,28.02182960510254,1,94344.3203125
1778782988.76044011,67944478,1,13.77294921875,597.8629150390625,94345.359375,30.48,1.682205080986023,67944,0.0,28.02182960510254,1,94345.359375
1778782988.86039996,68044438,0,14.1083984375,598.1983642578125,94342.8203125,30.48,1.564273715019226,68044,0.0,28.02182960510254,1,94342.8203125
1778782988.86039996,68044438,1,14.1083984375,598.1983642578125,94341.5625,30.48,1.564273715019226,68044,0.0,28.02182960510254,1,94341.5625
1778782988.96036005,68144398,0,14.22320556640625,598.3131713867188,94341.5234375,30.48,1.456451416015625,68144,0.0,28.02182960510254,1,94341.5234375
1778782988.96036005,68144398,1,14.14654541015625,598.2365112304688,94341.125,30.48,1.456451416015625,68144,0.0,28.02182960510254,1,94341.125
1778782989.06032014,68244358,0,14.33795166015625,598.4279174804688,94340.2265625,30.48,1.3536642789840698,68244,0.0,28.02182960510254,1,94340.2265625
1778782989.06032014,68244358,1,14.18170166015625,598.2716674804688,94340.71875,30.48,1.3536642789840698,68244,0.0,28.02182960510254,1,94340.71875
1778782989.16027999,68344318,0,14.43463134765625,598.5245971679688,94339.125,30.48,1.249141812324524,68344,0.0,28.02182960510254,1,94339.125
1778782989.16027999,68344318,1,14.25250244140625,598.3424682617188,94339.9296875,30.48,1.249141812324524,68344,0.0,28.02182960510254,1,94339.9296875
1778782989.26024008,68444278,0,14.52593994140625,598.6159057617188,94338.0859375,30.49,1.1478042602539062,68444,0.0,28.02182960510254,1,94338.0859375
1778782989.26024008,68444278,1,14.44049072265625,598.5304565429688,94337.7890625,30.49,1.1478042602539062,68444,0.0,28.02182960510254,1,94337.7890625
1778782989.36020017,68544238,0,14.6055908203125,598.695556640625,94337.1875,30.49,1.0490037202835083,68544,0.0,28.02182960510254,1,94337.1875
1778782989.36020017,68544238,1,14.55523681640625,598.6452026367188,94336.484375,30.49,1.0490037202835083,68544,0.0,28.02182960510254,1,94336.484375
1778782989.46016002,68644198,0,14.6759033203125,598.765869140625,94336.390625,30.49,0.9490585923194885,68644,0.0,28.02182960510254,1,94336.390625
1778782989.46016002,68644198,1,14.69940185546875,598.7893676757812,94334.8515625,30.49,0.9490585923194885,68644,0.0,28.02182960510254,1,94334.8515625
1778782989.56012011,68744158,0,14.73504638671875,598.8250122070312,94335.7265625,30.49,0.8495140075683594,68744,0.0,28.02182960510254,1,94335.7265625
1778782989.56012011,68744158,1,14.78778076171875,598.8777465820312,94333.859375,30.49,0.8495140075683594,68744,0.0,28.02182960510254,1,94333.859375
1778782989.66008019,68844118,0,14.78778076171875,598.8777465820312,94335.1171875,30.49,0.7504081726074219,68844,0.0,28.02182960510254,1,94335.1171875
1778782989.66008019,68844118,1,14.48492431640625,598.5748901367188,94337.2890625,30.49,0.7504081726074219,68844,0.0,28.02182960510254,1,94337.2890625
1778782989.76004004,68944078,0,14.82586669921875,598.9158325195312,94334.6875,30.49,0.6518364548683167,68944,0.0,28.02182960510254,1,94334.6875
1778782989.76004004,68944078,1,14.59039306640625,598.6803588867188,94336.09375,30.49,0.6518364548683167,68944,0.0,28.02182960510254,1,94336.09375
1778782989.86000013,69044038,0,14.85272216796875,598.9426879882812,94334.390625,30.5,0.5522728562355042,69044,0.0,28.02182960510254,1,94334.390625
1778782989.86000013,69044038,1,14.74090576171875,598.8308715820312,94334.390625,30.5,0.5522728562355042,69044,0.0,28.02182960510254,1,94334.390625
1778782989.96079302,69144831,0,14.87615966796875,598.9661254882812,94334.125,30.5,0.4474830627441406,69144,0.0,28.02182960510254,1,94334.125
1778782989.96079302,69144831,1,14.75262451171875,598.8425903320312,94334.25,30.5,0.4474830627441406,69144,0.0,28.02182960510254,1,94334.25
1778782990.06075311,69244791,0,14.88787841796875,598.9778442382812,94333.984375,30.5,0.3441047668457031,69244,0.0,28.02182960510254,1,94333.984375
1778782990.06075311,69244791,1,14.89373779296875,598.9837036132812,94332.6484375,30.5,0.3441047668457031,69244,0.0,28.02182960510254,1,94332.6484375
1778782990.16071296,69344751,0,14.89666748046875,598.9866333007812,94333.890625,30.5,0.25421142578125,69344,0.0,28.02182960510254,1,94333.890625
1778782990.16071296,69344751,1,14.64666748046875,598.7366333007812,94335.4609375,30.5,0.25421142578125,69344,0.0,28.02182960510254,1,94335.4609375
1778782990.26067305,69444711,0,14.89666748046875,598.9866333007812,94333.890625,30.5,0.1774597018957138,69444,0.0,28.02182960510254,1,94333.890625
1778782990.26067305,69444711,1,14.6378173828125,598.727783203125,94335.5546875,30.5,0.1774597018957138,69444,0.0,28.02182960510254,1,94335.5546875
1778782990.36063313,69544671,0,14.88787841796875,598.9778442382812,94333.984375,30.51,0.106353759765625,69544,0.0,28.02182960510254,1,94333.984375
1778782990.36063313,69544671,1,14.61151123046875,598.7014770507812,94335.859375,30.51,0.106353759765625,69544,0.0,28.02182960510254,1,94335.859375
1778782990.46059299,69644631,0,14.88787841796875,598.9778442382812,94333.984375,30.51,0.03936767578125,69644,0.0,28.02182960510254,1,94333.984375
1778782990.46059299,69644631,1,14.64373779296875,598.7337036132812,94335.4921875,30.51,0.03936767578125,69644,0.0,28.02182960510254,1,94335.4921875
1778782990.56055307,69744591,0,14.87615966796875,598.9661254882812,94334.125,30.51,-0.01373291015625,69744,0.0,28.02182960510254,1,94334.125
1778782990.56055307,69744591,1,14.6290283203125,598.718994140625,94335.65625,30.51,-0.01373291015625,69744,0.0,28.02182960510254,1,94335.65625
1778782990.66051316,69844551,0,14.87615966796875,598.9661254882812,94334.125,30.51,-0.04302978515625,69844,0.0,28.02182960510254,1,94334.125
1778782990.66051316,69844551,1,14.92596435546875,599.0159301757812,94332.2890625,30.51,-0.04302978515625,69844,0.0,28.02182960510254,1,94332.2890625
1778782990.76047301,69944511,0,14.86444091796875,598.9544067382812,94334.25,30.51,-0.0540161170065403,69944,0.0,28.02182960510254,1,94334.25
1778782990.76047301,69944511,1,14.87908935546875,598.9690551757812,94332.8203125,30.51,-0.0540161170065403,69944,0.0,28.02182960510254,1,94332.8203125
1778782990.86043310,70044471,0,14.86444091796875,598.9544067382812,94334.25,30.52,-0.05767822265625,70044,0.0,28.02182960510254,1,94334.25
1778782990.86043310,70044471,1,14.6143798828125,598.704345703125,94335.8203125,30.52,-0.05767822265625,70044,0.0,28.02182960510254,1,94335.8203125
1778782990.96039319,70144431,0,14.86444091796875,598.9544067382812,94334.25,30.52,-0.054931640625,70144,0.0,28.02182960510254,1,94334.25
1778782990.96039319,70144431,1,14.80242919921875,598.8923950195312,94333.6875,30.52,-0.054931640625,70144,0.0,28.02182960510254,1,94333.6875
1778782991.06035304,70244391,0,14.86444091796875,598.9544067382812,94334.25,30.52,-0.040283203125,70244,0.0,28.02182960510254,1,94334.25
1778782991.06035304,70244391,1,14.5875244140625,598.677490234375,94336.125,30.52,-0.040283203125,70244,0.0,28.02182960510254,1,94336.125
1778782991.16031313,70344351,0,14.86444091796875,598.9544067382812,94334.25,30.52,-0.01831054501235485,70344,0.0,28.02182960510254,1,94334.25
1778782991.16031313,70344351,1,14.75262451171875,598.8425903320312,94334.25,30.52,-0.01831054501235485,70344,0.0,28.02182960510254,1,94334.25
1778782991.26027298,70444311,0,14.86444091796875,598.9544067382812,94334.25,30.52,-0.003662109375,70444,0.0,28.02182960510254,1,94334.25
1778782991.26027298,70444311,1,14.6378173828125,598.727783203125,94335.5546875,30.52,-0.003662109375,70444,0.0,28.02182960510254,1,94335.5546875
1778782991.36023307,70544271,0,14.86444091796875,598.9544067382812,94334.25,30.53,0.0,70544,0.0,28.02182960510254,1,94334.25
1778782991.36023307,70544271,1,14.90252685546875,598.9924926757812,94332.5546875,30.52,0.0,70544,0.0,28.02182960510254,1,94332.5546875
1778782991.46019316,70644231,0,14.87615966796875,598.9661254882812,94334.125,30.53,0.003662109375,70644,0.0,28.02182960510254,1,94334.125
1778782991.46019316,70644231,1,14.81121826171875,598.9011840820312,94333.5859375,30.53,0.003662109375,70644,0.0,28.02182960510254,1,94333.5859375
1778782991.56015301,70744191,0,14.87615966796875,598.9661254882812,94334.125,30.53,0.01831054501235485,70744,0.0,28.02182960510254,1,94334.125
1778782991.56015301,70744191,1,14.79949951171875,598.8894653320312,94333.71875,30.53,0.01831054501235485,70744,0.0,28.02182960510254,1,94333.71875
1778782991.66011310,70844151,0,14.88787841796875,598.9778442382812,94333.984375,30.53,0.040283203125,70844,0.0,28.02182960510254,1,94333.984375
1778782991.66011310,70844151,1,14.6290283203125,598.718994140625,94335.65625,30.53,0.040283203125,70844,0.0,28.02182960510254,1,94335.65625
1778782991.76007318,70944111,0,14.88787841796875,598.9778442382812,94333.984375,30.53,0.054931640625,70944,0.0,28.02182960510254,1,94333.984375
1778782991.76007318,70944111,1,14.64373779296875,598.7337036132812,94335.4921875,30.53,0.054931640625,70944,0.0,28.02182960510254,1,94335.4921875
1778782991.86003304,71044071,0,14.89666748046875,598.9866333007812,94333.890625,30.53,0.05767822265625,71044,0.0,28.02182960510254,1,94333.890625
1778782991.86003304,71044071,1,14.6846923828125,598.774658203125,94335.0234375,30.54,0.05767822265625,71044,0.0,28.02182960510254,1,94335.0234375
1778782991.95999312,71144031,0,14.89666748046875,598.9866333007812,94333.890625,30.54,0.0540161170065403,71144,0.0,28.02182960510254,1,94333.890625
1778782991.95999312,71144031,1,14.84051513671875,598.9304809570312,94333.2578125,30.54,0.0540161170065403,71144,0.0,28.02182960510254,1,94333.2578125
1778782992.06078601,71244824,0,14.90545654296875,598.9954223632812,94333.78125,30.54,0.0485229454934597,71244,0.0,28.02182960510254,1,94333.78125
1778782992.06078601,71244824,1,14.71697998046875,598.8069458007812,94334.65625,30.54,0.0485229454934597,71244,0.0,28.02182960510254,1,94334.65625
1778782992.16074610,71344784,0,14.90545654296875,598.9954223632812,94333.78125,30.54,0.04486083984375,71344,0.0,28.02182960510254,1,94333.78125
1778782992.16074610,71344784,1,14.84930419921875,598.9392700195312,94333.15625,30.54,0.04486083984375,71344,0.0,28.02182960510254,1,94333.15625
1778782992.26070619,71444744,0,14.91424560546875,599.0042114257812,94333.6875,30.54,0.0439453125,71444,0.0,28.02182960510254,1,94333.6875
1778782992.26070619,71444744,1,14.64666748046875,598.7366333007812,94335.4609375,30.54,0.0439453125,71444,0.0,28.02182960510254,1,94335.4609375
1778782992.36066604,71544704,0,14.91424560546875,599.0042114257812,94333.6875,30.54,0.0439453125,71544,0.0,28.02182960510254,1,94333.6875
1778782992.36066604,71544704,1,14.97283935546875,599.0628051757812,94331.75,30.54,0.0439453125,71544,0.0,28.02182960510254,1,94331.75
1778782992.46062613,71644664,0,14.91424560546875,599.0042114257812,94333.6875,30.55,0.0411987341940403,71644,0.0,28.02182960510254,1,94333.6875
1778782992.46062613,71644664,1,14.97576904296875,599.0657348632812,94331.71875,30.55,0.0411987341940403,71644,0.0,28.02182960510254,1,94331.71875
1778782992.56058598,71744624,0,14.92303466796875,599.0130004882812,94333.5859375,30.55,0.032958984375,71744,0.0,28.02182960510254,1,94333.5859375
1778782992.56058598,71744624,1,14.80242919921875,598.8923950195312,94333.6875,30.55,0.032958984375,71744,0.0,28.02182960510254,1,94333.6875
1778782992.66054606,71844584,0,14.92303466796875,599.0130004882812,94333.5859375,30.55,0.02746582217514515,71844,0.0,28.02182960510254,1,94333.5859375
1778782992.66054606,71844584,1,14.65838623046875,598.7483520507812,94335.3203125,30.55,0.02746582217514515,71844,0.0,28.02182960510254,1,94335.3203125
1778782992.76050615,71944544,0,14.92303466796875,599.0130004882812,94333.5859375,30.55,0.03021240234375,71944,0.0,28.02182960510254,1,94333.5859375
1778782992.76050615,71944544,1,14.99041748046875,599.0803833007812,94331.546875,30.55,0.03021240234375,71944,0.0,28.02182960510254,1,94331.546875
1778782992.86046600,72044504,0,14.93475341796875,599.0247192382812,94333.453125,30.55,0.0311279296875,72044,0.0,28.02182960510254,1,94333.453125
1778782992.86046600,72044504,1,14.81707763671875,598.9070434570312,94333.5234375,30.55,0.0311279296875,72044,0.0,28.02182960510254,1,94333.5234375
1778782992.96042609,72144464,0,14.93475341796875,599.0247192382812,94333.453125,30.56,0.03204345703125,72144,0.0,28.02182960510254,1,94333.453125
1778782992.96042609,72144464,1,14.64666748046875,598.7366333007812,94335.4609375,30.56,0.03204345703125,72144,0.0,28.02182960510254,1,94335.4609375
1778782993.06038618,72244424,0,14.93475341796875,599.0247192382812,94333.453125,30.56,0.0393676795065403,72244,0.0,28.02182960510254,1,94333.453125
1778782993.06038618,72244424,1,14.81707763671875,598.9070434570312,94333.5234375,30.56,0.0393676795065403,72244,0.0,28.02182960510254,1,94333.5234375
1778782993.16034603,72344384,0,14.93475341796875,599.0247192382812,94333.453125,30.56,0.03662109375,72344,0.0,28.02182960510254,1,94333.453125
1778782993.16034603,72344384,1,14.82293701171875,598.9129028320312,94333.453125,30.56,0.03662109375,72344,0.0,28.02182960510254,1,94333.453125
1778782993.26030612,72444344,0,14.93475341796875,599.0247192382812,94333.453125,30.56,0.01831054501235485,72444,0.0,28.02182960510254,1,94333.453125
1778782993.26030612,72444344,1,14.72869873046875,598.8186645507812,94334.5234375,30.56,0.01831054501235485,72444,0.0,28.02182960510254,1,94334.5234375
1778782993.36026597,72544304,0,14.94647216796875,599.0364379882812,94333.3203125,30.56,0.00732421875,72544,0.0,28.02182960510254,1,94333.3203125
1778782993.36026597,72544304,1,14.85809326171875,598.9480590820312,94333.0546875,30.56,0.00732421875,72544,0.0,28.02182960510254,1,94333.0546875
1778782993.46022606,72644264,0,14.94647216796875,599.0364379882812,94333.3203125,30.56,0.01831054501235485,72644,0.0,28.02182960510254,1,94333.3203125
1778782993.46022606,72644264,1,14.81707763671875,598.9070434570312,94333.5234375,30.56,0.01831054501235485,72644,0.0,28.02182960510254,1,94333.5234375
1778782993.56018615,72744224,0,14.94647216796875,599.0364379882812,94333.3203125,30.57,0.03662109375,72744,0.0,28.02182960510254,1,94333.3203125
1778782993.56018615,72744224,1,14.86395263671875,598.9539184570312,94332.9921875,30.57,0.03662109375,72744,0.0,28.02182960510254,1,94332.9921875
1778782993.66014600,72844184,0,14.94647216796875,599.0364379882812,94333.3203125,30.57,0.03662109375,72844,0.0,28.02182960510254,1,94333.3203125
1778782993.66014600,72844184,1,14.88201904296875,598.9719848632812,94332.7890625,30.57,0.03662109375,72844,0.0,28.02182960510254,1,94332.7890625
1778782993.76010609,72944144,0,14.94647216796875,599.0364379882812,94333.3203125,30.57,0.01831054501235485,72944,0.0,28.02182960510254,1,94333.3203125
1778782993.76010609,72944144,1,14.64666748046875,598.7366333007812,94335.4609375,30.57,0.01831054501235485,72944,0.0,28.02182960510254,1,94335.4609375
1778782993.86006618,73044104,0,14.95819091796875,599.0481567382812,94333.1953125,30.57,0.00732421875,73044,0.0,28.02182960510254,1,94333.1953125
1778782993.86006618,73044104,1,14.71405029296875,598.8040161132812,94334.6875,30.57,0.00732421875,73044,0.0,28.02182960510254,1,94334.6875
1778782993.96002603,73144064,0,14.95819091796875,599.0481567382812,94333.1953125,30.57,0.01831054501235485,73144,0.0,28.02182960510254,1,94333.1953125
1778782993.96002603,73144064,1,14.82586669921875,598.9158325195312,94333.421875,30.57,0.01831054501235485,73144,0.0,28.02182960510254,1,94333.421875
1778782994.05998611,73244024,0,14.95819091796875,599.0481567382812,94333.1953125,30.58,0.03662109375,73244,0.0,28.02182960510254,1,94333.1953125
1778782994.05998611,73244024,1,14.89373779296875,598.9837036132812,94332.6484375,30.57,0.03662109375,73244,0.0,28.02182960510254,1,94332.6484375
1778782994.16077900,73344817,0,14.95819091796875,599.0481567382812,94333.1953125,30.58,0.03662109375,73344,0.0,28.02182960510254,1,94333.1953125
1778782994.16077900,73344817,1,14.81707763671875,598.9070434570312,94333.5234375,30.58,0.03662109375,73344,0.0,28.02182960510254,1,94333.5234375
1778782994.26073909,73444777,0,14.95819091796875,599.0481567382812,94333.1953125,30.58,0.01831054501235485,73444,0.0,28.02182960510254,1,94333.1953125
1778782994.26073909,73444777,1,14.81707763671875,598.9070434570312,94333.5234375,30.58,0.01831054501235485,73444,0.0,28.02182960510254,1,94333.5234375
1778782994.36069918,73544737,0,14.95819091796875,599.0481567382812,94333.1953125,30.58,0.003662109375,73544,0.0,28.02182960510254,1,94333.1953125
1778782994.36069918,73544737,1,14.87274169921875,598.9627075195312,94332.8828125,30.58,0.003662109375,73544,0.0,28.02182960510254,1,94332.8828125
1778782994.46065903,73644697,0,14.95819091796875,599.0481567382812,94333.1953125,30.58,0.0,73644,0.0,28.02182960510254,1,94333.1953125
