timestamp,TimeUS,DesRoll,Roll,DesPitch,Pitch,DesYaw,Yaw,AEKF
1778627314.43998408,54645633,-0.00014208357606548816,0.06613557785749435,8.693498239153996e-05,0.05366504564881325,354.856201171875,354.856201171875,3
1778627314.53994417,54745593,-0.00014208357606548816,0.06589838862419128,8.693498966749758e-05,0.05382200703024864,354.8540344238281,354.8540344238281,3
1778627314.63990402,54845553,-0.00014208356151357293,0.06561505049467087,8.693499694345519e-05,0.05381148308515549,354.8520202636719,354.8520202636719,3
1778627314.73986411,54945513,-0.0001420835469616577,0.06550384312868118,8.693498966749758e-05,0.0535954125225544,354.8489685058594,354.8489685058594,3
1778627314.83982420,55045473,-0.0001420835469616577,0.06572109460830688,8.693502604728565e-05,0.053841590881347656,354.84619140625,354.84619140625,3
1778627314.93978405,55145433,-0.00014208350330591202,0.06565897911787033,8.693496783962473e-05,0.05383537337183952,354.8433532714844,354.8433532714844,3
1778627315.03974414,55245393,-0.00014208353240974247,0.06622667610645294,8.693496783962473e-05,0.05421445146203041,354.84039306640625,354.84039306640625,3
1778627315.13970399,55345353,-0.0001420835469616577,0.06667375564575195,8.693496056366712e-05,0.05464205890893936,354.83770751953125,354.83770751953125,3
1778627315.23966408,55445313,-0.0001420835469616577,0.0672934353351593,8.69349532877095e-05,0.055336326360702515,354.835205078125,354.835205078125,3
1778627315.33962417,55545273,-0.00014208353240974247,0.06810569763183594,8.693496056366712e-05,0.056136660277843475,354.832275390625,354.832275390625,3
1778627315.43958402,55645233,-0.00014208350330591202,0.06925053894519806,8.693493873579428e-05,0.05702502653002739,354.82940673828125,354.82940673828125,3
1778627315.53954411,55745193,-0.0001420834887539968,0.07021696120500565,8.693494601175189e-05,0.057922061532735825,354.82659912109375,354.82659912109375,3
1778627315.63950419,55845153,-0.00014208356151357293,0.07144629210233688,8.693496056366712e-05,0.05898343771696091,354.82366943359375,354.82366943359375,3
1778627315.73946404,55945113,-0.00014208356151357293,0.07249055057764053,8.693493873579428e-05,0.06026565656065941,354.82073974609375,354.82073974609375,3
1778627315.83942413,56045073,-0.00014208357606548816,0.07367227226495743,8.693492418387905e-05,0.06153346598148346,354.81787109375,354.81787109375,3
1778627315.93938398,56145033,-0.00014208353240974247,0.07495657354593277,8.69349023560062e-05,0.06297693401575089,354.81463623046875,354.81463623046875,3
1778627316.03934407,56244993,-0.00014208351785782725,0.07614803314208984,8.693485870026052e-05,0.06418553739786148,354.8116455078125,354.8116455078125,3
1778627316.13930416,56344953,-0.00014208356151357293,0.07762298732995987,8.693488780409098e-05,0.06581135094165802,354.8086853027344,354.8086853027344,3
1778627316.23926401,56444913,-0.00014208356151357293,0.07918251305818558,8.693486597621813e-05,0.0672469213604927,354.805908203125,354.8059387207031,3
1778627316.33922410,56544873,-0.0001420835469616577,0.08045989274978638,8.693487325217575e-05,0.0687980204820633,354.8031311035156,354.8031311035156,3
1778627316.43918419,56644833,-0.00014208356151357293,0.0820026844739914,8.693485870026052e-05,0.07038216292858124,354.8003234863281,354.8003234863281,3
1778627316.53997707,56745626,-0.00014208350330591202,0.08356685936450958,8.693482959643006e-05,0.07204099744558334,354.79718017578125,354.79718017578125,3
1778627316.63993716,56845586,-0.00014208345965016633,0.08473766595125198,8.693479321664199e-05,0.073582723736763,354.7941589355469,354.7941589355469,3
1778627316.73989701,56945546,-0.00014208343054633588,0.0861753299832344,8.693479321664199e-05,0.0752987489104271,354.79119873046875,354.79119873046875,3
1778627316.83985710,57045506,-0.00014208343054633588,0.08794417977333069,8.693480776855722e-05,0.07690798491239548,354.7879333496094,354.7879333496094,3
1778627316.93981719,57145466,-0.00014208341599442065,0.08924536406993866,8.693479321664199e-05,0.0786040872335434,354.7850341796875,354.7850341796875,3
1778627317.03977704,57245426,-0.00014208341599442065,0.09070233255624771,8.693474956089631e-05,0.08005025237798691,354.7819519042969,354.7819519042969,3
1778627317.13973713,57345386,-0.00014208341599442065,0.0922127217054367,8.693475683685392e-05,0.08165948837995529,354.7787170410156,354.7787170410156,3
1778627317.23969722,57445346,-0.00014208340144250542,0.09379203617572784,8.693474228493869e-05,0.08334464579820633,354.7757568359375,354.7757568359375,3
1778627317.33965707,57545306,-0.00014208337233867496,0.09535393118858337,8.693473500898108e-05,0.08480910211801529,354.7727966308594,354.7727966308594,3
1778627317.43961716,57645266,-0.00014208335778675973,0.0969635620713234,8.693472045706585e-05,0.08663731813430786,354.7695617675781,354.7695617675781,3
1778627317.53957701,57745226,-0.00014208335778675973,0.09865853935480118,8.693469862919301e-05,0.08823088556528091,354.7662048339844,354.7662048339844,3
1778627317.63953710,57845186,-0.00014208332868292928,0.10050871968269348,8.69346913532354e-05,0.08991861343383789,354.7628479003906,354.7628479003906,3
1778627317.73949718,57945146,-0.00014208332868292928,0.1019977405667305,8.693468407727778e-05,0.09150831401348114,354.75958251953125,354.75958251953125,3
1778627317.83945704,58045106,-0.00014208331413101405,0.10362335294485092,8.693467680132017e-05,0.09318579733371735,354.7564697265625,354.7564697265625,3
1778627317.93941712,58145066,-0.0001420833432348445,0.10535350441932678,8.693470590515062e-05,0.09510532766580582,354.7532958984375,354.7532958984375,3
1778627318.03937721,58245026,-0.00014208337233867496,0.10696250945329666,8.693467680132017e-05,0.09675559401512146,354.7507019042969,354.7507019042969,3
1778627318.13933706,58344986,-0.00014208340144250542,0.10883574187755585,8.693467680132017e-05,0.09828837215900421,354.7478942871094,354.7478942871094,3
1778627318.23929715,58444946,-0.0001420833868905902,0.11058934032917023,8.693466952536255e-05,0.09983965009450912,354.7449035644531,354.7449035644531,3
1778627318.33925700,58544906,-0.00014208337233867496,0.11254032701253891,8.693464769748971e-05,0.10139112919569016,354.7415466308594,354.7415466308594,3
1778627318.43921709,58644866,-0.00014208340144250542,0.11440975964069366,8.693462586961687e-05,0.10275093466043472,354.7382507324219,354.7382507324219,3
1778627318.53917718,58744826,-0.00014208337233867496,0.11620040237903595,8.693463314557448e-05,0.10454598069190979,354.7347412109375,354.7347412109375,3
1778627318.63997006,58845619,-0.0001420833432348445,0.11788356304168701,8.693461859365925e-05,0.10638749599456787,354.7316589355469,354.7316589355469,3
1778627318.73993015,58945579,-0.00014208332868292928,0.11942452937364578,8.693463314557448e-05,0.10832909494638443,354.728271484375,354.728271484375,3
1778627318.83989000,59045539,-0.00014208337233867496,0.12097742408514023,8.693464769748971e-05,0.11009170114994049,354.7247314453125,354.7247314453125,3
1778627318.93985009,59145499,-0.00014208331413101405,0.12284252047538757,8.693461859365925e-05,0.11175639182329178,354.720947265625,354.720947265625,3
1778627319.03981018,59245459,-0.00014208335778675973,0.12465166300535202,8.693461131770164e-05,0.11348174512386322,354.7174987792969,354.7174987792969,3
1778627319.13977003,59345419,-0.0001420833432348445,0.1263497918844223,8.693459676578641e-05,0.11501329392194748,354.71392822265625,354.71392822265625,3
1778627319.23973012,59445379,-0.00014208327047526836,0.12801523506641388,8.693456766195595e-05,0.1166994720697403,354.7103576660156,354.7103576660156,3
1778627319.33969021,59545339,-0.00014208329957909882,0.12983392179012299,8.693455311004072e-05,0.1186256930232048,354.7069396972656,354.7069396972656,3
1778627319.43965006,59645299,-0.00014208331413101405,0.13146154582500458,8.693455311004072e-05,0.12041225284337997,354.7034912109375,354.7034912109375,3
1778627319.53961015,59745259,-0.00014208329957909882,0.13329873979091644,8.693455311004072e-05,0.12211906909942627,354.699951171875,354.699951171875,3
1778627319.63957000,59845219,-0.00014208327047526836,0.13496728241443634,8.693450945429504e-05,0.12397512793540955,354.6963195800781,354.6963195800781,3
1778627319.73953009,59945179,-0.00014208325592335314,0.1365644335746765,8.693450217833742e-05,0.1256539672613144,354.69256591796875,354.69256591796875,3
1778627319.83949018,60045139,-0.00014208331413101405,0.13826414942741394,8.693450217833742e-05,0.12730643153190613,354.6888732910156,354.6888732910156,3
1778627319.93945003,60145099,-0.00014208335778675973,0.13972701132297516,8.693451673025265e-05,0.12914125621318817,354.6852722167969,354.6852722167969,3
1778627320.03941011,60245059,-0.0001420833432348445,0.14139245450496674,8.69345385581255e-05,0.13069529831409454,354.6817626953125,354.6817626953125,3
1778627320.13937020,60345019,-0.00014208332868292928,0.14278081059455872,8.693449490237981e-05,0.13260720670223236,354.6777038574219,354.6777038574219,3
1778627320.23933005,60444979,-0.00014208332868292928,0.14425477385520935,8.69344876264222e-05,0.13426940143108368,354.673828125,354.673828125,3
1778627320.33929014,60544939,-0.00014208337233867496,0.1458258181810379,8.693447307450697e-05,0.1359800547361374,354.67010498046875,354.67010498046875,3
1778627320.43924999,60644899,-0.00014208337233867496,0.14734087884426117,8.693444397067651e-05,0.13744138181209564,354.66644287109375,354.66644287109375,3
1778627320.53921008,60744859,-0.00014208331413101405,0.14867061376571655,8.693442214280367e-05,0.13895949721336365,354.6626892089844,354.6626892089844,3
1778627320.64000320,60845652,-0.00014208329957909882,0.1500788778066635,8.693436393514276e-05,0.1405198723077774,354.65887451171875,354.65887451171875,3
1778627320.73996305,60945612,-0.0001420833432348445,0.15161721408367157,8.693437848705798e-05,0.14191879332065582,354.65484619140625,354.65484619140625,3
1778627320.83992314,61045572,-0.00014208335778675973,0.1531524509191513,8.693436393514276e-05,0.14332635700702667,354.6509094238281,354.6509094238281,3
1778627320.93988299,61145532,-0.00014208335778675973,0.1545543223619461,8.693436393514276e-05,0.144694983959198,354.6467590332031,354.6467590332031,3
1778627321.03984308,61245492,-0.00014208332868292928,0.15582066774368286,8.693432755535468e-05,0.14622162282466888,354.6428527832031,354.6428527832031,3
1778627321.13980317,61345452,-0.0001420833432348445,0.1571357697248459,8.693430572748184e-05,0.14751707017421722,354.6387939453125,354.6387939453125,3
1778627321.23976302,61445412,-0.00014208340144250542,0.15845881402492523,8.693430572748184e-05,0.14860020577907562,354.6351013183594,354.6351013183594,3
1778627321.33972311,61545372,-0.00014208331413101405,0.15953093767166138,8.693425479577854e-05,0.14988774061203003,354.63134765625,354.63134765625,3
1778627321.43968320,61645332,-0.00014208331413101405,0.16074509918689728,8.693424024386331e-05,0.1510838270187378,354.6307373046875,354.6277160644531,3
1778627321.53964305,61745292,-0.00014208331413101405,0.16201189160346985,8.693424024386331e-05,0.15218320488929749,354.6307373046875,354.6239929199219,3
1778627321.63960314,61845252,-0.00014208331413101405,0.1631014049053192,8.693424024386331e-05,0.15326887369155884,354.6307373046875,354.6201477050781,3
1778627321.73956299,61945212,-0.00014208331413101405,0.1642226278781891,8.693424024386331e-05,0.15429985523223877,354.6307373046875,354.6162109375,3
1778627321.83952308,62045172,-0.00014208331413101405,0.16498421132564545,8.693424024386331e-05,0.15513309836387634,354.6307373046875,354.6124267578125,3
1778627321.93948317,62145132,-0.00014208331413101405,0.16578595340251923,8.693424024386331e-05,0.15614405274391174,354.6307373046875,354.608642578125,3
1778627322.03944302,62245092,-0.00014208331413101405,0.16661879420280457,8.693424024386331e-05,0.15699683129787445,354.6307373046875,354.6048278808594,3
1778627322.13940310,62345052,-0.00014208331413101405,0.1675041913986206,8.693424024386331e-05,0.15783007442951202,354.6307373046875,354.6009826660156,3
1778627322.23936319,62445012,-0.037633735686540604,0.16835200786590576,-0.03824706748127937,0.1585872620344162,354.6307678222656,354.596923828125,3
1778627322.33932304,62544972,-0.10566084086894989,0.1690211147069931,-0.10776682198047638,0.1592215597629547,354.630859375,354.5929870605469,3
1778627322.43928313,62644932,-0.1527915596961975,0.1698465794324875,-0.15604130923748016,0.15976525843143463,354.6309509277344,354.5892333984375,3
1778627322.53924298,62744892,-0.1763482689857483,0.1702428162097931,-0.18028201162815094,0.16016453504562378,354.6310119628906,354.5855712890625,3
1778627322.63920307,62844852,-0.1888810396194458,0.17069563269615173,-0.1931050717830658,0.16056501865386963,354.6310729980469,354.58172607421875,3
1778627322.73999619,62945645,-0.19563162326812744,0.1710043102502823,-0.1997983306646347,0.16078855097293854,354.6310729980469,354.5780334472656,3
1778627322.83995605,63045605,-0.20181208848953247,0.05861383303999901,-0.20607727766036987,0.05174911022186279,354.631103515625,354.5757751464844,3
1778627322.93991613,63145565,-0.2036343216896057,-0.11010133475065231,-0.2077244073152542,-0.11447736620903015,354.631103515625,354.57855224609375,3
1778627323.03987598,63245525,-0.18688899278640747,-0.2118462175130844,-0.19070741534233093,-0.2106904238462448,354.63104248046875,354.5828857421875,3
1778627323.13983607,63345485,-0.14125634729862213,-0.23831824958324432,-0.1464984267950058,-0.2397519201040268,354.63092041015625,354.5874328613281,3
1778627323.23979616,63445445,-0.07029011845588684,-0.20804256200790405,-0.07715259492397308,-0.20776954293251038,354.63079833984375,354.59088134765625,3
1778627323.33975601,63545405,0.023099299520254135,-0.13224931061267853,0.013054302893579006,-0.13749778270721436,354.6307373046875,354.5934143066406,3
1778627323.43971610,63645365,0.12077010422945023,-0.028677865862846375,0.10720404237508774,-0.04189359396696091,354.6308898925781,354.5953674316406,3
1778627323.53967619,63745325,0.20911277830600739,0.07087210565805435,0.1929645538330078,0.05869130417704582,354.6311340332031,354.5970764160156,3
1778627323.63963604,63845285,0.27683591842651367,0.15198175609111786,0.2596571147441864,0.12837019562721252,354.63140869140625,354.59844970703125,3
1778627323.73959613,63945245,0.3275664448738098,0.20744583010673523,0.31130561232566833,0.18271496891975403,354.6316833496094,354.5989074707031,3
1778627323.83955622,64045205,0.3615441918373108,0.2511001527309418,0.3475969731807709,0.2352164089679718,354.63189697265625,354.5985107421875,3
1778627323.93951607,64145165,0.38620489835739136,0.28608110547065735,0.3725161552429199,0.27311840653419495,354.6320495605469,354.5978088378906,3
1778627324.03947616,64245125,0.40010589361190796,0.30855080485343933,0.38505709171295166,0.29554101824760437,354.63214111328125,354.5973815917969,3
1778627324.13943601,64345085,0.4082199037075043,0.3266875147819519,0.3885387182235718,0.3088510036468506,354.6321716308594,354.5972900390625,3
1778627324.23939610,64445045,0.40839260816574097,0.33013680577278137,0.3803868889808655,0.30599990487098694,354.6321105957031,354.5974426269531,3
1778627324.33935618,64545005,0.4052082896232605,0.33457863330841064,0.3698745369911194,0.3041835427284241,354.6320495605469,354.5979919433594,3
1778627324.43931603,64644965,0.39584028720855713,0.3302479088306427,0.3553922474384308,0.2933149039745331,354.6319274902344,354.59820556640625,3
1778627324.53927612,64744925,0.38411712646484375,0.3206820785999298,0.34124040603637695,0.28480929136276245,354.6318359375,354.59820556640625,3
1778627324.63923621,64844885,0.3667868971824646,0.31247884035110474,0.32471373677253723,0.27764251828193665,352.6893005371094,352.6589660644531,3
1778627324.73919606,64944845,0.3461989462375641,0.30127692222595215,0.3131960928440094,0.2733871340751648,352.689208984375,352.661376953125,3
1778627324.83998919,65045638,0.32197701930999756,0.28519776463508606,0.2974606156349182,0.26183775067329407,352.6891174316406,352.6618957519531,3
1778627324.93994904,65145598,0.2990737557411194,0.26381272077560425,0.2799966335296631,0.25006169080734253,352.6889953613281,352.67022705078125,3
1778627325.03990912,65245558,0.27630001306533813,0.24864976108074188,0.2598578631877899,0.23125992715358734,352.68890380859375,352.6814880371094,3
1778627325.13986921,65345518,0.25696951150894165,0.2242043912410736,0.2409655898809433,0.2083890438079834,352.6888122558594,352.6920166015625,3
1778627325.23982906,65445478,0.23909442126750946,0.20769253373146057,0.22238808870315552,0.19805282354354858,352.688720703125,352.6993713378906,3
1778627325.33978915,65545438,0.22552122175693512,0.1900574266910553,0.20751072466373444,0.18180620670318604,352.68865966796875,352.7043762207031,3
1778627325.43974900,65645398,0.21337731182575226,0.19261902570724487,0.19404824078083038,0.16578859090805054,352.6886291503906,352.70550537109375,3
1778627325.53970909,65745358,0.20406529307365417,0.19390170276165009,0.1852879375219345,0.15403394401073456,352.6885986328125,352.7070617675781,3
1778627325.63966918,65845318,0.1936355084180832,0.19487842917442322,0.17958706617355347,0.14902709424495697,352.6885681152344,352.7095642089844,3
1778627325.73962903,65945278,0.18495477735996246,0.1875624656677246,0.17787247896194458,0.15155039727687836,352.6885681152344,352.71038818359375,3
1778627325.83958912,66045238,0.17626431584358215,0.17000484466552734,0.17785607278347015,0.16062843799591064,352.68853759765625,352.7069091796875,3
1778627325.93954921,66145198,0.17121684551239014,0.16033148765563965,0.17921701073646545,0.1657721847295761,352.68853759765625,352.7063293457031,3
1778627326.03950906,66245158,0.1697455644607544,0.15263399481773376,0.1804383248090744,0.16364796459674835,352.68853759765625,352.7049560546875,3
1778627326.13946915,66345118,0.17613562941551208,0.15400680899620056,0.18623967468738556,0.15805648267269135,352.68853759765625,352.7042236328125,3
1778627326.23942900,66445078,0.18362843990325928,0.15747672319412231,0.19225521385669708,0.16183015704154968,352.6885681152344,352.7043762207031,3
1778627326.33938909,66545038,0.19417844712734222,0.16892009973526,0.20164857804775238,0.17921504378318787,352.6885986328125,352.7036437988281,3
1778627326.43934917,66644998,0.2037675678730011,0.17925326526165009,0.20937316119670868,0.19390617311000824,352.6886291503906,352.6993713378906,3
1778627326.53930902,66744958,0.2134038358926773,0.18787051737308502,0.21575306355953217,0.20457930862903595,352.68865966796875,352.6962890625,3
1778627326.63926911,66844918,0.22060923278331757,0.19228650629520416,0.21869730949401855,0.21288390457630157,352.6886901855469,352.6943664550781,3
1778627326.73922920,66944878,0.2278759628534317,0.19825294613838196,0.219850093126297,0.2182837575674057,352.6886901855469,352.6952209472656,3
1778627326.83918905,67044838,0.23332296311855316,0.21028535068035126,0.21764683723449707,0.21418450772762299,352.688720703125,352.6934814453125,3
1778627326.93998218,67145631,0.23525123298168182,0.21725574135780334,0.21554046869277954,0.20838576555252075,352.688720703125,352.6930847167969,3
1778627327.03994203,67245591,0.2354806512594223,0.22008754312992096,0.212238609790802,0.20656348764896393,352.6886901855469,352.69256591796875,3
1778627327.13990211,67345551,0.23638205230236053,0.22480082511901855,0.20839624106884003,0.1999874711036682,352.6886901855469,352.6932373046875,3
1778627327.23986220,67445511,0.2349192202091217,0.22295300662517548,0.20312535762786865,0.19358029961585999,352.6886901855469,352.6929626464844,3
1778627327.33982205,67545471,0.2312365472316742,0.22156797349452972,0.19830866158008575,0.19045762717723846,352.68865966796875,352.693115234375,3
1778627327.43978214,67645431,0.22259370982646942,0.21581852436065674,0.1927306205034256,0.18154849112033844,352.6886291503906,352.693115234375,3
1778627327.53974199,67745391,0.20954608917236328,0.2020779848098755,0.18889197707176208,0.17671546339988708,352.6885986328125,352.69293212890625,3
1778627327.63970208,67845351,0.19297626614570618,0.18703593313694,0.18437157571315765,0.17608486115932465,352.6885986328125,352.6919250488281,3
1778627327.73966217,67945311,0.17740024626255035,0.17146700620651245,0.1811726987361908,0.17233942449092865,352.6885986328125,352.6905822753906,3
1778627327.83962202,68045271,0.16221113502979279,0.1553547978401184,0.17676953971385956,0.17044232785701752,352.6885681152344,352.6883544921875,3
1778627327.93958211,68145231,0.15039858222007751,0.14340153336524963,0.17325475811958313,0.1681620329618454,352.68853759765625,352.68701171875,3
1778627328.03954220,68245191,0.14087073504924774,0.13827629387378693,0.16853921115398407,0.1613888144493103,352.6885070800781,352.6854248046875,3
1778627328.13950205,68345151,0.13330362737178802,0.12785735726356506,0.16249175369739532,0.15445394814014435,352.6885070800781,352.68438720703125,3
1778627328.23946214,68445111,0.12643545866012573,0.11923648416996002,0.15482454001903534,0.14640295505523682,352.6884765625,352.68359375,3
1778627328.33942199,68545071,0.12217395007610321,0.11704159528017044,0.1482100933790207,0.14132417738437653,352.6884765625,352.6836242675781,3
1778627328.43938208,68645031,0.11971481144428253,0.11545636504888535,0.14243502914905548,0.137527197599411,352.6884460449219,352.6836242675781,3
1778627328.53934216,68744991,0.11796490103006363,0.11328024417161942,0.13824616372585297,0.13554003834724426,352.6884460449219,352.6837463378906,3
1778627328.63930202,68844951,0.11557434499263763,0.10852047055959702,0.13418927788734436,0.13225147128105164,352.6884460449219,352.6838684082031,3
1778627328.73926210,68944911,0.11381446570158005,0.1083880215883255,0.1312846690416336,0.12771767377853394,352.6884460449219,352.68426513671875,3
1778627328.83922219,69044871,0.11301028728485107,0.10548683255910873,0.1295434683561325,0.12501399219036102,352.6884460449219,352.6835021972656,3
1778627328.93918204,69144831,0.1148933544754982,0.10646899789571762,0.12659068405628204,0.1237904354929924,352.6884460449219,352.6824951171875,3
1778627329.03997517,69245624,0.11879858374595642,0.10977943986654282,0.1219078078866005,0.1187048926949501,352.6884460449219,352.6814880371094,3
1778627329.13993502,69345584,0.12136907875537872,0.11895399540662766,0.11858411133289337,0.121549092233181,352.6884460449219,352.6815490722656,3
1778627329.23989511,69445544,0.12396567314863205,0.12707172334194183,0.11274931579828262,0.11928436160087585,352.6884460449219,352.6817626953125,3
1778627329.33985519,69545504,0.12474380433559418,0.12584026157855988,0.1078900694847107,0.11476800590753555,352.68841552734375,352.68218994140625,3
1778627329.43981504,69645464,0.12436937540769577,0.12289399653673172,0.10453517735004425,0.11336779594421387,352.68841552734375,352.682373046875,3
1778627329.53977513,69745424,0.12431937456130981,0.12052688747644424,0.10252450406551361,0.1034988984465599,352.68841552734375,352.6824645996094,3
1778627329.63973498,69845384,0.12459249049425125,0.12300793826580048,0.1018136516213417,0.0983971431851387,352.68841552734375,352.68206787109375,3
1778627329.73969507,69945344,0.12465191632509232,0.11850833892822266,0.10165876895189285,0.09348837286233902,352.68841552734375,352.68157958984375,3
1778627329.83965516,70045304,0.1255894899368286,0.11291825771331787,0.10182423144578934,0.0881408080458641,352.68841552734375,352.681396484375,3
1778627329.93961501,70145264,0.1346895843744278,0.12623144686222076,0.10423987358808517,0.09565799683332443,352.6884460449219,352.680908203125,3
1778627330.03957510,70245224,0.14481143653392792,0.1349770873785019,0.10726124793291092,0.10200005024671555,352.6884460449219,352.68060302734375,3
1778627330.13953519,70345184,0.15345372259616852,0.14284704625606537,0.11004316061735153,0.10125534981489182,352.6884460449219,352.68035888671875,3
1778627330.23949504,70445144,0.1600092500448227,0.15089550614356995,0.11220679432153702,0.10392086952924728,352.6884765625,352.6802978515625,3
1778627330.33945513,70545104,0.16534759104251862,0.16016003489494324,0.11475323140621185,0.10842567682266235,352.6884765625,352.6806945800781,3
1778627330.43941522,70645064,0.16908138990402222,0.169382706284523,0.11761119216680527,0.11146441102027893,352.6884765625,352.6814880371094,3
1778627330.53937507,70745024,0.1714828610420227,0.17695583403110504,0.12147433310747147,0.11664837598800659,352.6885070800781,352.6813659667969,3
1778627330.63933516,70844984,0.17206014692783356,0.17509345710277557,0.12613920867443085,0.12486807256937027,352.6885070800781,352.6806945800781,3
1778627330.73929501,70944944,0.17143788933753967,0.17321540415287018,0.13000011444091797,0.12900426983833313,352.6885070800781,352.68011474609375,3
1778627330.83925509,71044904,0.16860227286815643,0.16719524562358856,0.13302165269851685,0.1328773945569992,352.6885070800781,352.6790771484375,3
1778627330.93921518,71144864,0.16625304520130157,0.16520865261554718,0.13578160107135773,0.13663166761398315,352.6885070800781,352.6787414550781,3
1778627331.03917503,71244824,0.16509802639484406,0.16638794541358948,0.13742665946483612,0.13883182406425476,352.6885070800781,352.67852783203125,3
1778627331.13996816,71345617,0.1646762639284134,0.1518288403749466,0.1380273401737213,0.136053204536438,352.6885070800781,352.67889404296875,3
1778627331.23992801,71445577,0.1634826958179474,0.14796248078346252,0.1373569369316101,0.1370229721069336,352.6885070800781,352.67919921875,3
1778627331.33988810,71545537,0.16146686673164368,0.15266923606395721,0.13595721125602722,0.12735432386398315,352.6885070800781,352.6794738769531,3
1778627331.43984818,71645497,0.16044026613235474,0.1532784104347229,0.13550636172294617,0.12623843550682068,352.6885070800781,352.67919921875,3
1778627331.53980803,71745457,0.15992003679275513,0.1532134711742401,0.13803985714912415,0.12631244957447052,352.6885070800781,352.6766662597656,3
1778627331.63976812,71845417,0.15912437438964844,0.1559341549873352,0.14173032343387604,0.1311323344707489,352.6885070800781,352.67437744140625,3
1778627331.73972821,71945377,0.15879294276237488,0.14908035099506378,0.14589077234268188,0.1373240202665329,352.6885070800781,352.6734619140625,3
1778627331.83968806,72045337,0.1595432609319687,0.14014913141727448,0.15084119141101837,0.14782683551311493,352.6885070800781,352.6734313964844,3
1778627331.93964815,72145297,0.16282889246940613,0.1474907398223877,0.15593302249908447,0.15503443777561188,352.68853759765625,352.6744689941406,3
1778627332.03960800,72245257,0.1665811985731125,0.16280338168144226,0.15962675213813782,0.16754919290542603,352.68853759765625,352.67657470703125,3
1778627332.13956809,72345217,0.16981136798858643,0.16968657076358795,0.16127514839172363,0.17027494311332703,352.68853759765625,352.6784362792969,3
1778627332.23952818,72445177,0.17199240624904633,0.18078504502773285,0.1599498987197876,0.1557302325963974,352.68853759765625,352.6797180175781,3
1778627332.33948803,72545137,0.17483530938625336,0.1822623759508133,0.15925152599811554,0.14613944292068481,352.6885681152344,352.6807556152344,3
1778627332.43944812,72645097,0.17781667411327362,0.18382422626018524,0.16106264293193817,0.1484948992729187,352.6885681152344,352.680908203125,3
1778627332.53940821,72745057,0.18276052176952362,0.1869121491909027,0.16614723205566406,0.1619264930486679,352.6885681152344,352.68133544921875,3
1778627332.63936806,72845017,0.1871301382780075,0.1865476816892624,0.170338436961174,0.1716393679380417,352.6885986328125,352.6824645996094,3
1778627332.73932815,72944977,0.19205868244171143,0.18700869381427765,0.17574471235275269,0.17516519129276276,352.6885986328125,352.6817932128906,3
1778627332.83928800,73044937,0.19596946239471436,0.19255554676055908,0.18100887537002563,0.17672066390514374,352.6886291503906,352.68035888671875,3
1778627332.93924809,73144897,0.19955740869045258,0.19885624945163727,0.18848887085914612,0.18158218264579773,352.6886291503906,352.6776123046875,3
1778627333.03920817,73244857,0.20086140930652618,0.1981007605791092,0.1953248232603073,0.18609946966171265,352.68865966796875,352.6750183105469,3
1778627333.14000106,73345650,0.2037234604358673,0.1970157027244568,0.20299343764781952,0.19214314222335815,352.68865966796875,352.677001953125,3
1778627333.23996115,73445610,0.20733532309532166,0.19506457448005676,0.20917461812496185,0.19810517132282257,352.6886901855469,352.6814880371094,3
1778627333.33992100,73545570,0.21344564855098724,0.19903282821178436,0.21486333012580872,0.20275142788887024,352.688720703125,352.68475341796875,3
1778627333.43988109,73645530,0.2189154475927353,0.2075454443693161,0.21867427229881287,0.20584572851657867,352.688720703125,352.68603515625,3
1778627333.53984118,73745490,0.2251596748828888,0.21201670169830322,0.22433917224407196,0.2125243991613388,352.6887512207031,352.6846923828125,3
1778627333.63980103,73845450,0.22878685593605042,0.2161521166563034,0.22896067798137665,0.2176971733570099,352.6887512207031,352.68023681640625,3
1778627333.73976111,73945410,0.2318972647190094,0.2220221906900406,0.2331341654062271,0.2225324958562851,352.68878173828125,352.67742919921875,3
1778627333.83972120,74045370,0.2343444675207138,0.23128153383731842,0.23645144701004028,0.2259911745786667,352.68878173828125,352.677001953125,3
1778627333.93968105,74145330,0.23605094850063324,0.22940213978290558,0.23903512954711914,0.2268996238708496,352.6888122558594,352.6784362792969,3
1778627334.03964114,74245290,0.23676910996437073,0.22616425156593323,0.24057407677173615,0.2278524786233902,352.6888122558594,352.6833801269531,3
1778627334.13960099,74345250,0.23723329603672028,0.22465232014656067,0.24132905900478363,0.22937193512916565,352.6888122558594,352.687255859375,3
1778627334.23956108,74445210,0.2382095903158188,0.22606076300144196,0.24185965955257416,0.2307508885860443,352.6888122558594,352.6866149902344,3
1778627334.33952117,74545170,0.2380383163690567,0.22486913204193115,0.24260438978672028,0.2321852743625641,352.6888122558594,352.6831970214844,3
1778627334.43948102,74645130,0.23664027452468872,0.22355803847312927,0.24232739210128784,0.22939148545265198,352.6888122558594,352.68017578125,3
1778627334.53944111,74745090,0.23474125564098358,0.2213626652956009,0.2443704903125763,0.2328828126192093,352.6888122558594,352.6802978515625,3
1778627334.63940120,74845050,0.23313197493553162,0.21950234472751617,0.2459764927625656,0.23762226104736328,352.6888122558594,352.68157958984375,3
1778627334.73936105,74945010,0.23514191806316376,0.2217358648777008,0.24757428467273712,0.2362244576215744,352.6888122558594,352.6836242675781,3
1778627334.83932114,75044970,0.2395041435956955,0.2266978621482849,0.2471832036972046,0.23465484380722046,352.6888122558594,352.6827087402344,3
1778627334.93928099,75144930,0.2459755837917328,0.2324790358543396,0.2453772872686386,0.23283761739730835,352.6888122558594,352.6807556152344,3
1778627335.03924108,75244890,0.25004175305366516,0.24136702716350555,0.243283212184906,0.23164275288581848,352.6888122558594,352.6778869628906,3
1778627335.13920116,75344850,0.25277280807495117,0.24835865199565887,0.24088390171527863,0.2295273244380951,352.6888122558594,352.6771240234375,3
1778627335.23999405,75445643,0.25206252932548523,0.25428062677383423,0.23555773496627808,0.2266852706670761,352.6888122558594,352.6796569824219,3
1778627335.33995414,75545603,0.24944716691970825,0.2511312663555145,0.23050302267074585,0.22536928951740265,352.68878173828125,352.6838684082031,3
1778627335.43991399,75645563,0.24334321916103363,0.24224244058132172,0.22339220345020294,0.2245393544435501,352.68878173828125,352.68511962890625,3
1778627335.53987408,75745523,0.237486332654953,0.2305058240890503,0.21696962416172028,0.2231294959783554,352.6887512207031,352.6850280761719,3
1778627335.63983417,75845483,0.23223428428173065,0.22006051242351532,0.2088397741317749,0.21791021525859833,352.688720703125,352.6832275390625,3
1778627335.73979402,75945443,0.2286967784166336,0.21331673860549927,0.20100219547748566,0.2022235095500946,352.6886901855469,352.68048095703125,3
1778627335.83975410,76045403,0.22535748779773712,0.20920595526695251,0.19320769608020782,0.18758273124694824,352.68865966796875,352.6764221191406,3
1778627335.93971419,76145363,0.2226945161819458,0.20839746296405792,0.1875716745853424,0.17863883078098297,352.68865966796875,352.67547607421875,3
1778627336.03967404,76245323,0.22002367675304413,0.20842185616493225,0.1840764433145523,0.17119111120700836,352.68865966796875,352.6785583496094,3
1778627336.13963413,76345283,0.2174961417913437,0.20283478498458862,0.18321703374385834,0.1656513214111328,352.6886291503906,352.6813049316406,3
1778627336.23959398,76445243,0.21399343013763428,0.20315174758434296,0.18404585123062134,0.15867015719413757,352.6886291503906,352.6806335449219,3
1778627336.33955407,76545203,0.21048758924007416,0.2004697024822235,0.18733394145965576,0.1601908802986145,352.6886291503906,352.6781921386719,3
1778627336.43951416,76645163,0.2059302181005478,0.19660530984401703,0.19084523618221283,0.16869039833545685,352.6886291503906,352.6744384765625,3
1778627336.53947401,76745123,0.20212621986865997,0.18866384029388428,0.19311919808387756,0.1768071949481964,352.6886291503906,352.6737060546875,3
1778627336.63943410,76845083,0.19826732575893402,0.18232157826423645,0.19358378648757935,0.18319623172283173,352.6886291503906,352.6766052246094,3
1778627336.73939419,76945043,0.19602744281291962,0.17787742614746094,0.19383397698402405,0.18632836639881134,352.6886291503906,352.6803894042969,3
1778627336.83935404,77045003,0.19477544724941254,0.1803467869758606,0.193450465798378,0.1891363114118576,352.6886291503906,352.68231201171875,3
1778627336.93931413,77144963,0.19383443892002106,0.18149293959140778,0.19245128333568573,0.1909206062555313,352.6886291503906,352.6836242675781,3
1778627337.03927422,77244923,0.19197294116020203,0.1768634170293808,0.18956732749938965,0.19256119430065155,352.6885986328125,352.68267822265625,3
1778627337.13923407,77344883,0.18958531320095062,0.1762738823890686,0.1860629916191101,0.1933351755142212,352.6885986328125,352.68048095703125,3
1778627337.23919415,77444843,0.18448776006698608,0.17176878452301025,0.17964836955070496,0.1873694807291031,352.6885681152344,352.6788024902344,3
1778627337.33998704,77545636,0.17763496935367584,0.16475485265254974,0.17393256723880768,0.17687609791755676,352.6885681152344,352.67816162109375,3
1778627337.43994713,77645596,0.1679006814956665,0.15642355382442474,0.16831225156784058,0.17153885960578918,352.68853759765625,352.6762390136719,3
1778627337.53990722,77745556,0.1580713391304016,0.1466541588306427,0.164883092045784,0.16238531470298767,352.6885070800781,352.6741027832031,3
1778627337.63986707,77845516,0.1477430760860443,0.1414317786693573,0.16147632896900177,0.15680454671382904,352.6885070800781,352.6751708984375,3
1778627337.73982716,77945476,0.1396445631980896,0.13651247322559357,0.16032534837722778,0.15285015106201172,352.6884765625,352.67974853515625,3
1778627337.83978701,78045436,0.13119736313819885,0.12355130910873413,0.1595340520143509,0.14645794034004211,352.6884765625,352.6824645996094,3
1778627337.93974710,78145396,0.1257021129131317,0.11702043563127518,0.1601874679327011,0.1408579796552658,352.6884765625,352.6828918457031,3
1778627338.03970718,78245356,0.122684545814991,0.1124616488814354,0.16085971891880035,0.13632917404174805,352.6884765625,352.68194580078125,3
1778627338.13966703,78345316,0.12036841362714767,0.10803847759962082,0.16629312932491302,0.136219322681427,352.6884765625,352.6820983886719,3
1778627338.23962712,78445276,0.11811789870262146,0.10841924697160721,0.17038212716579437,0.14632493257522583,352.6884765625,352.6817932128906,3
1778627338.33958721,78545236,0.11649657040834427,0.10854234546422958,0.17183613777160645,0.15523068606853485,352.6884765625,352.6800231933594,3
1778627338.43954706,78645196,0.11590732634067535,0.11111564934253693,0.1723645031452179,0.16067539155483246,352.6884765625,352.6788635253906,3
1778627338.53950715,78745156,0.1157737523317337,0.10952483117580414,0.17248432338237762,0.1619158834218979,352.6884765625,352.6785888671875,3
1778627338.63946700,78845116,0.1157737523317337,0.10832560807466507,0.17248432338237762,0.16408847272396088,352.6884765625,352.67950439453125,3
1778627338.73942709,78945076,0.1157737523317337,0.1074041947722435,0.17248432338237762,0.16299213469028473,352.6884765625,352.6806640625,3
1778627338.83938718,79045036,0.1157737523317337,0.10464148223400116,0.17248432338237762,0.16347083449363708,352.6884765625,352.67987060546875,3
1778627338.93934703,79144996,0.1157737523317337,0.10279171168804169,0.17248432338237762,0.16385948657989502,352.6884765625,352.67742919921875,3
1778627339.03930712,79244956,0.11850486695766449,0.10559240728616714,0.16815458238124847,0.16217444837093353,352.6884765625,352.67529296875,3
1778627339.13926721,79344916,0.1257968693971634,0.11101076751947403,0.16300128400325775,0.15661963820457458,352.6884765625,352.677001953125,3
1778627339.23922706,79444876,0.1324838250875473,0.11903002113103867,0.1572624146938324,0.15015564858913422,352.6884765625,352.680908203125,3
1778627339.33918715,79544836,0.1392820030450821,0.12701889872550964,0.1539638191461563,0.14199984073638916,352.6884765625,352.6827392578125,3
1778627339.43998003,79645629,0.14479531347751617,0.13591508567333221,0.1526111513376236,0.13565385341644287,352.6884765625,352.6817321777344,3
1778627339.53994012,79745589,0.14793699979782104,0.14049378037452698,0.15292328596115112,0.13168273866176605,352.6884765625,352.6797180175781,3
1778627339.63990021,79845549,0.1506040245294571,0.149062380194664,0.15509480237960815,0.14101898670196533,352.6885070800781,352.67840576171875,3
1778627339.73986006,79945509,0.1523015946149826,0.14841200411319733,0.15816815197467804,0.14649513363838196,352.6885070800781,352.678955078125,3
1778627339.83982015,80045469,0.15180687606334686,0.15030451118946075,0.15928778052330017,0.159033864736557,352.6885070800781,352.6799621582031,3
1778627339.93978000,80145429,0.15086014568805695,0.14775478839874268,0.15794551372528076,0.16048094630241394,352.6885070800781,352.6799621582031,3
1778627340.03974009,80245389,0.14951124787330627,0.14516814053058624,0.15121015906333923,0.1587143838405609,352.6884765625,352.6772155761719,3
1778627340.13970017,80345349,0.14924079179763794,0.14439083635807037,0.14161744713783264,0.146224707365036,352.6884765625,352.6746826171875,3
1778627340.23966002,80445309,0.14914758503437042,0.1435689926147461,0.13055624067783356,0.13376972079277039,352.6884765625,352.6761474609375,3
1778627340.33962011,80545269,0.14913150668144226,0.141949862241745,0.12161453813314438,0.1231231540441513,352.6884460449219,352.6813659667969,3
1778627340.43958020,80645229,0.14942795038223267,0.1395239681005478,0.11436747014522552,0.1195039302110672,352.6884460449219,352.6835021972656,3
1778627340.53954005,80745189,0.14967405796051025,0.1391003578901291,0.10925772786140442,0.11618899554014206,352.6884460449219,352.6824035644531,3
1778627340.63950014,80845149,0.14996632933616638,0.14093300700187683,0.10547049343585968,0.11374978721141815,352.68841552734375,352.6780700683594,3
1778627340.73945999,80945109,0.15044017136096954,0.14279375970363617,0.10289497673511505,0.10540150851011276,352.68841552734375,352.6746826171875,3
1778627340.83942008,81045069,0.15165302157402039,0.14688190817832947,0.10219983756542206,0.10057812184095383,352.68841552734375,352.67572021484375,3
1778627340.93938017,81145029,0.15165702998638153,0.14266803860664368,0.101675845682621,0.09418638050556183,352.68841552734375,352.678955078125,3
1778627341.03934002,81244989,0.15165723860263824,0.1404757797718048,0.1016470342874527,0.08017369359731674,352.68841552734375,352.6790771484375,3
1778627341.13930011,81344949,0.1509082317352295,0.14328011870384216,0.10805704444646835,0.08523967862129211,352.6884460449219,352.6763610839844,3
1778627341.23926020,81444909,0.1477290391921997,0.14072173833847046,0.11684710532426834,0.09964531660079956,352.6884460449219,352.6716003417969,3
1778627341.33922005,81544869,0.14513246715068817,0.13747508823871613,0.12565837800502777,0.11469408124685287,352.6884460449219,352.66925048828125,3
1778627341.43918014,81644829,0.14288337528705597,0.1369621604681015,0.1323932260274887,0.12262815237045288,352.6884460449219,352.67132568359375,3
1778627341.53997302,81745622,0.14128699898719788,0.13362900912761688,0.13499410450458527,0.1241716593503952,352.6884460449219,352.676025390625,3
1778627341.63993311,81845582,0.13982084393501282,0.13212822377681732,0.13785149157047272,0.12761038541793823,352.6884460449219,352.6772766113281,3
1778627341.73989320,81945542,0.13644956052303314,0.13056932389736176,0.14327171444892883,0.13011953234672546,352.6884765625,352.675048828125,3
1778627341.83985305,82045502,0.13316142559051514,0.12579916417598724,0.14624229073524475,0.1322798728942871,352.6884765625,352.6705017089844,3
1778627341.93981314,82145462,0.12797847390174866,0.12074588984251022,0.1500459611415863,0.13916714489459991,352.6884765625,352.6662902832031,3
1778627342.03977299,82245422,0.12269990146160126,0.10781743377447128,0.15094560384750366,0.14300616085529327,352.6884460449219,352.6658630371094,3
1778627342.13973308,82345382,0.11781418323516846,0.09868018329143524,0.15008129179477692,0.14343009889125824,352.6884460449219,352.6689453125,3
1778627342.23969316,82445342,0.11412160843610764,0.09890226274728775,0.14762094616889954,0.14353607594966888,352.6884460449219,352.674072265625,3
1778627342.33965302,82545302,0.11197918653488159,0.09914154559373856,0.14539070427417755,0.13774771988391876,352.6884460449219,352.676025390625,3
1778627342.43961310,82645262,0.11088138073682785,0.10083390027284622,0.14247848093509674,0.13334079086780548,352.68841552734375,352.6750183105469,3
1778627342.53957319,82745222,0.11144644021987915,0.10165750980377197,0.13867010176181793,0.12966793775558472,352.68841552734375,352.6724548339844,3
1778627342.63953304,82845182,0.11286210268735886,0.10323961824178696,0.1318962275981903,0.12276268005371094,352.68841552734375,352.669677734375,3
1778627342.73949313,82945142,0.1151559054851532,0.09850811958312988,0.1245841234922409,0.11766156554222107,352.68841552734375,352.6689758300781,3
1778627342.83945298,83045102,0.11718704551458359,0.10225249826908112,0.11603625118732452,0.11056621372699738,352.68841552734375,352.6675109863281,3
1778627342.93941307,83145062,0.12019582092761993,0.10969848185777664,0.109000563621521,0.1086747944355011,352.68841552734375,352.66729736328125,3
1778627343.03937316,83245022,0.12213582545518875,0.11798539012670517,0.10211075842380524,0.10145700722932816,352.68841552734375,352.6693115234375,3
1778627343.13933301,83344982,0.12320826947689056,0.12260734289884567,0.0964306965470314,0.09591442346572876,352.6883850097656,352.6741027832031,3
1778627343.23929310,83444942,0.1225997656583786,0.12277086824178696,0.0915088802576065,0.0988936647772789,352.6883850097656,352.6761169433594,3
1778627343.33925319,83544902,0.12161003053188324,0.11801791191101074,0.08836648613214493,0.10111929476261139,352.6883850097656,352.675048828125,3
1778627343.43921304,83644862,0.11993348598480225,0.11633611470460892,0.08520515263080597,0.09819415211677551,352.6883850097656,352.6718444824219,3
1778627343.53917313,83744822,0.11867714673280716,0.11016490310430527,0.08298668265342712,0.09076551347970963,352.6883850097656,352.6687927246094,3
1778627343.63996601,83845615,0.11817769706249237,0.1117740124464035,0.08189713209867477,0.08299638330936432,352.6883850097656,352.66839599609375,3
1778627343.73992610,83945575,0.11823171377182007,0.11604808270931244,0.08189935982227325,0.07909725606441498,352.6883850097656,352.6705322265625,3
1778627343.83988619,84045535,0.11823859810829163,0.11544470489025116,0.08193918317556381,0.07839830964803696,352.6883850097656,352.67474365234375,3
1778627343.93984604,84145495,0.11912918835878372,0.11571789532899857,0.08597110956907272,0.08243740350008011,352.6883850097656,352.67657470703125,3
1778627344.03980613,84245455,0.11925499141216278,0.11395718902349472,0.09065848588943481,0.08602346479892731,352.6883850097656,352.6748046875,3
1778627344.13976622,84345415,0.11987841874361038,0.11318734288215637,0.09595943987369537,0.08878330886363983,352.6883850097656,352.6708679199219,3
1778627344.23972607,84445375,0.12000753730535507,0.11367591470479965,0.10132414847612381,0.09211704134941101,352.6883850097656,352.666259765625,3
1778627344.33968616,84545335,0.12040222436189651,0.1171237975358963,0.10647711902856827,0.10031905025243759,352.68841552734375,352.666259765625,3
1778627344.43964601,84645295,0.12013614922761917,0.11991409212350845,0.11039919406175613,0.10336635261774063,352.68841552734375,352.6699523925781,3
1778627344.53960609,84745255,0.11952546238899231,0.11602430790662766,0.11186948418617249,0.10556293278932571,352.68841552734375,352.67449951171875,3
1778627344.63956618,84845215,0.11803920567035675,0.1133284941315651,0.11419118195772171,0.10957572609186172,352.68841552734375,352.6748046875,3
1778627344.73952603,84945175,0.11733023822307587,0.10908293724060059,0.11524648219347,0.11263839155435562,352.68841552734375,352.67193603515625,3
1778627344.83948612,85045135,0.11707630753517151,0.10728077590465546,0.11562434583902359,0.11391977220773697,352.68841552734375,352.66729736328125,3
1778627344.93944621,85145095,0.11707630753517151,0.10638459771871567,0.11562434583902359,0.1128479391336441,352.68841552734375,352.6658630371094,3
1778627345.03940606,85245055,0.11707630753517151,0.10588197410106659,0.11562434583902359,0.10945606976747513,352.68841552734375,352.668701171875,3
1778627345.13936615,85345015,0.11950237303972244,0.10677464306354523,0.11956752091646194,0.10857110470533371,352.68841552734375,352.6725769042969,3
1778627345.23932600,85444975,0.12156663835048676,0.11233647167682648,0.1237742155790329,0.10675735026597977,352.68841552734375,352.672607421875,3
1778627345.33928609,85544935,0.12267599254846573,0.1140936091542244,0.12709879875183105,0.11070618778467178,352.68841552734375,352.6700439453125,3
1778627345.43924618,85644895,0.12324649840593338,0.10808250308036804,0.13005103170871735,0.11611006408929825,352.6884460449219,352.6673889160156,3
1778627345.53920603,85744855,0.12382354587316513,0.10666100680828094,0.1316998153924942,0.11949319392442703,352.6884460449219,352.66802978515625,3
1778627345.63999915,85845648,0.12477525323629379,0.10917900502681732,0.13172730803489685,0.12275339663028717,352.6884460449219,352.6723327636719,3
1778627345.73995900,85945608,0.12565574049949646,0.11419883370399475,0.1309604048728943,0.12032522261142731,352.6884460449219,352.67529296875,3
1778627345.83991909,86045568,0.1263771951198578,0.11608212441205978,0.13081741333007812,0.11599353700876236,352.6884460449219,352.6741943359375,3
1778627345.93987918,86145528,0.12770074605941772,0.11877855658531189,0.13045918941497803,0.11215223371982574,352.6884460449219,352.6705322265625,3
1778627346.03983903,86245488,0.12818166613578796,0.12635591626167297,0.13032905757427216,0.1131322830915451,352.6884460449219,352.6662902832031,3
1778627346.13979912,86345448,0.12819519639015198,0.1363736242055893,0.13032540678977966,0.11481552571058273,352.6884460449219,352.6664123535156,3
1778627346.23975921,86445408,0.12632547318935394,0.13652916252613068,0.1296580284833908,0.12028393149375916,352.6884460449219,352.6695861816406,3
1778627346.33971906,86545368,0.1206645667552948,0.12587249279022217,0.12857705354690552,0.12128355354070663,352.68841552734375,352.674072265625,3
1778627346.43967915,86645328,0.11422184854745865,0.11336425691843033,0.1259363889694214,0.12137940526008606,352.68841552734375,352.6747741699219,3
1778627346.53963900,86745288,0.10959795862436295,0.1067124456167221,0.12297281622886658,0.12124325335025787,352.68841552734375,352.671875,3
1778627346.63959908,86845248,0.10661043226718903,0.10167478770017624,0.11915414035320282,0.12063578516244888,352.68841552734375,352.667236328125,3
1778627346.73955917,86945208,0.10494115948677063,0.10099971294403076,0.11716954410076141,0.11515074223279953,352.6883850097656,352.666015625,3
1778627346.83951902,87045168,0.10445220023393631,0.10055125504732132,0.11698736995458603,0.11373170465230942,352.6883850097656,352.6687316894531,3
1778627346.93947911,87145128,0.10401685535907745,0.10116405040025711,0.12058590352535248,0.11715067923069,352.68841552734375,352.67340087890625,3
1778627347.03943920,87245088,0.1027250662446022,0.0961468443274498,0.1253044456243515,0.11238650232553482,352.68841552734375,352.6754455566406,3
1778627347.13939905,87345048,0.10192950069904327,0.09475674480199814,0.1304541528224945,0.1116601824760437,352.68841552734375,352.673828125,3
1778627347.23935914,87445008,0.10167022794485092,0.09368862211704254,0.13713371753692627,0.12266764044761658,352.68841552734375,352.6696472167969,3
1778627347.33931899,87544968,0.10231877118349075,0.094056636095047,0.1436842978000641,0.13344880938529968,352.68841552734375,352.66558837890625,3
1778627347.43927908,87644928,0.10309296101331711,0.09435201436281204,0.14791028201580048,0.13915587961673737,352.68841552734375,352.6661071777344,3
1778627347.53923917,87744888,0.10428770631551743,0.09452719986438751,0.15019504725933075,0.1447599083185196,352.68841552734375,352.67022705078125,3
1778627347.63919902,87844848,0.10543186217546463,0.09463013708591461,0.15069937705993652,0.14487440884113312,352.6884460449219,352.6731262207031,3
1778627347.73999214,87945641,0.10626226663589478,0.09564797580242157,0.14956863224506378,0.14433704316616058,352.6884460449219,352.67205810546875,3
1778627347.83995199,88045601,0.10731910169124603,0.0946752205491066,0.14634352922439575,0.14381353557109833,352.68841552734375,352.6683349609375,3
1778627347.93991208,88145561,0.11318428814411163,0.10356178879737854,0.14205795526504517,0.1402565836906433,352.6884460449219,352.6644287109375,3
1778627348.03987217,88245521,0.11861316859722137,0.11173543334007263,0.13708515465259552,0.13467861711978912,352.6884460449219,352.6648254394531,3
1778627348.13983202,88345481,0.12438066303730011,0.11819145083427429,0.1334579586982727,0.13138096034526825,352.6884460449219,352.66900634765625,3
1778627348.23979211,88445441,0.12830407917499542,0.12107918411493301,0.12960240244865417,0.13031090795993805,352.6884460449219,352.6739501953125,3
1778627348.33975220,88545401,0.1310688555240631,0.12304554134607315,0.12717893719673157,0.1318988800048828,352.6884460449219,352.6750793457031,3
1778627348.43971205,88645361,0.13237622380256653,0.12054282426834106,0.1261177957057953,0.13346943259239197,352.6884460449219,352.6722717285156,3
1778627348.53967214,88745321,0.13284680247306824,0.12004972249269485,0.1256115436553955,0.13230611383914948,352.6884460449219,352.6676330566406,3
1778627348.63963199,88845281,0.13447709381580353,0.125003844499588,0.1196385845541954,0.12315497547388077,352.6884460449219,352.6656494140625,3
1778627348.73959208,88945241,0.13882887363433838,0.12901541590690613,0.11255309730768204,0.11330419778823853,352.68841552734375,352.6675720214844,3
1778627348.83955216,89045201,0.14236383140087128,0.13265874981880188,0.10666228830814362,0.103934146463871,352.68841552734375,352.67193603515625,3
1778627348.93951201,89145161,0.14359937608242035,0.13520701229572296,0.10493401437997818,0.10067587345838547,352.68841552734375,352.67620849609375,3
1778627349.03947210,89245121,0.14246755838394165,0.13583259284496307,0.10473735630512238,0.10233511030673981,352.68841552734375,352.6769714355469,3
1778627349.13943219,89345081,0.13961312174797058,0.1298563927412033,0.10640747100114822,0.10340634733438492,352.68841552734375,352.6744689941406,3
1778627349.23939204,89445041,0.1357344686985016,0.12615936994552612,0.10892155766487122,0.10444468259811401,352.68841552734375,352.6697692871094,3
1778627349.33935213,89545001,0.133035808801651,0.12452293187379837,0.1110999584197998,0.1034962460398674,352.68841552734375,352.6681213378906,3
1778627349.43931222,89644961,0.13164377212524414,0.1232779324054718,0.11290039122104645,0.10614673793315887,352.68841552734375,352.67034912109375,3
1778627349.53927207,89744921,0.13075946271419525,0.12258075922727585,0.1146048977971077,0.10564093291759491,352.68841552734375,352.6734619140625,3
1778627349.63923216,89844881,0.130221888422966,0.12010828405618668,0.11558396369218826,0.10610053688287735,352.68841552734375,352.6727294921875,3
1778627349.73919201,89944841,0.12958687543869019,0.11945350468158722,0.11608335375785828,0.10603102296590805,352.68841552734375,352.6711120605469,3
1778627349.83998513,90045634,0.1248328909277916,0.11708778887987137,0.11753490567207336,0.10741983354091644,352.68841552734375,352.6695251464844,3
1778627349.93994498,90145594,0.11932431906461716,0.11119282990694046,0.12166275084018707,0.10938315093517303,352.68841552734375,352.6685485839844,3
1778627350.03990507,90245554,0.11488152295351028,0.10375984013080597,0.12349948287010193,0.10965373367071152,352.68841552734375,352.66790771484375,3
1778627350.13986516,90345514,0.11059717833995819,0.09755261987447739,0.12612979114055634,0.11626046150922775,352.68841552734375,352.6695861816406,3
1778627350.23982501,90445474,0.10891366750001907,0.09457661956548691,0.12804777920246124,0.11531157046556473,352.68841552734375,352.6723327636719,3
1778627350.33978510,90545434,0.10830198228359222,0.09775799512863159,0.12874479591846466,0.11332785338163376,352.68841552734375,352.67291259765625,3
1778627350.43974519,90645394,0.1081291064620018,0.09775371849536896,0.12894175946712494,0.1119450032711029,352.68841552734375,352.66986083984375,3
1778627350.53970504,90745354,0.1081291064620018,0.10086118429899216,0.12894175946712494,0.1119084432721138,352.68841552734375,352.666015625,3
1778627350.63966513,90845314,0.1081291064620018,0.10507793724536896,0.12894175946712494,0.11402922868728638,352.68841552734375,352.6640930175781,3
1778627350.73962522,90945274,0.1081291064620018,0.1082790195941925,0.12894175946712494,0.11591589450836182,352.68841552734375,352.6656188964844,3
1778627350.83958507,91045234,0.1081291064620018,0.11097157001495361,0.12894175946712494,0.1195337176322937,352.68841552734375,352.668701171875,3
1778627350.93954515,91145194,0.1081291064620018,0.10935045778751373,0.12894175946712494,0.12163536250591278,352.68841552734375,352.6698913574219,3
1778627351.03950500,91245154,0.1081291064620018,0.1061355471611023,0.12894175946712494,0.12362463027238846,352.68841552734375,352.667724609375,3
1778627351.13946509,91345114,0.1081291064620018,0.10908552259206772,0.12894175946712494,0.1250019073486328,352.68841552734375,352.6650695800781,3
1778627351.23942518,91445074,0.10648825764656067,0.11148877441883087,0.12542316317558289,0.1202634796500206,352.68841552734375,352.666015625,3
1778627351.33938503,91545034,0.10409600287675858,0.11129608750343323,0.11984588205814362,0.11483150720596313,352.68841552734375,352.66943359375,3
1778627351.43934512,91644994,0.10140319913625717,0.10549426078796387,0.11464732140302658,0.10784179717302322,352.6883850097656,352.67041015625,3
1778627351.53930521,91744954,0.09842140227556229,0.0962151288986206,0.11107274144887924,0.10206644237041473,352.6883850097656,352.66827392578125,3
1778627351.63926506,91844914,0.09415435791015625,0.09613769501447678,0.10818879306316376,0.09852179139852524,352.6883850097656,352.66607666015625,3
1778627351.73922515,91944874,0.08908457309007645,0.09476836025714874,0.1064729243516922,0.09685532003641129,352.6883850097656,352.6678161621094,3
1778627351.83918500,92044834,0.08294176310300827,0.08688400685787201,0.10506264865398407,0.09460145980119705,352.6883544921875,352.67083740234375,3
1778627351.93997812,92145627,0.0776708722114563,0.07523757964372635,0.10475686192512512,0.09604962915182114,352.6883544921875,352.6702575683594,3
1778627352.03993821,92245587,0.07475517690181732,0.06994763016700745,0.10523717850446701,0.09775648266077042,352.6883544921875,352.6658630371094,3
1778627352.13989806,92345547,0.07331647723913193,0.06540217250585556,0.10539907962083817,0.09845946729183197,352.6883544921875,352.66290283203125,3
1778627352.23985815,92445507,0.0727725699543953,0.06445690244436264,0.10546499490737915,0.10095400363206863,352.6883544921875,352.6644287109375,3
1778627352.33981800,92545467,0.07272883504629135,0.06248984485864639,0.10547029227018356,0.10175637900829315,352.6883544921875,352.66900634765625,3
1778627352.43977809,92645427,0.07272883504629135,0.060351401567459106,0.10547029227018356,0.10499566793441772,352.6883544921875,352.6710510253906,3
1778627352.53973818,92745387,0.0757497176527977,0.06363017112016678,0.10589388012886047,0.10939086228609085,352.6883544921875,352.66888427734375,3
1778627352.63969803,92845347,0.08132726699113846,0.06815384328365326,0.10445906966924667,0.10660294443368912,352.6883544921875,352.66448974609375,3
1778627352.73965812,92945307,0.08785316348075867,0.08158441632986069,0.10223653167486191,0.10280948877334595,352.6883850097656,352.66326904296875,3
1778627352.83961821,93045267,0.09252195060253143,0.09258301556110382,0.10032735764980316,0.09634047746658325,352.6883850097656,352.6654052734375,3
1778627352.93957806,93145227,0.09490439295768738,0.09415595978498459,0.09864487498998642,0.09526247531175613,352.6883850097656,352.67010498046875,3
1778627353.03953815,93245187,0.09577014297246933,0.09106698632240295,0.09803346544504166,0.10169752687215805,352.6883850097656,352.67181396484375,3
1778627353.13949800,93345147,0.09604445844888687,0.08890680968761444,0.09783975034952164,0.10653264075517654,352.6883850097656,352.6699523925781,3
1778627353.23945808,93445107,0.09604445844888687,0.08489663153886795,0.09783975034952164,0.10317236185073853,352.6883850097656,352.6658020019531,3
1778627353.33941817,93545067,0.09866581112146378,0.08869083225727081,0.09611425548791885,0.09918612241744995,352.6883850097656,352.6634826660156,3
1778627353.43937802,93645027,0.10296138375997543,0.09342128038406372,0.08988472819328308,0.08790216594934464,352.6883850097656,352.6645202636719,3
1778627353.53933811,93744987,0.10663130134344101,0.09706976264715195,0.08391619473695755,0.07864086329936981,352.6883850097656,352.6685791015625,3
1778627353.63929820,93844947,0.10916425287723541,0.09909221529960632,0.07780402898788452,0.07048798352479935,352.6883544921875,352.67291259765625,3
1778627353.73925805,93944907,0.11159727722406387,0.10368096828460693,0.07427337765693665,0.05659444257616997,352.6883544921875,352.6734924316406,3
1778627353.83921814,94044867,0.1128631979227066,0.10463790595531464,0.0729026198387146,0.04559112340211868,352.6883544921875,352.6707763671875,3
1778627353.93917799,94144827,0.11332317441701889,0.1115107461810112,0.07240454107522964,0.05111659690737724,352.6883544921875,352.6680603027344,3
1778627354.03997111,94245620,0.11336855590343475,0.11711917072534561,0.0725361704826355,0.05732298642396927,352.6883544921875,352.667236328125,3
1778627354.13993120,94345580,0.11202332377433777,0.12160468101501465,0.07949157804250717,0.06568074226379395,352.6883544921875,352.66943359375,3
1778627354.23989105,94445540,0.10724600404500961,0.11224334686994553,0.08608133345842361,0.07433224469423294,352.6883850097656,352.6708068847656,3
1778627354.33985114,94545500,0.1036623865365982,0.10213717818260193,0.08926090598106384,0.08141347020864487,352.6883850097656,352.6699523925781,3
1778627354.43981099,94645460,0.10047823935747147,0.090176060795784,0.09055742621421814,0.08745893090963364,352.6883850097656,352.6680603027344,3
1778627354.53977108,94745420,0.09826908260583878,0.08460056036710739,0.09168106317520142,0.08981858938932419,352.6883850097656,352.666748046875,3
1778627354.63973117,94845380,0.09740771353244781,0.0801122635602951,0.09219665080308914,0.09155351668596268,352.6883850097656,352.6684265136719,3
1778627354.73969102,94945340,0.0971461683511734,0.08034715801477432,0.09235319495201111,0.0907224714756012,352.6883850097656,352.6704406738281,3
1778627354.83965111,95045300,0.0971461683511734,0.08402756601572037,0.09235319495201111,0.0898803323507309,352.6883850097656,352.66876220703125,3
1778627354.93961120,95145260,0.0976073294878006,0.07953446358442307,0.09249438345432281,0.08911611884832382,352.6883850097656,352.665771484375,3
1778627355.03957105,95245220,0.09778740257024765,0.08226928859949112,0.09254933148622513,0.08972052484750748,352.6883850097656,352.6640319824219,3
