timestamp,TimeUS,I,Alt,AltAMSL,Press,Temp,CRt,SMS,Offset,GndTemp,H,CPress,TimeSec,AttackActive_BARO,Alt_attacked,SoftwareSensor_Alt,Residual_Alt,DetectionFlag_Alt,Recovered_Alt
1778782973.160016,52344054,0,0.00372314453125,584.0936889648438,94502.828125,30.12,0.0,52344,0.0,28.02182960510254,1,94502.828125,0.0,0,0.00372314453125,0.00372314453125,0.0,0,0.00372314453125
1778782973.160016,52344054,1,-0.22869873046875,583.8612670898438,94504.1953125,30.12,0.0,52344,0.0,28.02182960510254,1,94504.1953125,0.0,0,-0.22869873046875,-0.22869873046875,0.0,0,-0.22869873046875
1778782973.2608092,52444847,0,0.00372314453125,584.0936889648438,94502.828125,30.12,0.0,52444,0.0,28.02182960510254,1,94502.828125,0.100793,0,0.00372314453125,0.00372314453125,0.0,0,0.00372314453125
1778782973.2608092,52444847,1,-0.21942138671875,583.8705444335938,94504.0859375,30.12,0.0,52444,0.0,28.02182960510254,1,94504.0859375,0.100793,0,-0.21942138671875,-0.21942138671875,0.0,0,-0.21942138671875
1778782973.360769,52544807,0,0.00372314453125,584.0936889648438,94502.828125,30.13,0.0,52544,0.0,28.02182960510254,1,94502.828125,0.200753,0,0.00372314453125,0.00372314453125,0.0,0,0.00372314453125
1778782973.360769,52544807,1,-0.17547607421875,583.9144897460938,94503.59375,30.13,0.0,52544,0.0,28.02182960510254,1,94503.59375,0.200753,0,-0.17547607421875,-0.17547607421875,0.0,0,-0.17547607421875
1778782973.4607291,52644767,0,0.00372314453125,584.0936889648438,94502.828125,30.13,0.0,52644,0.0,28.02182960510254,1,94502.828125,0.300713,0,0.00372314453125,0.00372314453125,0.0,0,0.00372314453125
1778782973.4607291,52644767,1,-0.23455810546875,583.8554077148438,94504.2578125,30.13,0.0,52644,0.0,28.02182960510254,1,94504.2578125,0.300713,0,-0.23455810546875,-0.23455810546875,0.0,0,-0.23455810546875
1778782973.5606887,52744727,0,0.00372314453125,584.0936889648438,94502.828125,30.13,0.0,52744,0.0,28.02182960510254,1,94502.828125,0.400673,0,0.00372314453125,0.00372314453125,0.0,0,0.00372314453125
1778782973.5606887,52744727,1,-0.24627685546875,583.8436889648438,94504.3984375,30.14,0.0,52744,0.0,28.02182960510254,1,94504.3984375,0.400673,0,-0.24627685546875,-0.24627685546875,0.0,0,-0.24627685546875
1778782973.660649,52844687,0,0.00372314453125,584.0936889648438,94502.828125,30.14,0.0,52844,0.0,28.02182960510254,1,94502.828125,0.500633,0,0.00372314453125,0.00372314453125,0.0,0,0.00372314453125
1778782973.660649,52844687,1,-0.23748779296875,583.8524780273438,94504.2890625,30.14,0.0,52844,0.0,28.02182960510254,1,94504.2890625,0.500633,0,-0.23748779296875,-0.23748779296875,0.0,0,-0.23748779296875
1778782973.7606091,52944647,0,0.00372314453125,584.0936889648438,94502.828125,30.14,0.0,52944,0.0,28.02182960510254,1,94502.828125,0.600593,0,0.00372314453125,0.00372314453125,0.0,0,0.00372314453125
1778782973.7606091,52944647,1,-0.22869873046875,583.8612670898438,94504.1953125,30.14,0.0,52944,0.0,28.02182960510254,1,94504.1953125,0.600593,0,-0.22869873046875,-0.22869873046875,0.0,0,-0.22869873046875
1778782973.860569,53044607,0,0.00372314453125,584.0936889648438,94502.828125,30.14,0.0,53044,0.0,28.02182960510254,1,94502.828125,0.700553,0,0.00372314453125,0.00372314453125,0.0,0,0.00372314453125
1778782973.860569,53044607,1,-0.24334716796875,583.8466186523438,94504.359375,30.15,0.0,53044,0.0,28.02182960510254,1,94504.359375,0.700553,0,-0.24334716796875,-0.24334716796875,0.0,0,-0.24334716796875
1778782973.960529,53144567,0,0.00372314453125,584.0936889648438,94502.828125,30.15,0.0,53144,0.0,28.02182960510254,1,94502.828125,0.800513,0,0.00372314453125,0.00372314453125,0.0,0,0.00372314453125
1778782973.960529,53144567,1,-0.14031982421875,583.9496459960938,94503.1875,30.15,0.0,53144,0.0,28.02182960510254,1,94503.1875,0.800513,0,-0.14031982421875,-0.14031982421875,0.0,0,-0.14031982421875
1778782974.0604892,53244527,0,0.00372314453125,584.0936889648438,94502.828125,30.15,0.0,53244,0.0,28.02182960510254,1,94502.828125,0.900473,0,0.00372314453125,0.00372314453125,0.0,0,0.00372314453125
1778782974.0604892,53244527,1,-0.19012451171875,583.8998413085938,94503.7578125,30.15,0.0,53244,0.0,28.02182960510254,1,94503.7578125,0.900473,0,-0.19012451171875,-0.19012451171875,0.0,0,-0.19012451171875
1778782974.160449,53344487,0,0.00372314453125,584.0936889648438,94502.828125,30.16,0.0,53344,0.0,28.02182960510254,1,94502.828125,1.000433,0,0.00372314453125,0.00372314453125,0.0,0,0.00372314453125
1778782974.160449,53344487,1,-0.03143310546875,584.0585327148438,94501.9609375,30.16,0.0,53344,0.0,28.02182960510254,1,94501.9609375,1.000433,0,-0.03143310546875,-0.03143310546875,0.0,0,-0.03143310546875
1778782974.260409,53444447,0,0.00372314453125,584.0936889648438,94502.828125,30.16,0.0,53444,0.0,28.02182960510254,1,94502.828125,1.100393,0,0.00372314453125,0.00372314453125,0.0,0,0.00372314453125
1778782974.260409,53444447,1,-0.11688232421875,583.9730834960938,94502.921875,30.16,0.0,53444,0.0,28.02182960510254,1,94502.921875,1.100393,0,-0.11688232421875,-0.11688232421875,0.0,0,-0.11688232421875
1778782974.3603687,53544407,0,0.00372314453125,584.0936889648438,94502.828125,30.16,0.0,53544,0.0,28.02182960510254,1,94502.828125,1.200353,0,0.00372314453125,0.00372314453125,0.0,0,0.00372314453125
1778782974.3603687,53544407,1,0.08038330078125,584.1703491210938,94500.6875,30.16,0.0,53544,0.0,28.02182960510254,1,94500.6875,1.200353,0,0.08038330078125,0.08038330078125,0.0,0,0.08038330078125
1778782974.460329,53644367,0,0.00372314453125,584.0936889648438,94502.828125,30.17,0.0,53644,0.0,28.02182960510254,1,94502.828125,1.300313,0,0.00372314453125,0.00372314453125,0.0,0,0.00372314453125
1778782974.460329,53644367,1,-0.03729248046875,584.0526733398438,94502.0234375,30.17,0.0,53644,0.0,28.02182960510254,1,94502.0234375,1.300313,0,-0.03729248046875,-0.03729248046875,0.0,0,-0.03729248046875
1778782974.5602891,53744327,0,0.00372314453125,584.0936889648438,94502.828125,30.17,0.0,53744,0.0,28.02182960510254,1,94502.828125,1.400273,0,0.00372314453125,0.00372314453125,0.0,0,0.00372314453125
1778782974.5602891,53744327,1,-0.25799560546875,583.8319702148438,94504.5234375,30.17,0.0,53744,0.0,28.02182960510254,1,94504.5234375,1.400273,0,-0.25799560546875,-0.25799560546875,0.0,0,-0.25799560546875
1778782974.6602488,53844287,0,0.00372314453125,584.0936889648438,94502.828125,30.17,0.0,53844,0.0,28.02182960510254,1,94502.828125,1.500233,0,0.00372314453125,0.00372314453125,0.0,0,0.00372314453125
1778782974.6602488,53844287,1,-0.06951904296875,584.0204467773438,94502.390625,30.17,0.0,53844,0.0,28.02182960510254,1,94502.390625,1.500233,0,-0.06951904296875,-0.06951904296875,0.0,0,-0.06951904296875
1778782974.760209,53944247,0,0.00372314453125,584.0936889648438,94502.828125,30.18,0.0,53944,0.0,28.02182960510254,1,94502.828125,1.600193,0,0.00372314453125,0.00372314453125,0.0,0,0.00372314453125
1778782974.760209,53944247,1,-0.29022216796875,583.7997436523438,94504.890625,30.18,0.0,53944,0.0,28.02182960510254,1,94504.890625,1.600193,0,-0.29022216796875,-0.29022216796875,0.0,0,-0.29022216796875
1778782974.8601692,54044207,0,0.00372314453125,584.0936889648438,94502.828125,30.18,0.0,54044,0.0,28.02182960510254,1,94502.828125,1.700153,0,0.00372314453125,0.00372314453125,0.0,0,0.00372314453125
1778782974.8601692,54044207,1,0.02130126953125,584.1112670898438,94501.3515625,30.18,0.0,54044,0.0,28.02182960510254,1,94501.3515625,1.700153,0,0.02130126953125,0.02130126953125,0.0,0,0.02130126953125
1778782974.960129,54144167,0,0.00372314453125,584.0936889648438,94502.828125,30.18,0.0,54144,0.0,28.02182960510254,1,94502.828125,1.800113,0,0.00372314453125,0.00372314453125,0.0,0,0.00372314453125
1778782974.960129,54144167,1,0.04766845703125,584.1376342773438,94501.0625,30.18,0.0,54144,0.0,28.02182960510254,1,94501.0625,1.800113,0,0.04766845703125,0.04766845703125,0.0,0,0.04766845703125
1778782975.060089,54244127,0,0.00372314453125,584.0936889648438,94502.828125,30.19,0.0,54244,0.0,28.02182960510254,1,94502.828125,1.900073,0,0.00372314453125,0.00372314453125,0.0,0,0.00372314453125
1778782975.060089,54244127,1,0.08038330078125,584.1703491210938,94500.6875,30.19,0.0,54244,0.0,28.02182960510254,1,94500.6875,1.900073,0,0.08038330078125,0.08038330078125,0.0,0,0.08038330078125
1778782975.1600487,54344087,0,0.00372314453125,584.0936889648438,94502.828125,30.19,0.0,54344,0.0,28.02182960510254,1,94502.828125,2.000033,0,0.00372314453125,0.00372314453125,0.0,0,0.00372314453125
1778782975.1600487,54344087,1,0.00665283203125,584.0966186523438,94501.5234375,30.19,0.0,54344,0.0,28.02182960510254,1,94501.5234375,2.000033,0,0.00665283203125,0.00665283203125,0.0,0,0.00665283203125
1778782975.260009,54444047,0,0.00372314453125,584.0936889648438,94502.828125,30.19,0.0,54444,0.0,28.02182960510254,1,94502.828125,2.099993,0,0.00372314453125,0.00372314453125,0.0,0,0.00372314453125
1778782975.260009,54444047,1,-0.24334716796875,583.8466186523438,94504.359375,30.19,0.0,54444,0.0,28.02182960510254,1,94504.359375,2.099993,0,-0.24334716796875,-0.24334716796875,0.0,0,-0.24334716796875
1778782975.360802,54544840,0,0.00372314453125,584.0936889648438,94502.828125,30.2,0.0,54544,0.0,28.02182960510254,1,94502.828125,2.200786,0,0.00372314453125,0.00372314453125,0.0,0,0.00372314453125
1778782975.360802,54544840,1,-0.04022216796875,584.0497436523438,94502.0546875,30.2,0.0,54544,0.0,28.02182960510254,1,94502.0546875,2.200786,0,-0.04022216796875,-0.04022216796875,0.0,0,-0.04022216796875
1778782975.460762,54644800,0,0.00372314453125,584.0936889648438,94502.828125,30.2,0.0,54644,0.0,28.02182960510254,1,94502.828125,2.300746,0,0.00372314453125,0.00372314453125,0.0,0,0.00372314453125
1778782975.460762,54644800,1,0.0540771484375,584.14404296875,94500.984375,30.2,0.0,54644,0.0,28.02182960510254,1,94500.984375,2.300746,0,0.0540771484375,0.0540771484375,0.0,0,0.0540771484375
1778782975.560722,54744760,0,0.00372314453125,584.0936889648438,94502.828125,30.2,0.0,54744,0.0,28.02182960510254,1,94502.828125,2.400706,0,0.00372314453125,0.00372314453125,0.0,0,0.00372314453125
1778782975.560722,54744760,1,-0.29022216796875,583.7997436523438,94504.890625,30.2,0.0,54744,0.0,28.02182960510254,1,94504.890625,2.400706,0,-0.29022216796875,-0.29022216796875,0.0,0,-0.29022216796875
1778782975.660682,54844720,0,0.00372314453125,584.0936889648438,94502.828125,30.21,0.0,54844,0.0,28.02182960510254,1,94502.828125,2.500666,0,0.00372314453125,0.00372314453125,0.0,0,0.00372314453125
1778782975.660682,54844720,1,0.02130126953125,584.1112670898438,94501.3515625,30.21,0.0,54844,0.0,28.02182960510254,1,94501.3515625,2.500666,0,0.02130126953125,0.02130126953125,0.0,0,0.02130126953125
1778782975.760642,54944680,0,0.00372314453125,584.0936889648438,94502.828125,30.21,0.0,54944,0.0,28.02182960510254,1,94502.828125,2.600626,0,0.00372314453125,0.00372314453125,0.0,0,0.00372314453125
1778782975.760642,54944680,1,0.05694580078125,584.1469116210938,94500.953125,30.21,0.0,54944,0.0,28.02182960510254,1,94500.953125,2.600626,0,0.05694580078125,0.05694580078125,0.0,0,0.05694580078125
1778782975.860602,55044640,0,0.00372314453125,584.0936889648438,94502.828125,30.21,0.0,55044,0.0,28.02182960510254,1,94502.828125,2.700586,0,0.00372314453125,0.00372314453125,0.0,0,0.00372314453125
1778782975.860602,55044640,1,-0.11102294921875,583.9789428710938,94502.859375,30.21,0.0,55044,0.0,28.02182960510254,1,94502.859375,2.700586,0,-0.11102294921875,-0.11102294921875,0.0,0,-0.11102294921875
1778782975.960562,55144600,0,0.00372314453125,584.0936889648438,94502.828125,30.22,0.0,55144,0.0,28.02182960510254,1,94502.828125,2.800546,0,0.00372314453125,0.00372314453125,0.0,0,0.00372314453125
1778782975.960562,55144600,1,-0.08758544921875,584.0023803710938,94502.59375,30.22,0.0,55144,0.0,28.02182960510254,1,94502.59375,2.800546,0,-0.08758544921875,-0.08758544921875,0.0,0,-0.08758544921875
1778782976.060522,55244560,0,0.00372314453125,584.0936889648438,94502.828125,30.22,0.0,55244,0.0,28.02182960510254,1,94502.828125,2.900506,0,0.00372314453125,0.00372314453125,0.0,0,0.00372314453125
1778782976.060522,55244560,1,-0.22283935546875,583.8671264648438,94504.1328125,30.22,0.0,55244,0.0,28.02182960510254,1,94504.1328125,2.900506,0,-0.22283935546875,-0.22283935546875,0.0,0,-0.22283935546875
1778782976.160482,55344520,0,0.00372314453125,584.0936889648438,94502.828125,30.22,0.0,55344,0.0,28.02182960510254,1,94502.828125,3.000466,0,0.00372314453125,0.00372314453125,0.0,0,0.00372314453125
1778782976.160482,55344520,1,-0.25213623046875,583.8378295898438,94504.4609375,30.22,0.0,55344,0.0,28.02182960510254,1,94504.4609375,3.000466,0,-0.25213623046875,-0.25213623046875,0.0,0,-0.25213623046875
1778782976.260442,55444480,0,0.00372314453125,584.0936889648438,94502.828125,30.23,0.0,55444,0.0,28.02182960510254,1,94502.828125,3.100426,0,0.00372314453125,0.00372314453125,0.0,0,0.00372314453125
1778782976.260442,55444480,1,-0.10809326171875,583.9818725585938,94502.828125,30.23,0.0,55444,0.0,28.02182960510254,1,94502.828125,3.100426,0,-0.10809326171875,-0.10809326171875,0.0,0,-0.10809326171875
1778782976.360402,55544440,0,0.00372314453125,584.0936889648438,94502.828125,30.23,0.0,55544,0.0,28.02182960510254,1,94502.828125,3.200386,0,0.00372314453125,0.00372314453125,0.0,0,0.00372314453125
1778782976.360402,55544440,1,0.0628662109375,584.15283203125,94500.890625,30.23,0.0,55544,0.0,28.02182960510254,1,94500.890625,3.200386,0,0.0628662109375,0.0628662109375,0.0,0,0.0628662109375
1778782976.460362,55644400,0,0.00372314453125,584.0936889648438,94502.828125,30.23,0.0,55644,0.0,28.02182960510254,1,94502.828125,3.300346,0,0.00372314453125,0.00372314453125,0.0,0,0.00372314453125
1778782976.460362,55644400,1,-0.21356201171875,583.8764038085938,94504.0234375,30.23,0.0,55644,0.0,28.02182960510254,1,94504.0234375,3.300346,0,-0.21356201171875,-0.21356201171875,0.0,0,-0.21356201171875
1778782976.560322,55744360,0,0.00372314453125,584.0936889648438,94502.828125,30.24,0.0,55744,0.0,28.02182960510254,1,94502.828125,3.400306,0,0.00372314453125,0.00372314453125,0.0,0,0.00372314453125
1778782976.560322,55744360,1,-0.28143310546875,583.8085327148438,94504.796875,30.24,0.0,55744,0.0,28.02182960510254,1,94504.796875,3.400306,0,-0.28143310546875,-0.28143310546875,0.0,0,-0.28143310546875
1778782976.660282,55844320,0,0.00372314453125,584.0936889648438,94502.828125,30.24,0.0,55844,0.0,28.02182960510254,1,94502.828125,3.500266,0,0.00372314453125,0.00372314453125,0.0,0,0.00372314453125
1778782976.660282,55844320,1,0.04766845703125,584.1376342773438,94501.0625,30.24,0.0,55844,0.0,28.02182960510254,1,94501.0625,3.500266,0,0.04766845703125,0.04766845703125,0.0,0,0.04766845703125
1778782976.760242,55944280,0,0.00372314453125,584.0936889648438,94502.828125,30.24,0.0,55944,0.0,28.02182960510254,1,94502.828125,3.600226,0,0.00372314453125,0.00372314453125,0.0,0,0.00372314453125
1778782976.760242,55944280,1,-0.02264404296875,584.0673217773438,94501.8515625,30.24,0.0,55944,0.0,28.02182960510254,1,94501.8515625,3.600226,0,-0.02264404296875,-0.02264404296875,0.0,0,-0.02264404296875
1778782976.860202,56044240,0,0.00372314453125,584.0936889648438,94502.828125,30.25,0.0,56044,0.0,28.02182960510254,1,94502.828125,3.700186,0,0.00372314453125,0.00372314453125,0.0,0,0.00372314453125
1778782976.860202,56044240,1,-0.04608154296875,584.0438842773438,94502.125,30.25,0.0,56044,0.0,28.02182960510254,1,94502.125,3.700186,0,-0.04608154296875,-0.04608154296875,0.0,0,-0.04608154296875
1778782976.960162,56144200,0,0.00372314453125,584.0936889648438,94502.828125,30.25,0.0,56144,0.0,28.02182960510254,1,94502.828125,3.800146,0,0.00372314453125,0.00372314453125,0.0,0,0.00372314453125
1778782976.960162,56144200,1,-0.03143310546875,584.0585327148438,94501.9609375,30.25,0.0,56144,0.0,28.02182960510254,1,94501.9609375,3.800146,0,-0.03143310546875,-0.03143310546875,0.0,0,-0.03143310546875
1778782977.060122,56244160,0,0.00372314453125,584.0936889648438,94502.828125,30.25,0.0,56244,0.0,28.02182960510254,1,94502.828125,3.900106,0,0.00372314453125,0.00372314453125,0.0,0,0.00372314453125
1778782977.060122,56244160,1,0.0628662109375,584.15283203125,94500.890625,30.25,0.0,56244,0.0,28.02182960510254,1,94500.890625,3.900106,0,0.0628662109375,0.0628662109375,0.0,0,0.0628662109375
1778782977.160082,56344120,0,0.00372314453125,584.0936889648438,94502.828125,30.26,0.0,56344,0.0,28.02182960510254,1,94502.828125,4.000066,0,0.00372314453125,0.00372314453125,0.0,0,0.00372314453125
1778782977.160082,56344120,1,0.0155029296875,584.10546875,94501.421875,30.25,0.0,56344,0.0,28.02182960510254,1,94501.421875,4.000066,0,0.0155029296875,0.0155029296875,0.0,0,0.0155029296875
1778782977.260042,56444080,0,0.00372314453125,584.0936889648438,94502.828125,30.26,0.0,56444,0.0,28.02182960510254,1,94502.828125,4.100026,0,0.00372314453125,0.00372314453125,0.0,0,0.00372314453125
1778782977.260042,56444080,1,-0.22283935546875,583.8671264648438,94504.1328125,30.26,0.0,56444,0.0,28.02182960510254,1,94504.1328125,4.100026,0,-0.22283935546875,-0.22283935546875,0.0,0,-0.22283935546875
1778782977.360002,56544040,0,0.00372314453125,584.0936889648438,94502.828125,30.26,0.0,56544,0.0,28.02182960510254,1,94502.828125,4.199986,0,0.00372314453125,0.00372314453125,0.0,0,0.00372314453125
1778782977.360002,56544040,1,0.0389404296875,584.12890625,94501.15625,30.26,0.0,56544,0.0,28.02182960510254,1,94501.15625,4.199986,0,0.0389404296875,0.0389404296875,0.0,0,0.0389404296875
1778782977.4607952,56644833,0,0.00372314453125,584.0936889648438,94502.828125,30.26,0.0,56644,0.0,28.02182960510254,1,94502.828125,4.300779,0,0.00372314453125,0.00372314453125,0.0,0,0.00372314453125
1778782977.4607952,56644833,1,-0.23455810546875,583.8554077148438,94504.2578125,30.27,0.0,56644,0.0,28.02182960510254,1,94504.2578125,4.300779,0,-0.23455810546875,-0.23455810546875,0.0,0,-0.23455810546875
1778782977.560755,56744793,0,0.00372314453125,584.0936889648438,94502.828125,30.27,0.0,56744,0.0,28.02182960510254,1,94502.828125,4.400739,0,0.00372314453125,0.00372314453125,0.0,0,0.00372314453125
1778782977.560755,56744793,1,0.02130126953125,584.1112670898438,94501.3515625,30.27,0.0,56744,0.0,28.02182960510254,1,94501.3515625,4.400739,0,0.02130126953125,0.02130126953125,0.0,0,0.02130126953125
1778782977.660715,56844753,0,0.00372314453125,584.0936889648438,94502.828125,30.27,0.0,56844,0.0,28.02182960510254,1,94502.828125,4.500699,0,0.00372314453125,0.00372314453125,0.0,0,0.00372314453125
1778782977.660715,56844753,1,-0.02264404296875,584.0673217773438,94501.8515625,30.27,0.0,56844,0.0,28.02182960510254,1,94501.8515625,4.500699,0,-0.02264404296875,-0.02264404296875,0.0,0,-0.02264404296875
1778782977.7606752,56944713,0,0.00372314453125,584.0936889648438,94502.828125,30.27,0.0,56944,0.0,28.02182960510254,1,94502.828125,4.600659,0,0.00372314453125,0.00372314453125,0.0,0,0.00372314453125
1778782977.7606752,56944713,1,-0.21063232421875,583.8793334960938,94503.9921875,30.27,0.0,56944,0.0,28.02182960510254,1,94503.9921875,4.600659,0,-0.21063232421875,-0.21063232421875,0.0,0,-0.21063232421875
1778782977.860635,57044673,0,0.00372314453125,584.0936889648438,94502.828125,30.28,0.0,57044,0.0,28.02182960510254,1,94502.828125,4.700619,0,0.00372314453125,0.00372314453125,0.0,0,0.00372314453125
1778782977.860635,57044673,1,-0.28436279296875,583.8056030273438,94504.828125,30.28,0.0,57044,0.0,28.02182960510254,1,94504.828125,4.700619,0,-0.28436279296875,-0.28436279296875,0.0,0,-0.28436279296875
1778782977.9605951,57144633,0,0.00372314453125,584.0936889648438,94502.828125,30.28,0.0,57144,0.0,28.02182960510254,1,94502.828125,4.800579,0,0.00372314453125,0.00372314453125,0.0,0,0.00372314453125
1778782977.9605951,57144633,1,-0.21063232421875,583.8793334960938,94503.9921875,30.28,0.0,57144,0.0,28.02182960510254,1,94503.9921875,4.800579,0,-0.21063232421875,-0.21063232421875,0.0,0,-0.21063232421875
1778782978.0605547,57244593,0,0.00372314453125,584.0936889648438,94502.828125,30.28,0.0,57244,0.0,28.02182960510254,1,94502.828125,4.900539,0,0.00372314453125,0.00372314453125,0.0,0,0.00372314453125
1778782978.0605547,57244593,1,-0.00213623046875,584.0878295898438,94501.6171875,30.28,0.0,57244,0.0,28.02182960510254,1,94501.6171875,4.900539,0,-0.00213623046875,-0.00213623046875,0.0,0,-0.00213623046875
1778782978.160515,57344553,0,0.00372314453125,584.0936889648438,94502.828125,30.29,0.0,57344,0.0,28.02182960510254,1,94502.828125,5.000499,0,0.00372314453125,0.00372314453125,0.0,0,0.00372314453125
1778782978.160515,57344553,1,0.07159423828125,584.1615600585938,94500.78125,30.29,0.0,57344,0.0,28.02182960510254,1,94500.78125,5.000499,0,0.07159423828125,0.07159423828125,0.0,0,0.07159423828125
1778782978.2604752,57444513,0,0.00372314453125,584.0936889648438,94502.828125,30.29,0.0,57444,0.0,28.02182960510254,1,94502.828125,5.100459,0,0.00372314453125,0.00372314453125,0.0,0,0.00372314453125
1778782978.2604752,57444513,1,-0.25213623046875,583.8378295898438,94504.4609375,30.29,0.0,57444,0.0,28.02182960510254,1,94504.4609375,5.100459,0,-0.25213623046875,-0.25213623046875,0.0,0,-0.25213623046875
1778782978.360435,57544473,0,0.00372314453125,584.0936889648438,94502.828125,30.29,0.0,57544,0.0,28.02182960510254,1,94502.828125,5.200419,0,0.00372314453125,0.00372314453125,0.0,0,0.00372314453125
1778782978.360435,57544473,1,0.07159423828125,584.1615600585938,94500.78125,30.29,0.0,57544,0.0,28.02182960510254,1,94500.78125,5.200419,0,0.07159423828125,0.07159423828125,0.0,0,0.07159423828125
1778782978.460395,57644433,0,0.00372314453125,584.0936889648438,94502.828125,30.3,0.0,57644,0.0,28.02182960510254,1,94502.828125,5.300379,0,0.00372314453125,0.00372314453125,0.0,0,0.00372314453125
1778782978.460395,57644433,1,-0.14324951171875,583.9467163085938,94503.2265625,30.3,0.0,57644,0.0,28.02182960510254,1,94503.2265625,5.300379,0,-0.14324951171875,-0.14324951171875,0.0,0,-0.14324951171875
1778782978.5603552,57744393,0,0.00372314453125,584.0936889648438,94502.828125,30.3,0.0,57744,0.0,28.02182960510254,1,94502.828125,5.400339,0,0.00372314453125,0.00372314453125,0.0,0,0.00372314453125
1778782978.5603552,57744393,1,0.00665283203125,584.0966186523438,94501.5234375,30.3,0.0,57744,0.0,28.02182960510254,1,94501.5234375,5.400339,0,0.00665283203125,0.00665283203125,0.0,0,0.00665283203125
1778782978.660315,57844353,0,0.00372314453125,584.0936889648438,94502.828125,30.3,0.0,57844,0.0,28.02182960510254,1,94502.828125,5.500299,0,0.00372314453125,0.00372314453125,0.0,0,0.00372314453125
1778782978.660315,57844353,1,-0.21356201171875,583.8764038085938,94504.0234375,30.3,0.0,57844,0.0,28.02182960510254,1,94504.0234375,5.500299,0,-0.21356201171875,-0.21356201171875,0.0,0,-0.21356201171875
1778782978.7602751,57944313,0,0.00372314453125,584.0936889648438,94502.828125,30.3,0.0,57944,0.0,28.02182960510254,1,94502.828125,5.600259,0,0.00372314453125,0.00372314453125,0.0,0,0.00372314453125
1778782978.7602751,57944313,1,-0.04608154296875,584.0438842773438,94502.125,30.3,0.0,57944,0.0,28.02182960510254,1,94502.125,5.600259,0,-0.04608154296875,-0.04608154296875,0.0,0,-0.04608154296875
1778782978.8602347,58044273,0,0.00372314453125,584.0936889648438,94502.828125,30.31,0.0,58044,0.0,28.02182960510254,1,94502.828125,5.700219,0,0.00372314453125,0.00372314453125,0.0,0,0.00372314453125
1778782978.8602347,58044273,1,-0.14910888671875,583.9408569335938,94503.296875,30.31,0.0,58044,0.0,28.02182960510254,1,94503.296875,5.700219,0,-0.14910888671875,-0.14910888671875,0.0,0,-0.14910888671875
1778782978.960195,58144233,0,0.00372314453125,584.0936889648438,94502.828125,30.31,0.0,58144,0.0,28.02182960510254,1,94502.828125,5.800179,0,0.00372314453125,0.00372314453125,0.0,0,0.00372314453125
1778782978.960195,58144233,1,0.07745361328125,584.1674194335938,94500.71875,30.31,0.0,58144,0.0,28.02182960510254,1,94500.71875,5.800179,0,0.07745361328125,0.07745361328125,0.0,0,0.07745361328125
1778782979.0601552,58244193,0,0.00372314453125,584.0936889648438,94502.828125,30.31,0.0,58244,0.0,28.02182960510254,1,94502.828125,5.900139,0,0.00372314453125,0.00372314453125,0.0,0,0.00372314453125
1778782979.0601552,58244193,1,-0.21063232421875,583.8793334960938,94503.9921875,30.31,0.0,58244,0.0,28.02182960510254,1,94503.9921875,5.900139,0,-0.21063232421875,-0.21063232421875,0.0,0,-0.21063232421875
1778782979.160115,58344153,0,0.00372314453125,584.0936889648438,94502.828125,30.32,0.0,58344,0.0,28.02182960510254,1,94502.828125,6.000099,0,0.00372314453125,0.00372314453125,0.0,0,0.00372314453125
1778782979.160115,58344153,1,-0.06365966796875,584.0263061523438,94502.3203125,30.32,0.0,58344,0.0,28.02182960510254,1,94502.3203125,6.000099,0,-0.06365966796875,-0.06365966796875,0.0,0,-0.06365966796875
1778782979.260075,58444113,0,0.00372314453125,584.0936889648438,94502.828125,30.32,0.0,58444,0.0,28.02182960510254,1,94502.828125,6.100059,0,0.00372314453125,0.00372314453125,0.0,0,0.00372314453125
1778782979.260075,58444113,1,-0.27557373046875,583.8143920898438,94504.7265625,30.32,0.0,58444,0.0,28.02182960510254,1,94504.7265625,6.100059,0,-0.27557373046875,-0.27557373046875,0.0,0,-0.27557373046875
1778782979.3600352,58544073,0,0.00372314453125,584.0936889648438,94502.828125,30.32,0.0,58544,0.0,28.02182960510254,1,94502.828125,6.200019,0,0.00372314453125,0.00372314453125,0.0,0,0.00372314453125
1778782979.3600352,58544073,1,-0.16375732421875,583.9262084960938,94503.4609375,30.32,0.0,58544,0.0,28.02182960510254,1,94503.4609375,6.200019,0,-0.16375732421875,-0.16375732421875,0.0,0,-0.16375732421875
1778782979.459995,58644033,0,0.00372314453125,584.0936889648438,94502.828125,30.33,0.0,58644,0.0,28.02182960510254,1,94502.828125,6.299979,0,0.00372314453125,0.00372314453125,0.0,0,0.00372314453125
1778782979.459995,58644033,1,0.09210205078125,584.1820678710938,94500.546875,30.32,0.0,58644,0.0,28.02182960510254,1,94500.546875,6.299979,0,0.09210205078125,0.09210205078125,0.0,0,0.09210205078125
1778782979.560788,58744826,0,0.00372314453125,584.0936889648438,94502.828125,30.33,0.0,58744,0.0,28.02182960510254,1,94502.828125,6.400772,0,0.00372314453125,0.00372314453125,0.0,0,0.00372314453125
1778782979.560788,58744826,1,-0.06072998046875,584.0292358398438,94502.2890625,30.33,0.0,58744,0.0,28.02182960510254,1,94502.2890625,6.400772,0,-0.06072998046875,-0.06072998046875,0.0,0,-0.06072998046875
1778782979.660748,58844786,0,0.00372314453125,584.0936889648438,94502.828125,30.33,0.0,58844,0.0,28.02182960510254,1,94502.828125,6.500732,0,0.00372314453125,0.00372314453125,0.0,0,0.00372314453125
1778782979.660748,58844786,1,0.05694580078125,584.1469116210938,94500.953125,30.33,0.0,58844,0.0,28.02182960510254,1,94500.953125,6.500732,0,0.05694580078125,0.05694580078125,0.0,0,0.05694580078125
1778782979.760708,58944746,0,0.00372314453125,584.0936889648438,94502.828125,30.33,0.0,58944,0.0,28.02182960510254,1,94502.828125,6.600692,0,0.00372314453125,0.00372314453125,0.0,0,0.00372314453125
1778782979.760708,58944746,1,-0.03729248046875,584.0526733398438,94502.0234375,30.33,0.0,58944,0.0,28.02182960510254,1,94502.0234375,6.600692,0,-0.03729248046875,-0.03729248046875,0.0,0,-0.03729248046875
1778782979.860668,59044706,0,0.00372314453125,584.0936889648438,94502.828125,30.34,0.0,59044,0.0,28.02182960510254,1,94502.828125,6.700652,0,0.00372314453125,0.00372314453125,0.0,0,0.00372314453125
1778782979.860668,59044706,1,-0.22283935546875,583.8671264648438,94504.1328125,30.34,0.0,59044,0.0,28.02182960510254,1,94504.1328125,6.700652,0,-0.22283935546875,-0.22283935546875,0.0,0,-0.22283935546875
1778782979.960628,59144666,0,0.00372314453125,584.0936889648438,94502.828125,30.34,0.0,59144,0.0,28.02182960510254,1,94502.828125,6.800612,0,0.00372314453125,0.00372314453125,0.0,0,0.00372314453125
1778782979.960628,59144666,1,-0.26678466796875,583.8231811523438,94504.625,30.34,0.0,59144,0.0,28.02182960510254,1,94504.625,6.800612,0,-0.26678466796875,-0.26678466796875,0.0,0,-0.26678466796875
1778782980.060588,59244626,0,0.00372314453125,584.0936889648438,94502.828125,30.34,0.0,59244,0.0,28.02182960510254,1,94502.828125,6.900572,0,0.00372314453125,0.00372314453125,0.0,0,0.00372314453125
1778782980.060588,59244626,1,-0.18719482421875,583.9027709960938,94503.7265625,30.34,0.0,59244,0.0,28.02182960510254,1,94503.7265625,6.900572,0,-0.18719482421875,-0.18719482421875,0.0,0,-0.18719482421875
1778782980.160548,59344586,0,0.00372314453125,584.0936889648438,94502.828125,30.35,0.0,59344,0.0,28.02182960510254,1,94502.828125,7.000532,0,0.00372314453125,0.00372314453125,0.0,0,0.00372314453125
1778782980.160548,59344586,1,0.09210205078125,584.1820678710938,94500.546875,30.34,0.0,59344,0.0,28.02182960510254,1,94500.546875,7.000532,0,0.09210205078125,0.09210205078125,0.0,0,0.09210205078125
1778782980.260508,59444546,0,0.00372314453125,584.0936889648438,94502.828125,30.35,0.0,59444,0.0,28.02182960510254,1,94502.828125,7.100492,0,0.00372314453125,0.00372314453125,0.0,0,0.00372314453125
1778782980.260508,59444546,1,0.00958251953125,584.0995483398438,94501.4921875,30.35,0.0,59444,0.0,28.02182960510254,1,94501.4921875,7.100492,0,0.00958251953125,0.00958251953125,0.0,0,0.00958251953125
1778782980.360468,59544506,0,0.00372314453125,584.0936889648438,94502.828125,30.35,0.0,59544,0.0,28.02182960510254,1,94502.828125,7.200452,0,0.00372314453125,0.00372314453125,0.0,0,0.00372314453125
1778782980.360468,59544506,1,-0.19891357421875,583.8910522460938,94503.8515625,30.35,0.0,59544,0.0,28.02182960510254,1,94503.8515625,7.200452,0,-0.19891357421875,-0.19891357421875,0.0,0,-0.19891357421875
1778782980.460428,59644466,0,0.00372314453125,584.0936889648438,94502.828125,30.35,0.0,59644,0.0,28.02182960510254,1,94502.828125,7.300412,0,0.00372314453125,0.00372314453125,0.0,0,0.00372314453125
1778782980.460428,59644466,1,-0.22283935546875,583.8671264648438,94504.1328125,30.35,0.0,59644,0.0,28.02182960510254,1,94504.1328125,7.300412,0,-0.22283935546875,-0.22283935546875,0.0,0,-0.22283935546875
1778782980.560388,59744426,0,0.00372314453125,584.0936889648438,94502.828125,30.36,0.0,59744,0.0,28.02182960510254,1,94502.828125,7.400372,0,0.00372314453125,0.00372314453125,0.0,0,0.00372314453125
1778782980.560388,59744426,1,-0.18719482421875,583.9027709960938,94503.7265625,30.36,0.0,59744,0.0,28.02182960510254,1,94503.7265625,7.400372,0,-0.18719482421875,-0.18719482421875,0.0,0,-0.18719482421875
1778782980.660348,59844386,0,0.00372314453125,584.0936889648438,94502.828125,30.36,0.0,59844,0.0,28.02182960510254,1,94502.828125,7.500332,0,0.00372314453125,0.00372314453125,0.0,0,0.00372314453125
1778782980.660348,59844386,1,-0.07830810546875,584.0116577148438,94502.4921875,30.36,0.0,59844,0.0,28.02182960510254,1,94502.4921875,7.500332,0,-0.07830810546875,-0.07830810546875,0.0,0,-0.07830810546875
1778782980.760308,59944346,0,0.00372314453125,584.0936889648438,94502.828125,30.36,0.0,59944,0.0,28.02182960510254,1,94502.828125,7.600292,0,0.00372314453125,0.00372314453125,0.0,0,0.00372314453125
1778782980.760308,59944346,1,-0.28436279296875,583.8056030273438,94504.828125,30.36,0.0,59944,0.0,28.02182960510254,1,94504.828125,7.600292,0,-0.28436279296875,-0.28436279296875,0.0,0,-0.28436279296875
1778782980.860268,60044306,0,0.00372314453125,584.0936889648438,94502.828125,30.37,0.0,60044,0.0,28.02182960510254,1,94502.828125,7.700252,0,0.00372314453125,0.00372314453125,0.0,0,0.00372314453125
1778782980.860268,60044306,1,-0.28143310546875,583.8085327148438,94504.796875,30.37,0.0,60044,0.0,28.02182960510254,1,94504.796875,7.700252,0,-0.28143310546875,-0.28143310546875,0.0,0,-0.28143310546875
1778782980.960228,60144266,0,0.00372314453125,584.0936889648438,94502.828125,30.37,0.0,60144,0.0,28.02182960510254,1,94502.828125,7.800212,0,0.00372314453125,0.00372314453125,0.0,0,0.00372314453125
1778782980.960228,60144266,1,-0.03143310546875,584.0585327148438,94501.9609375,30.37,0.0,60144,0.0,28.02182960510254,1,94501.9609375,7.800212,0,-0.03143310546875,-0.03143310546875,0.0,0,-0.03143310546875
1778782981.060188,60244226,0,0.00372314453125,584.0936889648438,94502.828125,30.37,0.0,60244,0.0,28.02182960510254,1,94502.828125,7.900172,0,0.00372314453125,0.00372314453125,0.0,0,0.00372314453125
1778782981.060188,60244226,1,-0.00213623046875,584.0878295898438,94501.6171875,30.37,0.0,60244,0.0,28.02182960510254,1,94501.6171875,7.900172,0,-0.00213623046875,-0.00213623046875,0.0,0,-0.00213623046875
1778782981.160148,60344186,0,0.00372314453125,584.0936889648438,94502.828125,30.37,0.0,60344,0.0,28.02182960510254,1,94502.828125,8.000132,0,0.00372314453125,0.00372314453125,0.0,0,0.00372314453125
1778782981.160148,60344186,1,-0.03143310546875,584.0585327148438,94501.9609375,30.37,0.0,60344,0.0,28.02182960510254,1,94501.9609375,8.000132,0,-0.03143310546875,-0.03143310546875,0.0,0,-0.03143310546875
1778782981.260108,60444146,0,0.00372314453125,584.0936889648438,94502.828125,30.38,0.0,60444,0.0,28.02182960510254,1,94502.828125,8.100092,0,0.00372314453125,0.00372314453125,0.0,0,0.00372314453125
1778782981.260108,60444146,1,0.0863037109375,584.17626953125,94500.625,30.38,0.0,60444,0.0,28.02182960510254,1,94500.625,8.100092,0,0.0863037109375,0.0863037109375,0.0,0,0.0863037109375
1778782981.360068,60544106,0,0.00372314453125,584.0936889648438,94502.828125,30.38,0.0,60544,0.0,28.02182960510254,1,94502.828125,8.200052,0,0.00372314453125,0.00372314453125,0.0,0,0.00372314453125
1778782981.360068,60544106,1,-0.12567138671875,583.9642944335938,94503.03125,30.38,0.0,60544,0.0,28.02182960510254,1,94503.03125,8.200052,0,-0.12567138671875,-0.12567138671875,0.0,0,-0.12567138671875
1778782981.460028,60644066,0,0.00372314453125,584.0936889648438,94502.828125,30.38,0.0,60644,0.0,28.02182960510254,1,94502.828125,8.300012,0,0.00372314453125,0.00372314453125,0.0,0,0.00372314453125
1778782981.460028,60644066,1,0.03302001953125,584.1229858398438,94501.21875,30.38,0.0,60644,0.0,28.02182960510254,1,94501.21875,8.300012,0,0.03302001953125,0.03302001953125,0.0,0,0.03302001953125
1778782981.559988,60744026,0,0.00372314453125,584.0936889648438,94502.828125,30.38,0.0,60744,0.0,28.02182960510254,1,94502.828125,8.399972,0,0.00372314453125,0.00372314453125,0.0,0,0.00372314453125
1778782981.559988,60744026,1,-0.17547607421875,583.9144897460938,94503.59375,30.39,0.0,60744,0.0,28.02182960510254,1,94503.59375,8.399972,0,-0.17547607421875,-0.17547607421875,0.0,0,-0.17547607421875
1778782981.6607811,60844819,0,0.01544189453125,584.1054077148438,94502.6875,30.39,0.003662109375,60844,0.0,28.02182960510254,1,94502.6875,8.500765,0,0.01544189453125,0.01544189453125,0.0,0,0.01544189453125
1778782981.6607811,60844819,1,0.03302001953125,584.1229858398438,94501.21875,30.39,0.003662109375,60844,0.0,28.02182960510254,1,94501.21875,8.500765,0,0.03302001953125,0.03302001953125,0.0,0,0.03302001953125
1778782981.760741,60944779,0,0.01544189453125,584.1054077148438,94502.6875,30.39,0.0183105450123548,60944,0.0,28.02182960510254,1,94502.6875,8.600725,0,0.01544189453125,0.01544189453125,0.0,0,0.01544189453125
1778782981.760741,60944779,1,-0.25799560546875,583.8319702148438,94504.5234375,30.39,0.0183105450123548,60944,0.0,28.02182960510254,1,94504.5234375,8.600725,0,-0.25799560546875,-0.25799560546875,0.0,0,-0.25799560546875
1778782981.860701,61044739,0,0.03350830078125,584.1234741210938,94502.4921875,30.39,0.042266845703125,61044,0.0,28.02182960510254,1,94502.4921875,8.700685,0,0.03350830078125,0.03350830078125,0.0,0,0.03350830078125
1778782981.860701,61044739,1,-0.02557373046875,584.0643920898438,94501.8828125,30.39,0.042266845703125,61044,0.0,28.02182960510254,1,94501.8828125,8.700685,0,-0.02557373046875,-0.02557373046875,0.0,0,-0.02557373046875
1778782981.9606612,61144699,0,0.05694580078125,584.1469116210938,94502.2265625,30.4,0.072174072265625,61144,0.0,28.02182960510254,1,94502.2265625,8.800645,0,0.05694580078125,0.05694580078125,0.0,0,0.05694580078125
1778782981.9606612,61144699,1,0.05694580078125,584.1469116210938,94500.953125,30.39,0.072174072265625,61144,0.0,28.02182960510254,1,94500.953125,8.800645,0,0.05694580078125,0.05694580078125,0.0,0,0.05694580078125
1778782982.060621,61244659,0,0.07452392578125,584.1644897460938,94502.0234375,30.4,0.11688232421875,61244,0.0,28.02182960510254,1,94502.0234375,8.900605,0,0.07452392578125,0.07452392578125,0.0,0,0.07452392578125
1778782982.060621,61244659,1,-0.00213623046875,584.0878295898438,94501.6171875,30.4,0.11688232421875,61244,0.0,28.02182960510254,1,94501.6171875,8.900605,0,-0.00213623046875,-0.00213623046875,0.0,0,-0.00213623046875
1778782982.160581,61344619,0,0.1038818359375,584.19384765625,94501.6953125,30.4,0.1700019985437393,61344,0.0,28.02182960510254,1,94501.6953125,9.000565,0,0.1038818359375,0.1038818359375,0.0,0,0.1038818359375
1778782982.160581,61344619,1,0.15667724609375,584.2466430664062,94499.8203125,30.4,0.1700019985437393,61344,0.0,28.02182960510254,1,94499.8203125,9.000565,0,0.15667724609375,0.15667724609375,0.0,0,0.15667724609375
1778782982.2605407,61444579,0,0.14483642578125,584.2348022460938,94501.21875,30.4,0.2150726169347763,61444,0.0,28.02182960510254,1,94501.21875,9.100525,0,0.14483642578125,0.14483642578125,0.0,0,0.14483642578125
1778782982.2605407,61444579,1,-0.00213623046875,584.0878295898438,94501.6171875,30.4,0.2150726169347763,61444,0.0,28.02182960510254,1,94501.6171875,9.100525,0,-0.00213623046875,-0.00213623046875,0.0,0,-0.00213623046875
1778782982.360501,61544539,0,0.20684814453125,584.2968139648438,94500.515625,30.41,0.2723121643066406,61544,0.0,28.02182960510254,1,94500.515625,9.200485,0,0.20684814453125,0.20684814453125,0.0,0,0.20684814453125
1778782982.360501,61544539,1,0.2684326171875,584.3583984375,94498.546875,30.4,0.2723121643066406,61544,0.0,28.02182960510254,1,94498.546875,9.200485,0,0.2684326171875,0.2684326171875,0.0,0,0.2684326171875
1778782982.4604611,61644499,0,0.31585693359375,584.4058227539062,94499.2890625,30.41,0.3854751288890838,61644,0.0,28.02182960510254,1,94499.2890625,9.300445,0,0.31585693359375,0.31585693359375,0.0,0,0.31585693359375
1778782982.4604611,61644499,1,0.32464599609375,584.4146118164062,94497.9140625,30.41,0.3854751288890838,61644,0.0,28.02182960510254,1,94497.9140625,9.300445,0,0.32464599609375,0.32464599609375,0.0,0,0.32464599609375
1778782982.5604208,61744459,0,0.44818115234375,584.5381469726562,94497.7890625,30.41,0.5848122239112854,61744,0.0,28.02182960510254,1,94497.7890625,9.400405,0,0.44818115234375,0.44818115234375,0.0,0,0.44818115234375
1778782982.5604208,61744459,1,0.40960693359375,584.4995727539062,94496.953125,30.41,0.5848122239112854,61744,0.0,28.02182960510254,1,94496.953125,9.400405,0,0.40960693359375,0.40960693359375,0.0,0,0.40960693359375
1778782982.660381,61844419,0,0.56243896484375,584.6524047851562,94496.484375,30.41,0.850067138671875,61844,0.0,28.02182960510254,1,94496.484375,9.500365,0,0.56243896484375,0.56243896484375,0.0,0,0.56243896484375
1778782982.660381,61844419,1,0.60687255859375,584.6968383789062,94494.7109375,30.41,0.850067138671875,61844,0.0,28.02182960510254,1,94494.7109375,9.500365,0,0.60687255859375,0.60687255859375,0.0,0,0.60687255859375
1778782982.7603412,61944379,0,0.68597412109375,584.7759399414062,94495.078125,30.41,1.0809898376464844,61944,0.0,28.02182960510254,1,94495.078125,9.600325,0,0.68597412109375,0.68597412109375,0.0,0,0.68597412109375
1778782982.7603412,61944379,1,0.70068359375,584.7906494140625,94493.6484375,30.41,1.0809898376464844,61944,0.0,28.02182960510254,1,94493.6484375,9.600325,0,0.70068359375,0.70068359375,0.0,0,0.70068359375
1778782982.860301,62044339,0,0.794921875,584.8848876953125,94493.84375,30.41,1.1873435974121094,62044,0.0,28.02182960510254,1,94493.84375,9.700285,0,0.794921875,0.794921875,0.0,0,0.794921875
1778782982.860301,62044339,1,0.87451171875,584.9644775390625,94491.671875,30.41,1.1873435974121094,62044,0.0,28.02182960510254,1,94491.671875,9.700285,0,0.87451171875,0.87451171875,0.0,0,0.87451171875
1778782982.960261,62144299,0,0.92431640625,585.0142822265625,94492.375,30.42,1.1945915222167969,62144,0.0,28.02182960510254,1,94492.375,9.800245,0,0.92431640625,0.92431640625,0.0,0,0.92431640625
1778782982.960261,62144299,1,0.91265869140625,585.0026245117188,94491.2421875,30.42,1.1945915222167969,62144,0.0,28.02182960510254,1,94491.2421875,9.800245,0,0.91265869140625,0.91265869140625,0.0,0,0.91265869140625
1778782983.0602212,62244259,0,1.056640625,585.1466064453125,94490.8671875,30.42,1.1899185180664062,62244,0.0,28.02182960510254,1,94490.8671875,9.900205,0,1.056640625,1.056640625,0.0,0,1.056640625
1778782983.0602212,62244259,1,0.8330078125,584.9229736328125,94492.140625,30.42,1.1899185180664062,62244,0.0,28.02182960510254,1,94492.140625,9.900205,0,0.8330078125,0.8330078125,0.0,0,0.8330078125
1778782983.160181,62344219,0,1.19781494140625,585.2877807617188,94489.2734375,30.42,1.2244224548339844,62344,0.0,28.02182960510254,1,94489.2734375,10.000165,1,6.19781494140625,1.19781494140625,5.0,1,1.19781494140625
1778782983.160181,62344219,1,1.16558837890625,585.2555541992188,94488.3671875,30.42,1.2244224548339844,62344,0.0,28.02182960510254,1,94488.3671875,10.000165,1,6.16558837890625,1.16558837890625,5.0,1,1.16558837890625
1778782983.2601411,62444179,0,1.34478759765625,585.4347534179688,94487.59375,30.42,1.2932204008102417,62444,0.0,28.02182960510254,1,94487.59375,10.100125,1,6.34478759765625,1.34478759765625,5.0,1,1.34478759765625
1778782983.2601411,62444179,1,1.26861572265625,585.3585815429688,94487.203125,30.42,1.2932204008102417,62444,0.0,28.02182960510254,1,94487.203125,10.100125,1,6.26861572265625,1.26861572265625,5.0,1,1.26861572265625
1778782983.3601007,62544139,0,1.5186767578125,585.608642578125,94485.625,30.42,1.374893069267273,62544,0.0,28.02182960510254,1,94485.625,10.200085,1,6.5186767578125,1.5186767578125,5.0,1,1.5186767578125
1778782983.3601007,62544139,1,1.28326416015625,585.3732299804688,94487.0390625,30.42,1.374893069267273,62544,0.0,28.02182960510254,1,94487.0390625,10.200085,1,6.28326416015625,1.28326416015625,5.0,1,1.28326416015625
1778782983.460061,62644099,0,1.6861572265625,585.776123046875,94483.734375,30.43,1.4716911315917969,62644,0.0,28.02182960510254,1,94483.734375,10.300045,1,6.6861572265625,1.6861572265625,5.0,1,1.6861572265625
1778782983.460061,62644099,1,1.6300048828125,585.719970703125,94483.09375,30.43,1.4716911315917969,62644,0.0,28.02182960510254,1,94483.09375,10.300045,1,6.6300048828125,1.6300048828125,5.0,1,1.6300048828125
1778782983.5600212,62744059,0,1.86541748046875,585.9553833007812,94481.6953125,30.43,1.5823365449905396,62744,0.0,28.02182960510254,1,94481.6953125,10.400005,1,6.86541748046875,1.86541748046875,5.0,1,1.86541748046875
1778782983.5600212,62744059,1,1.5596923828125,585.649658203125,94483.8984375,30.43,1.5823365449905396,62744,0.0,28.02182960510254,1,94483.8984375,10.400005,1,6.5596923828125,1.5596923828125,5.0,1,1.5596923828125
1778782983.660814,62844852,0,2.05682373046875,586.1467895507812,94479.5234375,30.43,1.680450439453125,62844,0.0,28.02182960510254,1,94479.5234375,10.500798,1,7.05682373046875,2.05682373046875,5.0,1,2.05682373046875
1778782983.660814,62844852,1,1.77117919921875,585.8611450195312,94481.5,30.43,1.680450439453125,62844,0.0,28.02182960510254,1,94481.5,10.500798,1,6.77117919921875,1.77117919921875,5.0,1,1.77117919921875
1778782983.760774,62944812,0,2.265380859375,586.3553466796875,94477.15625,30.43,1.76544189453125,62944,0.0,28.02182960510254,1,94477.15625,10.600758,1,7.265380859375,2.265380859375,5.0,1,2.265380859375
1778782983.760774,62944812,1,2.138916015625,586.2288818359375,94477.328125,30.43,1.76544189453125,62944,0.0,28.02182960510254,1,94477.328125,10.600758,1,7.138916015625,2.138916015625,5.0,1,2.138916015625
1778782983.860734,63044772,0,2.474365234375,586.5643310546875,94474.78125,30.43,1.86553955078125,63044,0.0,28.02182960510254,1,94474.78125,10.700718,1,7.474365234375,2.474365234375,5.0,1,2.474365234375
1778782983.860734,63044772,1,2.50372314453125,586.5936889648438,94473.1796875,30.43,1.86553955078125,63044,0.0,28.02182960510254,1,94473.1796875,10.700718,1,7.50372314453125,2.50372314453125,5.0,1,2.50372314453125
1778782983.960694,63144732,0,2.69464111328125,586.7846069335938,94472.28125,30.43,1.977691650390625,63144,0.0,28.02182960510254,1,94472.28125,10.800678,1,7.69464111328125,2.69464111328125,5.0,1,2.69464111328125
1778782983.960694,63144732,1,2.7064208984375,586.79638671875,94470.8828125,30.43,1.977691650390625,63144,0.0,28.02182960510254,1,94470.8828125,10.800678,1,7.7064208984375,2.7064208984375,5.0,1,2.7064208984375
1778782984.060654,63244692,0,2.9359130859375,587.02587890625,94469.5390625,30.43,2.079486846923828,63244,0.0,28.02182960510254,1,94469.5390625,10.900638,1,7.9359130859375,2.9359130859375,5.0,1,2.9359130859375
1778782984.060654,63244692,1,2.98284912109375,587.0728149414062,94467.7421875,30.43,2.079486846923828,63244,0.0,28.02182960510254,1,94467.7421875,10.900638,1,7.98284912109375,2.98284912109375,5.0,1,2.98284912109375
1778782984.160614,63344652,0,3.17425537109375,587.2642211914062,94466.8359375,30.43,2.1785926818847656,63344,0.0,28.02182960510254,1,94466.8359375,11.000598,1,8.17425537109375,3.17425537109375,5.0,1,3.17425537109375
1778782984.160614,63344652,1,3.0477294921875,587.1376953125,94467.0078125,30.43,2.1785926818847656,63344,0.0,28.02182960510254,1,94467.0078125,11.000598,1,8.0477294921875,3.0477294921875,5.0,1,3.0477294921875
1778782984.260574,63444612,0,3.41546630859375,587.5054321289062,94464.109375,30.44,2.2818374633789062,63444,0.0,28.02182960510254,1,94464.109375,11.100558,1,8.41546630859375,3.41546630859375,5.0,1,3.41546630859375
1778782984.260574,63444612,1,3.42138671875,587.5113525390625,94462.7734375,30.43,2.2818374633789062,63444,0.0,28.02182960510254,1,94462.7734375,11.100558,1,8.42138671875,3.42138671875,5.0,1,3.42138671875
1778782984.360534,63544572,0,3.66845703125,587.7584228515625,94461.234375,30.44,2.3642349243164062,63544,0.0,28.02182960510254,1,94461.234375,11.200518,1,8.66845703125,3.66845703125,5.0,1,3.66845703125
1778782984.360534,63544572,1,3.37396240234375,587.4639282226562,94463.3046875,30.44,2.3642349243164062,63544,0.0,28.02182960510254,1,94463.3046875,11.200518,1,8.37396240234375,3.37396240234375,5.0,1,3.37396240234375
1778782984.460494,63644532,0,3.92681884765625,588.0167846679688,94458.3046875,30.44,2.4204635620117188,63644,0.0,28.02182960510254,1,94458.3046875,11.300478,1,8.92681884765625,3.92681884765625,5.0,1,3.92681884765625
1778782984.460494,63644532,1,3.9356689453125,588.025634765625,94456.9296875,30.44,2.4204635620117188,63644,0.0,28.02182960510254,1,94456.9296875,11.300478,1,8.9356689453125,3.9356689453125,5.0,1,3.9356689453125
1778782984.560454,63744492,0,4.1739501953125,588.263916015625,94455.5,30.44,2.473106384277344,63744,0.0,28.02182960510254,1,94455.5,11.400438,1,9.1739501953125,4.1739501953125,5.0,1,4.1739501953125
1778782984.560454,63744492,1,4.1300048828125,588.219970703125,94454.7265625,30.44,2.473106384277344,63744,0.0,28.02182960510254,1,94454.7265625,11.400438,1,9.1300048828125,4.1300048828125,5.0,1,4.1300048828125
1778782984.660414,63844452,0,4.42401123046875,588.5139770507812,94452.65625,30.44,2.5136373043060303,63844,0.0,28.02182960510254,1,94452.65625,11.500398,1,9.42401123046875,4.42401123046875,5.0,1,4.42401123046875
1778782984.660414,63844452,1,4.16815185546875,588.2581176757812,94454.2890625,30.44,2.5136373043060303,63844,0.0,28.02182960510254,1,94454.2890625,11.500398,1,9.16815185546875,4.16815185546875,5.0,1,4.16815185546875
1778782984.760374,63944412,0,4.68572998046875,588.7756958007812,94449.6953125,30.44,2.522850275039673,63944,0.0,28.02182960510254,1,94449.6953125,11.600358,1,9.68572998046875,4.68572998046875,5.0,1,4.68572998046875
1778782984.760374,63944412,1,4.42987060546875,588.5198364257812,94451.3203125,30.44,2.522850275039673,63944,0.0,28.02182960510254,1,94451.3203125,11.600358,1,9.42987060546875,4.42987060546875,5.0,1,4.42987060546875
1778782984.860334,64044372,0,4.935791015625,589.0257568359375,94446.8515625,30.44,2.5235557556152344,64044,0.0,28.02182960510254,1,94446.8515625,11.700318,1,9.935791015625,4.935791015625,5.0,1,4.935791015625
1778782984.860334,64044372,1,4.777099609375,588.8670654296875,94447.3828125,30.44,2.5235557556152344,64044,0.0,28.02182960510254,1,94447.3828125,11.700318,1,9.777099609375,4.777099609375,5.0,1,4.777099609375
1778782984.960294,64144332,0,5.18585205078125,589.2758178710938,94444.015625,30.44,2.5350570678710938,64144,0.0,28.02182960510254,1,94444.015625,11.800278,1,10.18585205078125,5.18585205078125,5.0,1,5.18585205078125
1778782984.960294,64144332,1,5.20050048828125,589.2904663085938,94442.5859375,30.44,2.5350570678710938,64144,0.0,28.02182960510254,1,94442.5859375,11.800278,1,10.20050048828125,5.20050048828125,5.0,1,5.20050048828125
1778782985.060254,64244292,0,5.4329833984375,589.52294921875,94441.2109375,30.44,2.53520941734314,64244,0.0,28.02182960510254,1,94441.2109375,11.900238,1,10.4329833984375,5.4329833984375,5.0,1,5.4329833984375
1778782985.060254,64244292,1,5.5238037109375,589.61376953125,94438.9140625,30.44,2.53520941734314,64244,0.0,28.02182960510254,1,94438.9140625,11.900238,1,10.5238037109375,5.5238037109375,5.0,1,5.5238037109375
1778782985.160214,64344252,0,5.6888427734375,589.77880859375,94438.3046875,30.44,2.516059637069702,64344,0.0,28.02182960510254,1,94438.3046875,12.000198,1,10.6888427734375,5.6888427734375,5.0,1,5.6888427734375
1778782985.160214,64344252,1,5.4119873046875,589.501953125,94440.1796875,30.45,2.516059637069702,64344,0.0,28.02182960510254,1,94440.1796875,12.000198,1,10.4119873046875,5.4119873046875,5.0,1,5.4119873046875
1778782985.260174,64444212,0,5.93548583984375,590.0254516601562,94435.5078125,30.45,2.503089904785156,64444,0.0,28.02182960510254,1,94435.5078125,12.100158,1,10.93548583984375,5.93548583984375,5.0,1,5.93548583984375
1778782985.260174,64444212,1,5.78558349609375,589.8755493164062,94435.9453125,30.45,2.503089904785156,64444,0.0,28.02182960510254,1,94435.9453125,12.100158,1,10.78558349609375,5.78558349609375,5.0,1,5.78558349609375
1778782985.360134,64544172,0,6.1767578125,590.2667236328125,94432.765625,30.45,2.5014877319335938,64544,0.0,28.02182960510254,1,94432.765625,12.200118,1,11.1767578125,6.1767578125,5.0,1,6.1767578125
1778782985.360134,64544172,1,5.97357177734375,590.0635375976562,94433.8046875,30.45,2.5014877319335938,64544,0.0,28.02182960510254,1,94433.8046875,12.200118,1,10.97357177734375,5.97357177734375,5.0,1,5.97357177734375
1778782985.460094,64644132,0,6.42388916015625,590.5138549804688,94429.96875,30.45,2.488823175430298,64644,0.0,28.02182960510254,1,94429.96875,12.300078,1,11.42388916015625,6.42388916015625,5.0,1,6.42388916015625
1778782985.460094,64644132,1,6.45025634765625,590.5402221679688,94428.40625,30.45,2.488823175430298,64644,0.0,28.02182960510254,1,94428.40625,12.300078,1,11.45025634765625,6.45025634765625,5.0,1,6.45025634765625
1778782985.560054,64744092,0,6.67388916015625,590.7638549804688,94427.1328125,30.45,2.4660112857818604,64744,0.0,28.02182960510254,1,94427.1328125,12.400038,1,11.67388916015625,6.67388916015625,5.0,1,6.67388916015625
1778782985.560054,64744092,1,6.7032470703125,590.793212890625,94425.53125,30.45,2.4660112857818604,64744,0.0,28.02182960510254,1,94425.53125,12.400038,1,11.7032470703125,6.7032470703125,5.0,1,6.7032470703125
1778782985.660014,64844052,0,6.9268798828125,591.016845703125,94424.265625,30.45,2.4612808227539062,64844,0.0,28.02182960510254,1,94424.265625,12.499998,1,11.9268798828125,6.9268798828125,5.0,1,6.9268798828125
1778782985.660014,64844052,1,6.7413330078125,590.831298828125,94425.1015625,30.45,2.4612808227539062,64844,0.0,28.02182960510254,1,94425.1015625,12.499998,1,11.7413330078125,6.7413330078125,5.0,1,6.7413330078125
1778782985.760807,64944845,0,7.1676025390625,591.257568359375,94421.53125,30.45,2.4781227111816406,64944,0.0,28.02182960510254,1,94421.53125,12.600791,1,12.1676025390625,7.1676025390625,5.0,1,7.1676025390625
1778782985.760807,64944845,1,7.16180419921875,591.2517700195312,94420.3203125,30.45,2.4781227111816406,64944,0.0,28.02182960510254,1,94420.3203125,12.600791,1,12.16180419921875,7.16180419921875,5.0,1,7.16180419921875
1778782985.8607671,65044805,0,7.41473388671875,591.5046997070312,94418.7265625,30.45,2.486743688583374,65044,0.0,28.02182960510254,1,94418.7265625,12.700751,1,12.41473388671875,7.41473388671875,5.0,1,7.41473388671875
1778782985.8607671,65044805,1,7.270751953125,591.3607177734375,94419.09375,30.45,2.486743688583374,65044,0.0,28.02182960510254,1,94419.09375,12.700751,1,12.270751953125,7.270751953125,5.0,1,7.270751953125
1778782985.9607267,65144765,0,7.656005859375,591.7459716796875,94415.9921875,30.45,2.472248077392578,65144,0.0,28.02182960510254,1,94415.9921875,12.800711,1,12.656005859375,7.656005859375,5.0,1,7.656005859375
1778782985.9607267,65144765,1,7.70587158203125,591.7958374023438,94414.15625,30.45,2.472248077392578,65144,0.0,28.02182960510254,1,94414.15625,12.800711,1,12.70587158203125,7.70587158203125,5.0,1,7.70587158203125
1778782986.060687,65244725,0,7.90313720703125,591.9931030273438,94413.1875,30.45,2.45218276977539,65244,0.0,28.02182960510254,1,94413.1875,12.900671,1,12.90313720703125,7.90313720703125,5.0,1,7.90313720703125
1778782986.060687,65244725,1,7.9793701171875,592.0693359375,94411.0546875,30.45,2.45218276977539,65244,0.0,28.02182960510254,1,94411.0546875,12.900671,1,12.9793701171875,7.9793701171875,5.0,1,7.9793701171875
1778782986.1606472,65344685,0,8.1561279296875,592.24609375,94410.3125,30.45,2.4466514587402344,65344,0.0,28.02182960510254,1,94410.3125,13.000631,1,13.1561279296875,8.1561279296875,5.0,1,8.1561279296875
1778782986.1606472,65344685,1,8.20892333984375,592.2988891601562,94408.453125,30.45,2.4466514587402344,65344,0.0,28.02182960510254,1,94408.453125,13.000631,1,13.20892333984375,8.20892333984375,5.0,1,8.20892333984375
1778782986.260607,65444645,0,8.39739990234375,592.4873657226562,94407.5859375,30.46,2.458324670791626,65444,0.0,28.02182960510254,1,94407.5859375,13.100591,1,13.39739990234375,8.39739990234375,5.0,1,8.39739990234375
1778782986.260607,65444645,1,8.21478271484375,592.3047485351562,94408.390625,30.46,2.458324670791626,65444,0.0,28.02182960510254,1,94408.390625,13.100591,1,13.21478271484375,8.21478271484375,5.0,1,8.21478271484375
1778782986.360567,65544605,0,8.64691162109375,592.7368774414062,94404.7421875,30.46,2.472057342529297,65544,0.0,28.02182960510254,1,94404.7421875,13.200551,1,13.64691162109375,8.64691162109375,5.0,1,8.64691162109375
1778782986.360567,65544605,1,8.67041015625,592.7603759765625,94403.21875,30.46,2.472057342529297,65544,0.0,28.02182960510254,1,94403.21875,13.200551,1,13.67041015625,8.67041015625,5.0,1,8.67041015625
1778782986.4605272,65644565,0,8.89404296875,592.9840087890625,94401.9453125,30.46,2.4732017517089844,65644,0.0,28.02182960510254,1,94401.9453125,13.300511,1,13.89404296875,8.89404296875,5.0,1,8.89404296875
1778782986.4605272,65644565,1,8.708984375,592.7989501953125,94402.78125,30.46,2.4732017517089844,65644,0.0,28.02182960510254,1,94402.78125,13.300511,1,13.708984375,8.708984375,5.0,1,8.708984375
1778782986.560487,65744525,0,9.13525390625,593.2252197265625,94399.21875,30.46,2.467746496200561,65744,0.0,28.02182960510254,1,94399.21875,13.400471,1,14.13525390625,9.13525390625,5.0,1,9.13525390625
1778782986.560487,65744525,1,9.10308837890625,593.1930541992188,94398.3125,30.46,2.467746496200561,65744,0.0,28.02182960510254,1,94398.3125,13.400471,1,14.10308837890625,9.10308837890625,5.0,1,9.10308837890625
1778782986.6604471,65844485,0,9.3883056640625,593.478271484375,94396.34375,30.46,2.464027404785156,65844,0.0,28.02182960510254,1,94396.34375,13.500431,1,14.3883056640625,9.3883056640625,5.0,1,9.3883056640625
1778782986.6604471,65844485,1,9.1148681640625,593.204833984375,94398.1796875,30.46,2.464027404785156,65844,0.0,28.02182960510254,1,94398.1796875,13.500431,1,14.1148681640625,9.1148681640625,5.0,1,9.1148681640625
1778782986.7604067,65944445,0,9.6353759765625,593.725341796875,94393.5390625,30.46,2.4639317989349365,65944,0.0,28.02182960510254,1,94393.5390625,13.600391,1,14.6353759765625,9.6353759765625,5.0,1,9.6353759765625
1778782986.7604067,65944445,1,9.63250732421875,593.7224731445312,94392.3125,30.46,2.4639317989349365,65944,0.0,28.02182960510254,1,94392.3125,13.600391,1,14.63250732421875,9.63250732421875,5.0,1,9.63250732421875
1778782986.860367,66044405,0,9.87664794921875,593.9666137695312,94390.8046875,30.46,2.470130681991577,66044,0.0,28.02182960510254,1,94390.8046875,13.700351,1,14.87664794921875,9.87664794921875,5.0,1,9.87664794921875
1778782986.860367,66044405,1,9.95281982421875,594.0427856445312,94388.6640625,30.46,2.470130681991577,66044,0.0,28.02182960510254,1,94388.6640625,13.700351,1,14.95281982421875,9.95281982421875,5.0,1,9.95281982421875
1778782986.9603271,66144365,0,10.12322998046875,594.2131958007812,94388.0078125,30.46,2.4710464477539062,66144,0.0,28.02182960510254,1,94388.0078125,13.800311,1,15.12322998046875,10.12322998046875,5.0,1,10.12322998046875
1778782986.9603271,66144365,1,10.041259765625,594.1312255859375,94387.671875,30.46,2.4710464477539062,66144,0.0,28.02182960510254,1,94387.671875,13.800311,1,15.041259765625,10.041259765625,5.0,1,10.041259765625
1778782987.060287,66244325,0,10.37335205078125,594.4633178710938,94385.171875,30.46,2.460289001464844,66244,0.0,28.02182960510254,1,94385.171875,13.900271,1,15.37335205078125,10.37335205078125,5.0,1,10.37335205078125
1778782987.060287,66244325,1,10.36456298828125,594.4545288085938,94384.0078125,30.46,2.460289001464844,66244,0.0,28.02182960510254,1,94384.0078125,13.900271,1,15.36456298828125,10.36456298828125,5.0,1,10.36456298828125
1778782987.160247,66344285,0,10.61749267578125,594.7074584960938,94382.3984375,30.46,2.4567792415618896,66344,0.0,28.02182960510254,1,94382.3984375,14.000231,1,15.61749267578125,10.61749267578125,5.0,1,10.61749267578125
1778782987.160247,66344285,1,10.59112548828125,594.6810913085938,94381.4375,30.46,2.4567792415618896,66344,0.0,28.02182960510254,1,94381.4375,14.000231,1,15.59112548828125,10.59112548828125,5.0,1,10.59112548828125
1778782987.2602072,66444245,0,10.8675537109375,594.95751953125,94379.5703125,30.46,2.466011047363281,66444,0.0,28.02182960510254,1,94379.5703125,14.100191,1,15.8675537109375,10.8675537109375,5.0,1,10.8675537109375
1778782987.2602072,66444245,1,10.94378662109375,595.0337524414062,94377.4296875,30.46,2.466011047363281,66444,0.0,28.02182960510254,1,94377.4296875,14.100191,1,15.94378662109375,10.94378662109375,5.0,1,10.94378662109375
1778782987.360167,66544205,0,11.11468505859375,595.2046508789062,94376.765625,30.46,2.4732017517089844,66544,0.0,28.02182960510254,1,94376.765625,14.200151,1,16.11468505859375,11.11468505859375,5.0,1,11.11468505859375
1778782987.360167,66544205,1,11.04681396484375,595.1367797851562,94376.265625,30.46,2.4732017517089844,66544,0.0,28.02182960510254,1,94376.265625,14.200151,1,16.04681396484375,11.04681396484375,5.0,1,11.04681396484375
1778782987.460127,66644165,0,11.35595703125,595.4459228515625,94374.03125,30.47,2.473793029785156,66644,0.0,28.02182960510254,1,94374.03125,14.300111,1,16.35595703125,11.35595703125,5.0,1,11.35595703125
1778782987.460127,66644165,1,11.2470703125,595.3370361328125,94374.0,30.47,2.473793029785156,66644,0.0,28.02182960510254,1,94374.0,14.300111,1,16.2470703125,11.2470703125,5.0,1,11.2470703125
1778782987.5600867,66744125,0,11.60260009765625,595.6925659179688,94371.234375,30.47,2.4674224853515625,66744,0.0,28.02182960510254,1,94371.234375,14.400071,1,16.60260009765625,11.60260009765625,5.0,1,11.60260009765625
1778782987.5600867,66744125,1,11.52935791015625,595.6193237304688,94370.796875,30.47,2.4674224853515625,66744,0.0,28.02182960510254,1,94370.796875,14.400071,1,16.52935791015625,11.52935791015625,5.0,1,11.52935791015625
1778782987.660047,66844085,0,11.85845947265625,595.9484252929688,94368.3359375,30.47,2.4586105346679688,66844,0.0,28.02182960510254,1,94368.3359375,14.500031,1,16.85845947265625,11.85845947265625,5.0,1,11.85845947265625
1778782987.660047,66844085,1,11.60552978515625,595.6954956054688,94369.9296875,30.47,2.4586105346679688,66844,0.0,28.02182960510254,1,94369.9296875,14.500031,1,16.60552978515625,11.60552978515625,5.0,1,11.60552978515625
