timestamp,TimeUS,I,GyrX,GyrY,GyrZ,AccX,AccY,AccZ,EG,EA,T,GH,AH,GHz,AHz,TimeSec,AttackActive_IMU,GyrZ_attacked,SoftwareSensor_GyrZ,Residual_GyrZ,DetectionFlag_GyrZ,Recovered_GyrZ
1778782185.0600562,68245191,0,0.0010167440632358,0.0009288904839195,0.0009430883219465,-0.0005566106410697,-0.0017835107864812,-9.81635856628418,0,0,28.967269897460938,1,1,1000,1000,0.0,0,0.0009430883219465,0.0009430883219465,0.0,0,0.0009430883219465
1778782185.0600562,68245191,1,0.0010713479714468,0.0009125382057391,0.0009646255057305,-0.0006270866142585,-0.0009066059719771,-9.816941261291504,0,0,28.967269897460938,1,1,760,800,0.0,0,0.0009646255057305,0.0009646255057305,0.0,0,0.0009646255057305
1778782185.1000402,68285175,0,0.00092695269268,0.00102785078343,0.0009967188816517,0.000140477248351,-0.0010759477736428,-9.817687034606934,0,0,28.969406127929688,1,1,1000,1000,0.039984,0,0.0009967188816517,0.0009967188816517,0.0,0,0.0009967188816517
1778782185.1000402,68285175,1,0.0008026814321056,0.0008571604266762,0.0009747815784066,-0.0033684072550386,-0.0020932920742779,-9.815813064575195,0,0,28.969406127929688,1,1,760,800,0.039984,0,0.0009747815784066,0.0009747815784066,0.0,0,0.0009747815784066
1778782185.140024,68325159,0,0.0009292520699091,0.0009313445189036,0.0010488132247701,-0.0007470836280845,-0.0008420448866672,-9.817700386047363,0,0,28.97154426574707,1,1,1000,1000,0.079968,0,0.0010488132247701,0.0010488132247701,0.0,0,0.0010488132247701
1778782185.140024,68325159,1,0.0009966825600713,0.0010021745692938,0.000929417903535,0.0023398036137223,-0.0006484386976808,-9.817811012268066,0,0,28.97154426574707,1,1,760,800,0.079968,0,0.000929417903535,0.000929417903535,0.0,0,0.000929417903535
1778782185.180008,68365143,0,0.0009796759113669,0.0009631673456169,0.0009061958407983,-0.001397579559125,-0.0001307606289628,-9.81652545928955,0,0,28.973682403564453,1,1,1000,1000,0.119952,0,0.0009061958407983,0.0009061958407983,0.0,0,0.0009061958407983
1778782185.180008,68365143,1,0.0007794360863044,0.0009074136032722,0.0010663364082574,-0.0005431720637716,-0.0006474463152699,-9.815536499023438,0,0,28.973682403564453,1,1,760,800,0.119952,0,0.0010663364082574,0.0010663364082574,0.0,0,0.0010663364082574
1778782185.219992,68405127,0,0.0009919030126184,0.0009314038325101,0.0009932953398674,-0.000233312981436,-0.0005399534711614,-9.817441940307615,0,0,28.975818634033203,1,1,1000,1000,0.159936,0,0.0009932953398674,0.0009932953398674,0.0,0,0.0009932953398674
1778782185.219992,68405127,1,0.0009297165670432,0.0009519566665403,0.001463790773414,-0.002718981122598,-0.0018506936030462,-9.817462921142578,0,0,28.975818634033203,1,1,760,800,0.159936,0,0.001463790773414,0.001463790773414,0.0,0,0.001463790773414
1778782185.259976,68445111,0,0.0009382917196489,0.0009764829301275,0.000932399125304,-0.0007896761526353,-0.0020165788009762,-9.81672477722168,0,0,28.97795486450196,1,1,1000,1000,0.19992,0,0.000932399125304,0.000932399125304,0.0,0,0.000932399125304
1778782185.259976,68445111,1,0.0012025635223835,0.0008314242586493,0.0006661394727416,0.0005855793133378,-0.0010608459124341,-9.81966781616211,0,0,28.97795486450196,1,1,760,800,0.19992,0,0.0006661394727416,0.0006661394727416,0.0,0,0.0006661394727416
1778782185.29996,68485095,0,0.000930581940338,0.0010174931958317,0.0010384890483692,-0.0001731978991301,-0.0001881878997664,-9.816143989562988,0,0,28.980091094970703,1,1,1000,1000,0.239904,0,0.0010384890483692,0.0010384890483692,0.0,0,0.0010384890483692
1778782185.29996,68485095,1,0.0009064607438631,0.0011632335372269,0.0009011820657178,-0.0022340668365359,-0.0003524239582475,-9.816535949707031,0,0,28.980091094970703,1,1,760,800,0.239904,0,0.0009011820657178,0.0009011820657178,0.0,0,0.0009011820657178
1778782185.339944,68525079,0,0.0009194340091198,0.0009522274485789,0.0009437653352506,-0.0016205727588385,-0.0017704839119687,-9.817145347595217,0,0,28.982227325439453,1,1,1000,1000,0.279888,0,0.0009437653352506,0.0009437653352506,0.0,0,0.0009437653352506
1778782185.339944,68525079,1,0.0009367497987113,0.0008334041340276,0.0006718640797771,-0.0006455967668443,-0.0003532338887453,-9.816749572753906,0,0,28.982227325439453,1,1,760,800,0.279888,0,0.0006718640797771,0.0006718640797771,0.0,0,0.0006718640797771
1778782185.379928,68565063,0,0.0009470269433222,0.0009749979944899,0.0009961473988369,-0.0004573655314743,-0.0009392548818141,-9.816435813903809,0,0,28.98441505432129,1,1,1000,1000,0.319872,0,0.0009961473988369,0.0009961473988369,0.0,0,0.0009961473988369
1778782185.379928,68565063,1,0.0008194468682631,0.0010734960669651,0.0009572549024596,-9.91950510069728e-05,-0.0017255623824894,-9.81566047668457,0,0,28.98441505432129,1,1,760,800,0.319872,0,0.0009572549024596,0.0009572549024596,0.0,0,0.0009572549024596
1778782185.419912,68605047,0,0.000993030029349,0.0009868761990219,0.0010131988674402,-0.0009371495107188,-0.0001858039322542,-9.818270683288574,0,0,28.98655128479004,1,1,1000,1000,0.359856,0,0.0010131988674402,0.0010131988674402,0.0,0,0.0010131988674402
1778782185.419912,68605047,1,0.0010062652872875,0.0009530907846055,0.0008642655448056,0.0004794232954736,-0.0038584652356803,-9.816730499267578,0,0,28.98655128479004,1,1,760,800,0.359856,0,0.0008642655448056,0.0008642655448056,0.0,0,0.0008642655448056
1778782185.459896,68645031,0,0.0009596855961717,0.0009659465285949,0.0010031127603724,-0.0012722352985292,-0.0012616517487913,-9.817062377929688,0,0,28.98868560791016,1,1,1000,1000,0.39984,0,0.0010031127603724,0.0010031127603724,0.0,0,0.0010031127603724
1778782185.459896,68645031,1,0.0009536055731587,0.0009803348220884,0.000956906878855,-0.0025916525628417,-0.0016436040168628,-9.81422996520996,0,0,28.98868560791016,1,1,760,800,0.39984,0,0.000956906878855,0.000956906878855,0.0,0,0.000956906878855
1778782185.49988,68685015,0,0.0010097997728735,0.0010691010393202,0.0009662546217441,-0.0012857711408287,-0.0006662564119324,-9.817819595336914,0,0,28.99081993103028,1,1,1000,1000,0.439824,0,0.0009662546217441,0.0009662546217441,0.0,0,0.0009662546217441
1778782185.49988,68685015,1,0.0010727586923167,0.000758464098908,0.0009496592683717,-0.0023427810519933,-0.0028786677867174,-9.819697380065918,0,0,28.99081993103028,1,1,760,800,0.439824,0,0.0009496592683717,0.0009496592683717,0.0,0,0.0009496592683717
1778782185.539864,68724999,0,0.0009577472810633,0.0009494349360466,0.0009531796677038,-0.0005033835768699,0.0002436961513012,-9.817218780517578,0,0,28.992902755737305,1,1,1000,1000,0.479808,0,0.0009531796677038,0.0009531796677038,0.0,0,0.0009531796677038
1778782185.539864,68724999,1,0.0010743647580966,0.0008772140135988,0.0010284828022122,-0.0005110030760988,-0.0024948283098638,-9.817758560180664,0,0,28.992902755737305,1,1,760,800,0.479808,0,0.0010284828022122,0.0010284828022122,0.0,0,0.0010284828022122
1778782185.579848,68764983,0,0.0009569289395585,0.0009953496046364,0.0009441924048587,-0.0012577173765748,-0.0018117001745849,-9.817431449890137,0,0,28.99503517150879,1,1,1000,1000,0.519792,0,0.0009441924048587,0.0009441924048587,0.0,0,0.0009441924048587
1778782185.579848,68764983,1,0.0011365601094439,0.0010216591181233,0.0011780626373365,-0.0023969002068042,0.0003037875285372,-9.818315505981444,0,0,28.99503517150879,1,1,760,800,0.519792,0,0.0011780626373365,0.0011780626373365,0.0,0,0.0011780626373365
1778782185.619832,68804967,0,0.0009473313111811,0.0010108489077538,0.0010650221956893,-0.0014111548662185,-0.0013068423140794,-9.81874656677246,0,0,28.997169494628903,1,1,1000,1000,0.559776,0,0.0010650221956893,0.0010650221956893,0.0,0,0.0010650221956893
1778782185.619832,68804967,1,0.0008941743290051,0.0007010925328359,0.0008991155773401,-0.0012863584561273,-0.0002414530317764,-9.81861972808838,0,0,28.997169494628903,1,1,760,800,0.559776,0,0.0008991155773401,0.0008991155773401,0.0,0,0.0008991155773401
1778782185.659816,68844951,0,0.0009047393104992,0.0008997407276183,0.0010169936576858,-0.0013805112103,-2.530822530388832e-05,-9.81753635406494,0,0,28.999303817749023,1,1,1000,1000,0.59976,0,0.0010169936576858,0.0010169936576858,0.0,0,0.0010169936576858
1778782185.659816,68844951,1,0.0011604011524468,0.0011965779121965,0.0008588517084717,-0.0003452954115346,0.0024564680643379,-9.819339752197266,0,0,28.999303817749023,1,1,760,800,0.59976,0,0.0008588517084717,0.0008588517084717,0.0,0,0.0008588517084717
1778782185.6998,68884935,0,0.0010401175823062,0.000940955011174,0.0010582620743662,-0.0002496698580216,-0.0006507121142931,-9.819687843322754,0,0,29.001436233520508,1,1,1000,1000,0.639744,0,0.0010582620743662,0.0010582620743662,0.0,0,0.0010582620743662
1778782185.6998,68884935,1,0.0010535833425819,0.0009750569006428,0.0010548471473157,0.0001790618844097,-0.0021341298706829,-9.817906379699709,0,0,29.001436233520508,1,1,760,800,0.639744,0,0.0010548471473157,0.0010548471473157,0.0,0,0.0010548471473157
1778782185.739784,68924919,0,0.0009427173645235,0.0009353901259601,0.0009438558481633,-0.0014905063435435,-0.0021138216834515,-9.818645477294922,0,0,29.003570556640625,1,1,1000,1000,0.679728,0,0.0009438558481633,0.0009438558481633,0.0,0,0.0009438558481633
1778782185.739784,68924919,1,0.0009672775049693,0.0011038251686841,0.0012659084750339,-0.0005097466055303,-0.0011251000687479,-9.817235946655272,0,0,29.003570556640625,1,1,760,800,0.679728,0,0.0012659084750339,0.0012659084750339,0.0,0,0.0012659084750339
1778782185.7797682,68964903,0,0.0009207827388308,0.00099347170908,0.0009558337042108,-0.0011359468335285,-0.0009328768937848,-9.817816734313965,0,0,29.00570297241211,1,1,1000,1000,0.719712,0,0.0009558337042108,0.0009558337042108,0.0,0,0.0009558337042108
1778782185.7797682,68964903,1,0.0009190638083964,0.0009334057685919,0.0009571093833073,0.0028020851314067,-0.0015527593204751,-9.818029403686523,0,0,29.00570297241211,1,1,760,800,0.719712,0,0.0009571093833073,0.0009571093833073,0.0,0,0.0009571093833073
1778782185.8197522,69004887,0,0.0009587837848812,0.0008918792009353,0.0009305589483119,-0.0012747414875775,-0.0015163916395977,-9.817944526672363,0,0,29.0078353881836,1,1,1000,1000,0.759696,0,0.0009305589483119,0.0009305589483119,0.0,0,0.0009305589483119
1778782185.8197522,69004887,1,0.0008450364693999,0.0008864981937222,0.0008886178256943,-0.0031484002247452,-0.0023118031676858,-9.816265106201172,0,0,29.0078353881836,1,1,760,800,0.759696,0,0.0008886178256943,0.0008886178256943,0.0,0,0.0008886178256943
1778782185.8597362,69044871,0,0.0010197458323091,0.000990571686998,0.0010292138904333,-0.0020110681653022,-0.0011921327095478,-9.817174911499023,0,0,29.00996780395508,1,1,1000,1000,0.79968,0,0.0010292138904333,0.0010292138904333,0.0,0,0.0010292138904333
1778782185.8597362,69044871,1,0.0010686228051781,0.0009230384603142,0.0009201338980346,-0.0016350243240594,0.0010113132884725,-9.815571784973145,0,0,29.00996780395508,1,1,760,800,0.79968,0,0.0009201338980346,0.0009201338980346,0.0,0,0.0009201338980346
1778782185.89972,69084855,0,0.000967284257058,0.0009135470027104,0.0009780758991837,-0.0007225553854368,-0.0009518585866317,-9.816997528076172,0,0,29.01210021972656,1,1,1000,1000,0.839664,0,0.0009780758991837,0.0009780758991837,0.0,0,0.0009780758991837
1778782185.89972,69084855,1,0.0011165445903316,0.0009457903215661,0.0009833177318796,-0.001728965435177,-0.000386593514122,-9.818964004516602,0,0,29.01210021972656,1,1,760,800,0.839664,0,0.0009833177318796,0.0009833177318796,0.0,0,0.0009833177318796
1778782185.939704,69124839,0,0.0009636262548156,0.001023300923407,0.0009369570179842,-0.0016895220614969,-0.0010353940306231,-9.817608833312988,0,0,29.01423072814941,1,1,1000,1000,0.879648,0,0.0009369570179842,0.0009369570179842,0.0,0,0.0009369570179842
1778782185.939704,69124839,1,0.0009686599951237,0.0008036926155909,0.0009160907356999,0.0002268078387714,-2.1440275304485112e-05,-9.815686225891112,0,0,29.01423072814941,1,1,760,800,0.879648,0,0.0009160907356999,0.0009160907356999,0.0,0,0.0009160907356999
1778782185.979688,69164823,0,0.0010197337251156,0.0009312198380939,0.0010142686078324,-0.0014530159533023,-0.0017950042383745,-9.817153930664062,0,0,29.016361236572266,1,1,1000,1000,0.919632,0,0.0010142686078324,0.0010142686078324,0.0,0,0.0010142686078324
1778782185.979688,69164823,1,0.0007718629203736,0.0009421676513738,0.0009497212013229,-0.0011426546843722,-0.0015680514043197,-9.818090438842772,0,0,29.016361236572266,1,1,760,800,0.919632,0,0.0009497212013229,0.0009497212013229,0.0,0,0.0009497212013229
1778782186.019672,69204807,0,0.0009337732335552,0.0010334855178371,0.0009473214740864,-0.0010305632604286,-0.0017918606754392,-9.817591667175291,0,0,29.01849365234375,1,1,1000,1000,0.959616,0,0.0009473214740864,0.0009473214740864,0.0,0,0.0009473214740864
1778782186.019672,69204807,1,0.0010000243782997,0.0010073285084217,0.0009097661240957,-0.0017624156316742,-0.0002619775477796,-9.819931030273438,0,0,29.01849365234375,1,1,760,800,0.959616,0,0.0009097661240957,0.0009097661240957,0.0,0,0.0009097661240957
1778782186.059656,69244791,0,0.0009711067541502,0.0009678846108727,0.0010294661624357,-0.0012257599737495,-0.000749732600525,-9.81841278076172,0,0,29.02062225341797,1,1,1000,1000,0.9996,0,0.0010294661624357,0.0010294661624357,0.0,0,0.0010294661624357
1778782186.059656,69244791,1,0.0009508047369308,0.0009072974207811,0.00070219731424,-0.0029884739778935,-0.0001799881720216,-9.816689491271973,0,0,29.02062225341797,1,1,760,800,0.9996,0,0.00070219731424,0.00070219731424,0.0,0,0.00070219731424
1778782186.09964,69284775,0,0.0009735104395076,0.0010274251690134,0.0009539345046505,-0.0006639911443926,-0.0011388536076992,-9.8180570602417,0,0,29.022754669189453,1,1,1000,1000,1.039584,0,0.0009539345046505,0.0009539345046505,0.0,0,0.0009539345046505
1778782186.09964,69284775,1,0.0010332257952541,0.0008593111415393,0.0010379672748968,0.0006029476644471,-0.0004941052757203,-9.817559242248535,0,0,29.022754669189453,1,1,760,800,1.039584,0,0.0010379672748968,0.0010379672748968,0.0,0,0.0010379672748968
1778782186.139624,69324759,0,0.0009779806714504,0.0009798251558095,0.0010763261234387,-0.0014603737508878,-0.0011304913787171,-9.816576957702637,0,0,29.024885177612305,1,1,1000,1000,1.079568,0,0.0010763261234387,0.0010763261234387,0.0,0,0.0010763261234387
1778782186.139624,69324759,1,0.0009757953812368,0.00103183707688,0.001185510540381,-0.0024889402557164,-0.0003854020033031,-9.815902709960938,0,0,29.024885177612305,1,1,760,800,1.079568,0,0.001185510540381,0.001185510540381,0.0,0,0.001185510540381
1778782186.179608,69364743,0,0.0009259932558052,0.0009127767407335,0.0009995006257668,-0.0005884417332708,-0.0014642809983342,-9.817058563232422,0,0,29.027013778686523,1,1,1000,1000,1.119552,0,0.0009995006257668,0.0009995006257668,0.0,0,0.0009995006257668
1778782186.179608,69364743,1,0.000833841622807,0.0009213827433995,0.000859449384734,-0.0019313010852783,-0.001061302376911,-9.81549072265625,0,0,29.027013778686523,1,1,760,800,1.119552,0,0.000859449384734,0.000859449384734,0.0,0,0.000859449384734
1778782186.219592,69404727,0,0.0009640246862545,0.0009651181753724,0.0009401473798789,-0.0015583733329549,-0.0003650040307547,-9.81637191772461,0,0,29.02914428710937,1,1,1000,1000,1.159536,0,0.0009401473798789,0.0009401473798789,0.0,0,0.0009401473798789
1778782186.219592,69404727,1,0.0009795904625207,0.0010749609209597,0.0008853693725541,-0.0028387263882905,-0.0007741039735265,-9.8201265335083,0,0,29.02914428710937,1,1,760,800,1.159536,0,0.0008853693725541,0.0008853693725541,0.0,0,0.0008853693725541
1778782186.259576,69444711,0,0.0010148199507966,0.0009515249403193,0.0010594656923785,-0.0015801873523741,-0.0013572530588135,-9.817253112792969,0,0,29.0312728881836,1,1,1000,1000,1.19952,0,0.0010594656923785,0.0010594656923785,0.0,0,0.0010594656923785
1778782186.259576,69444711,1,0.0010003627976402,0.0010817651636898,0.0007665245793759,-0.0003366176679264,-0.0009025469189509,-9.816654205322266,0,0,29.0312728881836,1,1,760,800,1.19952,0,0.0007665245793759,0.0007665245793759,0.0,0,0.0007665245793759
1778782186.29956,69484695,0,0.0010171713074669,0.0009952313266694,0.0009591958951205,-0.001138016115874,-0.000962168618571,-9.817425727844238,0,0,29.03340148925781,1,1,1000,1000,1.239504,0,0.0009591958951205,0.0009591958951205,0.0,0,0.0009591958951205
1778782186.29956,69484695,1,0.0009839030681177,0.0009702467359602,0.0013673005159944,-0.0018276483751833,-0.005735061597079,-9.815752029418944,0,0,29.03340148925781,1,1,760,800,1.239504,0,0.0013673005159944,0.0013673005159944,0.0,0,0.0013673005159944
1778782186.339544,69524679,0,0.0010045028757303,0.0009327800944447,0.0009720590896904,-0.0011984771117568,-0.0010602421825751,-9.81684684753418,0,0,29.03553009033203,1,1,1000,1000,1.279488,0,0.0009720590896904,0.0009720590896904,0.0,0,0.0009720590896904
1778782186.339544,69524679,1,0.0009601535275578,0.0010096286423504,0.0010768519714474,0.0008950313786044,-0.0009278593934141,-9.818052291870115,0,0,29.03553009033203,1,1,760,800,1.279488,0,0.0010768519714474,0.0010768519714474,0.0,0,0.0010768519714474
1778782186.379528,69564663,0,0.0010198411764577,0.0010069385170936,0.0009242857340723,-0.0001428870746167,-0.0019542963709682,-9.817512512207031,0,0,29.03765869140625,1,1,1000,1000,1.319472,0,0.0009242857340723,0.0009242857340723,0.0,0,0.0009242857340723
1778782186.379528,69564663,1,0.0009380172705277,0.0009796821977943,0.0011245760833844,0.0004717628180515,-0.0010010983096435,-9.816959381103516,0,0,29.03765869140625,1,1,760,800,1.319472,0,0.0011245760833844,0.0011245760833844,0.0,0,0.0011245760833844
1778782186.419512,69604647,0,0.000947569264099,0.0009365986334159,0.0011047759326174,-0.0007472469005733,-0.0008746411767788,-9.818294525146484,0,0,29.03978729248047,1,1,1000,1000,1.359456,0,0.0011047759326174,0.0011047759326174,0.0,0,0.0011047759326174
1778782186.419512,69604647,1,0.001196909812279,0.0009879218414425,0.0008009156445041,-0.0011286406079307,0.0010332314996048,-9.81778621673584,0,0,29.03978729248047,1,1,760,800,1.359456,0,0.0008009156445041,0.0008009156445041,0.0,0,0.0008009156445041
1778782186.459496,69644631,0,0.0010351322125643,0.0010007410310208,0.001043310156092,-0.0009192056604661,-0.0012606724631041,-9.817028999328612,0,0,29.041915893554688,1,1,1000,1000,1.39944,0,0.001043310156092,0.001043310156092,0.0,0,0.001043310156092
1778782186.459496,69644631,1,0.0009151157573796,0.000975721864961,0.0010396032594144,-0.0021038562990725,-0.0009844859596341,-9.816585540771484,0,0,29.041915893554688,1,1,760,800,1.39944,0,0.0010396032594144,0.0010396032594144,0.0,0,0.0010396032594144
1778782186.49948,69684615,0,0.000958445481956,0.0009409650228917,0.000881721090991,-0.0008268571691587,-0.0009850587230175,-9.817087173461914,0,0,29.04404258728028,1,1,1000,1000,1.439424,0,0.000881721090991,0.000881721090991,0.0,0,0.000881721090991
1778782186.49948,69684615,1,0.0009775130311027,0.0011416010092943,0.0011346419341862,-0.0016176679637283,-0.0006123092607595,-9.817587852478027,0,0,29.04404258728028,1,1,760,800,1.439424,0,0.0011346419341862,0.0011346419341862,0.0,0,0.0011346419341862
1778782186.539464,69724599,0,0.0009880047291517,0.0009664521785452,0.0009933947585523,-0.0006519042071886,-0.0004522510571405,-9.817325592041016,0,0,29.04616928100586,1,1,1000,1000,1.479408,0,0.0009933947585523,0.0009933947585523,0.0,0,0.0009933947585523
1778782186.539464,69724599,1,0.0007376240100711,0.0009568610694259,0.0009263485553674,-0.0004740632139146,3.18354504997842e-05,-9.816842079162598,0,0,29.04616928100586,1,1,760,800,1.479408,0,0.0009263485553674,0.0009263485553674,0.0,0,0.0009263485553674
1778782186.5794482,69764583,0,0.0009642175282351,0.0010694180382415,0.0010413244599476,-0.0014302260242402,-0.0011444174451753,-9.818320274353027,0,0,29.04829788208008,1,1,1000,1000,1.519392,0,0.0010413244599476,0.0010413244599476,0.0,0,0.0010413244599476
1778782186.5794482,69764583,1,0.0008791256695985,0.0010243692668154,0.0008575458195991,-0.0008239664020948,0.000299686420476,-9.817121505737305,0,0,29.04829788208008,1,1,760,800,1.519392,0,0.0008575458195991,0.0008575458195991,0.0,0,0.0008575458195991
1778782186.6194322,69804567,0,0.0009946388890966,0.0009800397092476,0.0010182610712945,-0.0006521706236526,-0.0012848596088588,-9.816723823547363,0,0,29.050424575805664,1,1,1000,1000,1.559376,0,0.0010182610712945,0.0010182610712945,0.0,0,0.0010182610712945
1778782186.6194322,69804567,1,0.0011458754306659,0.0008233917178586,0.0011629892978817,-0.0003408804768696,-0.0013761159498244,-9.816486358642578,0,0,29.050424575805664,1,1,760,800,1.559376,0,0.0011629892978817,0.0011629892978817,0.0,0,0.0011629892978817
1778782186.6594162,69844551,0,0.0010111574083566,0.0010041542118415,0.0010161339305341,-0.0006087011424824,-0.001222304534167,-9.818031311035156,0,0,29.052549362182617,1,1,1000,1000,1.59936,0,0.0010161339305341,0.0010161339305341,0.0,0,0.0010161339305341
1778782186.6594162,69844551,1,0.0008770546410232,0.0009046902414411,0.0008972691139206,0.0004843101778533,0.0006924703484401,-9.819272994995115,0,0,29.052549362182617,1,1,760,800,1.59936,0,0.0008972691139206,0.0008972691139206,0.0,0,0.0008972691139206
1778782186.6994,69884535,0,0.0009974061977118,0.0009629706619307,0.0010358729632571,-0.001515683485195,-0.0011353099253028,-9.816645622253418,0,0,29.054676055908203,1,1,1000,1000,1.639344,0,0.0010358729632571,0.0010358729632571,0.0,0,0.0010358729632571
1778782186.6994,69884535,1,0.0010333033278584,0.0008693003910593,0.0011456332867965,-0.0003786054148804,-0.0011985785095021,-9.816617965698242,0,0,29.054676055908203,1,1,760,800,1.639344,0,0.0011456332867965,0.0011456332867965,0.0,0,0.0011456332867965
1778782186.739384,69924519,0,0.0010273072402924,0.0010226673912256,0.000936270749662,-0.0013768099015578,-0.000823252601549,-9.81672477722168,0,0,29.05680084228516,1,1,1000,1000,1.679328,0,0.000936270749662,0.000936270749662,0.0,0,0.000936270749662
1778782186.739384,69924519,1,0.0007404627976939,0.0010264243464916,0.0008223355398513,0.0011731245322152,-0.0011527468450367,-9.816306114196776,0,0,29.05680084228516,1,1,760,800,1.679328,0,0.0008223355398513,0.0008223355398513,0.0,0,0.0008223355398513
1778782186.779368,69964503,0,0.0010405227076262,0.0009497181163169,0.0009206961840391,-0.0019215813372284,-0.0003264459082856,-9.817708969116213,0,0,29.058927536010746,1,1,1000,1000,1.719312,0,0.0009206961840391,0.0009206961840391,0.0,0,0.0009206961840391
1778782186.779368,69964503,1,0.0009382373536936,0.0008404829422943,0.000696207571309,-0.0033547047059983,-8.272226114058867e-05,-9.818102836608888,0,0,29.058927536010746,1,1,760,800,1.719312,0,0.000696207571309,0.000696207571309,0.0,0,0.000696207571309
1778782186.819352,70004487,0,0.0009539523744024,0.0009931210661306,0.0009719001827761,0.0003713987825904,-0.0016007057856768,-9.817456245422363,0,0,29.06105232238769,1,1,1000,1000,1.759296,0,0.0009719001827761,0.0009719001827761,0.0,0,0.0009719001827761
1778782186.819352,70004487,1,0.0010364098707213,0.0008134797681123,0.0010003307834267,0.0003509524976834,0.0011569414054974,-9.818477630615234,0,0,29.06105232238769,1,1,760,800,1.759296,0,0.0010003307834267,0.0010003307834267,0.0,0,0.0010003307834267
1778782186.859336,70044471,0,0.0009332648478448,0.0009194479207508,0.0009595120791345,-0.0011571530485525,-0.0019045282388105,-9.816539764404297,0,0,29.06317901611328,1,1,1000,1000,1.79928,0,0.0009595120791345,0.0009595120791345,0.0,0,0.0009595120791345
1778782186.859336,70044471,1,0.0007858158787712,0.0007445134688168,0.0008388042915612,-0.001757672871463,-0.0034202602691948,-9.818282127380373,0,0,29.06317901611328,1,1,760,800,1.79928,0,0.0008388042915612,0.0008388042915612,0.0,0,0.0008388042915612
1778782186.89932,70084455,0,0.0010812843684107,0.0009897587588056,0.0009294068440794,-0.0008044526330195,-0.0011586570180952,-9.817659378051758,0,0,29.065303802490234,1,1,1000,1000,1.839264,0,0.0009294068440794,0.0009294068440794,0.0,0,0.0009294068440794
1778782186.89932,70084455,1,0.0008854276384226,0.0009128414676524,0.0008367960108444,-0.0010646403534337,0.000699475640431,-9.817028045654297,0,0,29.065303802490234,1,1,760,800,1.839264,0,0.0008367960108444,0.0008367960108444,0.0,0,0.0008367960108444
1778782186.939304,70124439,0,0.0010053047444671,0.0009884678293019,0.0009704441181384,-0.0003711783210746,-0.0004423720529302,-9.8174467086792,0,0,29.067428588867188,1,1,1000,1000,1.879248,0,0.0009704441181384,0.0009704441181384,0.0,0,0.0009704441181384
1778782186.939304,70124439,1,0.0009714014595374,0.0009304284467361,0.0010683679720386,-0.0005039499374106,-0.0017835419857874,-9.819171905517578,0,0,29.067428588867188,1,1,760,800,1.879248,0,0.0010683679720386,0.0010683679720386,0.0,0,0.0010683679720386
1778782186.979288,70164423,0,0.0009453748352825,0.0009420182323083,0.0009399250848218,-0.0001643631112528,-0.0004014111182186,-9.818330764770508,0,0,29.069551467895508,1,1,1000,1000,1.919232,0,0.0009399250848218,0.0009399250848218,0.0,0,0.0009399250848218
1778782186.979288,70164423,1,0.0009911700617522,0.0011799494968727,0.0009511179523542,-0.0038414553273469,-0.0016934296581894,-9.817327499389648,0,0,29.069551467895508,1,1,760,800,1.919232,0,0.0009511179523542,0.0009511179523542,0.0,0,0.0009511179523542
1778782187.019272,70204407,0,0.0010269681224599,0.0009375912486575,0.001061386312358,-0.0003429515054449,-0.0013597125653177,-9.817520141601562,0,0,29.071674346923828,1,1,1000,1000,1.959216,0,0.001061386312358,0.001061386312358,0.0,0,0.001061386312358
1778782187.019272,70204407,1,0.0010390237439423,0.0011685171630233,0.0010816411813721,-0.0020072341430932,-0.001485483138822,-9.817943572998049,0,0,29.071674346923828,1,1,760,800,1.959216,0,0.0010816411813721,0.0010816411813721,0.0,0,0.0010816411813721
1778782187.059256,70244391,0,0.0009982467163354,0.0010029898257926,0.0009901958983391,-0.0010103887179866,-0.001730945543386,-9.818033218383787,0,0,29.07379913330078,1,1,1000,1000,1.9992,0,0.0009901958983391,0.0009901958983391,0.0,0,0.0009901958983391
1778782187.059256,70244391,1,0.0013245327863842,0.0009433353552594,0.0010762884048745,-0.0025246473960578,-0.0010080995270982,-9.816515922546388,0,0,29.07379913330078,1,1,760,800,1.9992,0,0.0010762884048745,0.0010762884048745,0.0,0,0.0010762884048745
1778782187.09924,70284375,0,0.0009768870659172,0.0009657312766648,0.000965176091995,-0.0014574120286852,-0.0014833471504971,-9.817671775817873,0,0,29.07592391967773,1,1,1000,1000,2.039184,0,0.000965176091995,0.000965176091995,0.0,0,0.000965176091995
1778782187.09924,70284375,1,0.0010034525766968,0.0010117964120581,0.0011865149717777,-0.0001014344597933,6.545381620526314e-05,-9.81806755065918,0,0,29.07592391967773,1,1,760,800,2.039184,0,0.0011865149717777,0.0011865149717777,0.0,0,0.0011865149717777
1778782187.139224,70324359,0,0.0010492375586181,0.0009713630424812,0.0010441243648529,-0.0009294972987845,-0.0010138145880773,-9.817633628845217,0,0,29.078044891357425,1,1,1000,1000,2.079168,0,0.0010441243648529,0.0010441243648529,0.0,0,0.0010441243648529
1778782187.139224,70324359,1,0.000995022826828,0.0008796916226856,0.0010781588498502,-0.0005948726320639,-0.0011285750661045,-9.815343856811523,0,0,29.078044891357425,1,1,760,800,2.079168,0,0.0010781588498502,0.0010781588498502,0.0,0,0.0010781588498502
1778782187.180041,70365176,0,0.0009552733972668,0.0009527133661322,0.0010322445305064,-0.0013325370382517,-0.0010606077266857,-9.817166328430176,0,0,29.08016967773437,1,1,1000,1000,2.119985,0,0.0010322445305064,0.0010322445305064,0.0,0,0.0010322445305064
1778782187.180041,70365176,1,0.001087412238121,0.0009496900602243,0.0008169925422407,-0.0021237630862742,-0.0007123118848539,-9.816253662109377,0,0,29.08016967773437,1,1,760,800,2.119985,0,0.0008169925422407,0.0008169925422407,0.0,0,0.0008169925422407
1778782187.220025,70405160,0,0.0009953225962817,0.0010377204744145,0.0010822601616382,-0.0014375391183421,-0.0019186411518603,-9.817994117736816,0,0,29.082290649414062,1,1,1000,1000,2.159969,0,0.0010822601616382,0.0010822601616382,0.0,0,0.0010822601616382
1778782187.220025,70405160,1,0.0006700903759337,0.0007389414822682,0.0009227924747392,-9.673286695033312e-05,-0.0009918909054249,-9.816969871520996,0,0,29.082290649414062,1,1,760,800,2.159969,0,0.0009227924747392,0.0009227924747392,0.0,0,0.0009227924747392
1778782187.260009,70445144,0,0.0010107188718393,0.0008830249425955,0.001030416926369,-0.0012380725238472,-0.0014558713883161,-9.817073822021484,0,0,29.084413528442383,1,1,1000,1000,2.199953,0,0.001030416926369,0.001030416926369,0.0,0,0.001030416926369
1778782187.260009,70445144,1,0.0012843499425798,0.0010059052146971,0.001025257166475,-0.0013701358111575,-0.001848971704021,-9.816377639770508,0,0,29.084413528442383,1,1,760,800,2.199953,0,0.001025257166475,0.001025257166475,0.0,0,0.001025257166475
1778782187.299993,70485128,0,0.0009447635384276,0.0010182949481531,0.0010588717414066,-0.001722493674606,-0.0008292183629237,-9.81707000732422,0,0,29.08653450012207,1,1,1000,1000,2.239937,0,0.0010588717414066,0.0010588717414066,0.0,0,0.0010588717414066
1778782187.299993,70485128,1,0.0010659672552719,0.0009717222419567,0.0009785247966647,-0.0027192160487174,-0.0011689169332385,-9.815905570983888,0,0,29.08653450012207,1,1,760,800,2.239937,0,0.0009785247966647,0.0009785247966647,0.0,0,0.0009785247966647
1778782187.339977,70525112,0,0.0010247436584904,0.0010194627102464,0.0009386866586282,-0.0002721510245464,-0.0013653587084263,-9.817214965820312,0,0,29.08865737915039,1,1,1000,1000,2.279921,0,0.0009386866586282,0.0009386866586282,0.0,0,0.0009386866586282
1778782187.339977,70525112,1,0.0009756429935805,0.0010335965780541,0.0011476319050416,0.0009782395791262,-0.000974423775915,-9.816730499267578,0,0,29.08865737915039,1,1,760,800,2.279921,0,0.0011476319050416,0.0011476319050416,0.0,0,0.0011476319050416
1778782187.379961,70565096,0,0.0009841964347288,0.001046197139658,0.0009727218421176,-0.0010131356539204,-0.0002426048740744,-9.817144393920898,0,0,29.09077835083008,1,1,1000,1000,2.319905,0,0.0009727218421176,0.0009727218421176,0.0,0,0.0009727218421176
1778782187.379961,70565096,1,0.0012301537208259,0.0011938844108954,0.000977631425485,-0.0015458851121366,0.0008880749810487,-9.817797660827637,0,0,29.09077835083008,1,1,760,800,2.319905,0,0.000977631425485,0.000977631425485,0.0,0,0.000977631425485
1778782187.419945,70605080,0,0.0010228999890387,0.0009773045312613,0.0010004320647567,-0.0015157357556745,-0.0027251017745584,-9.81796169281006,0,0,29.09289932250977,1,1,1000,1000,2.359889,0,0.0010004320647567,0.0010004320647567,0.0,0,0.0010004320647567
1778782187.419945,70605080,1,0.0009543593041598,0.0009395168162882,0.0009439195273444,0.0026663895696401,0.0012585223885253,-9.81503677368164,0,0,29.09289932250977,1,1,760,800,2.359889,0,0.0009439195273444,0.0009439195273444,0.0,0,0.0009439195273444
1778782187.4599292,70645064,0,0.0010589060839265,0.0009720058878883,0.0009500506566837,-0.0007755806436762,-0.0009360606200061,-9.817564010620115,0,0,29.09507369995117,1,1,1000,1000,2.399873,0,0.0009500506566837,0.0009500506566837,0.0,0,0.0009500506566837
1778782187.4599292,70645064,1,0.0010749613866209,0.0009114062413573,0.0010069219861179,-0.00192904449068,0.0003326559381093,-9.81747817993164,0,0,29.09507369995117,1,1,760,800,2.399873,0,0.0010069219861179,0.0010069219861179,0.0,0,0.0010069219861179
1778782187.4999132,70685048,0,0.0010019156616181,0.0010208517778664,0.0010531842708587,-0.0003526668879203,-0.0014572421787306,-9.817349433898926,0,0,29.09719467163086,1,1,1000,1000,2.439857,0,0.0010531842708587,0.0010531842708587,0.0,0,0.0010531842708587
1778782187.4999132,70685048,1,0.0007677610265091,0.0010387613438069,0.0009762888075783,0.0004607648879755,0.0002668564266059,-9.819464683532717,0,0,29.09719467163086,1,1,760,800,2.439857,0,0.0009762888075783,0.0009762888075783,0.0,0,0.0009762888075783
1778782187.5398972,70725032,0,0.0009997601155191,0.0009530025999993,0.0010636845836415,-0.0010958272032439,-0.0006313595222309,-9.818527221679688,0,0,29.09931373596192,1,1,1000,1000,2.479841,0,0.0010636845836415,0.0010636845836415,0.0,0,0.0010636845836415
1778782187.5398972,70725032,1,0.0009131603292189,0.0011194192338734,0.0009856288088485,-0.0009664579993113,-0.000176170738996,-9.819598197937012,0,0,29.09931373596192,1,1,760,800,2.479841,0,0.0009856288088485,0.0009856288088485,0.0,0,0.0009856288088485
1778782187.5798812,70765016,0,0.0009524913621135,0.0009762437548488,0.0009608211694285,-0.001413540681824,-0.0008817196357995,-9.819005012512209,0,0,29.10143280029297,1,1,1000,1000,2.519825,0,0.0009608211694285,0.0009608211694285,0.0,0,0.0009608211694285
1778782187.5798812,70765016,1,0.001013180357404,0.0009310193709097,0.0010886277304962,-0.000630400434602,-0.002260276582092,-9.814898490905762,0,0,29.10143280029297,1,1,760,800,2.519825,0,0.0010886277304962,0.0010886277304962,0.0,0,0.0010886277304962
1778782187.6198652,70805000,0,0.0009331637993454,0.0009667776757851,0.0010448200628161,-0.0008745491504669,-0.0016925269737839,-9.817687034606934,0,0,29.103553771972656,1,1,1000,1000,2.559809,0,0.0010448200628161,0.0010448200628161,0.0,0,0.0010448200628161
1778782187.6198652,70805000,1,0.0009383111028,0.0011426818091422,0.0010437523014843,-0.0030082867015153,-0.000508380238898,-9.816495895385742,0,0,29.103553771972656,1,1,760,800,2.559809,0,0.0010437523014843,0.0010437523014843,0.0,0,0.0010437523014843
1778782187.6598492,70844984,0,0.0010384742636233,0.0009938270086422,0.0009435628307983,-0.0004288735217414,-0.0021196184679865,-9.817767143249512,0,0,29.105619430541992,1,1,1000,1000,2.599793,0,0.0009435628307983,0.0009435628307983,0.0,0,0.0009435628307983
1778782187.6598492,70844984,1,0.0009374353685416,0.0010880823247134,0.0010566350538283,-0.0024186598602682,-0.0025731991045176,-9.816146850585938,0,0,29.105619430541992,1,1,760,800,2.599793,0,0.0010566350538283,0.0010566350538283,0.0,0,0.0010566350538283
1778782187.6998332,70884968,0,0.0009487724746577,0.000991809181869,0.0010645759757608,-0.0007305777398869,-0.0017186565091833,-9.816535949707031,0,0,29.107738494873047,1,1,1000,1000,2.639777,0,0.0010645759757608,0.0010645759757608,0.0,0,0.0010645759757608
1778782187.6998332,70884968,1,0.0012474569957703,0.0008115571690723,0.0009607124375179,-0.0017694622511044,-0.0009957903530448,-9.81650161743164,0,0,29.107738494873047,1,1,760,800,2.639777,0,0.0009607124375179,0.0009607124375179,0.0,0,0.0009607124375179
1778782187.7398171,70924952,0,0.0010460928315296,0.0009549796814098,0.0009575865697115,-0.0015058164717629,-0.0004451966960914,-9.81655979156494,0,0,29.10985946655273,1,1,1000,1000,2.679761,0,0.0009575865697115,0.0009575865697115,0.0,0,0.0009575865697115
1778782187.7398171,70924952,1,0.0011143336305394,0.0010768722277134,0.0008749627158977,0.0008583003655076,-0.0009033937822096,-9.818035125732422,0,0,29.10985946655273,1,1,760,800,2.679761,0,0.0008749627158977,0.0008749627158977,0.0,0,0.0008749627158977
1778782187.7798011,70964936,0,0.0010511321015655,0.0010519050993025,0.0009792956989258,-0.0004879203042946,-0.000881340005435,-9.81710147857666,0,0,29.11197662353516,1,1,1000,1000,2.719745,0,0.0009792956989258,0.0009792956989258,0.0,0,0.0009792956989258
1778782187.7798011,70964936,1,0.0008669384988024,0.0012384603032842,0.0011100803967565,-0.0030836667865514,-0.0014284758362919,-9.817679405212402,0,0,29.11197662353516,1,1,760,800,2.719745,0,0.0011100803967565,0.0011100803967565,0.0,0,0.0011100803967565
1778782187.819785,71004920,0,0.0009789457544684,0.0009962208569049,0.0009859704878181,-0.0006850338540971,-0.0015841899439692,-9.816766738891602,0,0,29.11409378051757,1,1,1000,1000,2.759729,0,0.0009859704878181,0.0009859704878181,0.0,0,0.0009859704878181
1778782187.819785,71004920,1,0.0010663336142897,0.0009849779307842,0.0007024160586297,-0.000447794329375,-0.0016897657187655,-9.81800365447998,0,0,29.11409378051757,1,1,760,800,2.759729,0,0.0007024160586297,0.0007024160586297,0.0,0,0.0007024160586297
1778782187.859769,71044904,0,0.0009877416305243,0.0009455464896745,0.0010301064467057,-0.0007589029264636,-0.0005999560235068,-9.81745433807373,0,0,29.1162109375,1,1,1000,1000,2.799713,0,0.0010301064467057,0.0010301064467057,0.0,0,0.0010301064467057
1778782187.859769,71044904,1,0.0010760225122794,0.0012390438932925,0.0009923061588779,0.000408356252592,-0.0018805169966071,-9.81689453125,0,0,29.1162109375,1,1,760,800,2.799713,0,0.0009923061588779,0.0009923061588779,0.0,0,0.0009923061588779
1778782187.899753,71084888,0,0.0010031951824203,0.0009514827397651,0.0010324019240215,-0.0011324390070512,-0.001415119622834,-9.818842887878418,0,0,29.11833000183105,1,1,1000,1000,2.839697,0,0.0010324019240215,0.0010324019240215,0.0,0,0.0010324019240215
1778782187.899753,71084888,1,0.0008108492475003,0.0008778673363849,0.001091341371648,-0.000680687429849,-0.0015293075703084,-9.818780899047852,0,0,29.11833000183105,1,1,760,800,2.839697,0,0.001091341371648,0.001091341371648,0.0,0,0.001091341371648
1778782187.939737,71124872,0,0.0010427222587168,0.000980794429779,0.0009920268785208,-0.0013310991926118,-0.0002583099994808,-9.817981719970703,0,0,29.12044715881348,1,1,1000,1000,2.879681,0,0.0009920268785208,0.0009920268785208,0.0,0,0.0009920268785208
1778782187.939737,71124872,1,0.0012745297281071,0.0010745726758614,0.0011561547871679,-0.0003818451077677,-0.0023301797918975,-9.81576156616211,0,0,29.12044715881348,1,1,760,800,2.879681,0,0.0011561547871679,0.0011561547871679,0.0,0,0.0011561547871679
1778782187.979721,71164856,0,0.0010583547409623,0.0010087382979691,0.0009788015158846,-0.0016917861066758,-0.0011685078497976,-9.818304061889648,0,0,29.1225643157959,1,1,1000,1000,2.919665,0,0.0009788015158846,0.0009788015158846,0.0,0,0.0009788015158846
1778782187.979721,71164856,1,0.0011925770668312,0.0011237405706197,0.0012555173598229,-0.0026953513734042,0.0004606576985679,-9.817708969116213,0,0,29.1225643157959,1,1,760,800,2.919665,0,0.0012555173598229,0.0012555173598229,0.0,0,0.0012555173598229
1778782188.019705,71204840,0,0.0010453348513692,0.0009954946581274,0.001019618823193,-0.0011159324785694,-0.0003070007078349,-9.816993713378906,0,0,29.12468147277832,1,1,1000,1000,2.959649,0,0.001019618823193,0.001019618823193,0.0,0,0.001019618823193
1778782188.019705,71204840,1,0.0007887027459219,0.0008882888359948,0.0011911893961951,0.002444181125611,-0.0006555998697876,-9.816713333129885,0,0,29.12468147277832,1,1,760,800,2.959649,0,0.0011911893961951,0.0011911893961951,0.0,0,0.0011911893961951
1778782188.059689,71244824,0,0.0010513811139389,0.0010844056960195,0.0009857125114649,-0.0022637287620455,-0.0004593065823428,-9.816749572753906,0,0,29.12679672241211,1,1,1000,1000,2.999633,0,0.0009857125114649,0.0009857125114649,0.0,0,0.0009857125114649
1778782188.059689,71244824,1,0.0009741971152834,0.0010941168293356,0.0009154576109722,-0.0024165962822735,-0.0019437584560364,-9.816041946411133,0,0,29.12679672241211,1,1,760,800,2.999633,0,0.0009154576109722,0.0009154576109722,0.0,0,0.0009154576109722
1778782188.099673,71284808,0,0.0009896688861772,0.000950246816501,0.0010239639086648,-0.0022692398633807,-0.0021139131858944,-9.818608283996582,0,0,29.12891387939453,1,1,1000,1000,3.039617,0,0.0010239639086648,0.0010239639086648,0.0,0,0.0010239639086648
1778782188.099673,71284808,1,0.0010639645624905,0.0010350898373872,0.0010123817482963,-0.0008606815827079,0.0002175698755308,-9.81680965423584,0,0,29.12891387939453,1,1,760,800,3.039617,0,0.0010123817482963,0.0010123817482963,0.0,0,0.0010123817482963
1778782188.139657,71324792,0,0.0009874097304418,0.0010088888229802,0.0009932621615007,-0.0009257699130102,-0.0002645609492901,-9.816102981567385,0,0,29.13103103637696,1,1,1000,1000,3.079601,0,0.0009932621615007,0.0009932621615007,0.0,0,0.0009932621615007
1778782188.139657,71324792,1,0.0010217365343123,0.0009846973698586,0.0010411444818601,-0.0025098929181694,-0.0016760777216404,-9.816109657287598,0,0,29.13103103637696,1,1,760,800,3.079601,0,0.0010411444818601,0.0010411444818601,0.0,0,0.0010411444818601
1778782188.179641,71364776,0,0.0010058309417217,0.0010431540431454,0.0010039204498752,-0.0011588000925257,-0.0007655640365555,-9.81706428527832,0,0,29.133146286010746,1,1,1000,1000,3.119585,0,0.0010039204498752,0.0010039204498752,0.0,0,0.0010039204498752
1778782188.179641,71364776,1,0.0009248058777302,0.0010235669324174,0.0010049936827272,-0.0026020121295005,-0.0007754341932013,-9.815725326538086,0,0,29.133146286010746,1,1,760,800,3.119585,0,0.0010049936827272,0.0010049936827272,0.0,0,0.0010049936827272
1778782188.219625,71404760,0,0.0010668328031897,0.0010426617227494,0.0009773997589945,-0.0012350397882983,-0.0002564967726357,-9.816308975219728,0,0,29.13526153564453,1,1,1000,1000,3.159569,0,0.0009773997589945,0.0009773997589945,0.0,0,0.0009773997589945
1778782188.219625,71404760,1,0.0008805012330412,0.0008975389646366,0.0008825003169476,-7.183891284512356e-05,-0.0013846503570675,-9.818187713623049,0,0,29.13526153564453,1,1,760,800,3.159569,0,0.0008825003169476,0.0008825003169476,0.0,0,0.0008825003169476
1778782188.2596092,71444744,0,0.0009971170220524,0.0010079307248815,0.0009948688093572,-0.0016825690399855,-0.0004523991956375,-9.817102432250977,0,0,29.13737678527832,1,1,1000,1000,3.199553,0,0.0009948688093572,0.0009948688093572,0.0,0,0.0009948688093572
1778782188.2596092,71444744,1,0.0007535484619438,0.0008849838050082,0.0013671871274709,-0.002210256177932,0.0010081033688038,-9.81946086883545,0,0,29.13737678527832,1,1,760,800,3.199553,0,0.0013671871274709,0.0013671871274709,0.0,0,0.0013671871274709
1778782188.2995932,71484728,0,0.0009484565234743,0.0009517223807051,0.0009641959914006,-0.0009006334003061,-0.0004361647297628,-9.818422317504885,0,0,29.13949203491211,1,1,1000,1000,3.239537,0,0.0009641959914006,0.0009641959914006,0.0,0,0.0009641959914006
1778782188.2995932,71484728,1,0.0009563901112414,0.0009896531701087,0.0009405673481523,4.278754204278812e-05,-0.0005251223919913,-9.818140983581545,0,0,29.13949203491211,1,1,760,800,3.239537,0,0.0009405673481523,0.0009405673481523,0.0,0,0.0009405673481523
1778782188.3395772,71524712,0,0.0010416728910058,0.0009987723315134,0.0010444866493344,-0.000937350501772,-0.0004918727790936,-9.816542625427246,0,0,29.141605377197266,1,1,1000,1000,3.279521,0,0.0010444866493344,0.0010444866493344,0.0,0,0.0010444866493344
1778782188.3395772,71524712,1,0.0008211858803406,0.0008781144279055,0.0009457950945943,-0.0018141911132261,-0.0012689979048445,-9.82095718383789,0,0,29.141605377197266,1,1,760,800,3.279521,0,0.0009457950945943,0.0009457950945943,0.0,0,0.0009457950945943
1778782188.3795612,71564696,0,0.0009301770478487,0.0010155488271266,0.0011071464978158,-0.0006532419356517,-0.0003910770756192,-9.817618370056152,0,0,29.14372062683105,1,1,1000,1000,3.319505,0,0.0011071464978158,0.0011071464978158,0.0,0,0.0011071464978158
1778782188.3795612,71564696,1,0.0009791085030883,0.0009173818398267,0.0010070216376334,-0.0009034790564328,-0.0038988168817013,-9.818017959594728,0,0,29.14372062683105,1,1,760,800,3.319505,0,0.0010070216376334,0.0010070216376334,0.0,0,0.0010070216376334
1778782188.4195452,71604680,0,0.0010093817254528,0.0009678039932623,0.0009991666302084,-0.0013529709540307,-0.0008162150043062,-9.817392349243164,0,0,29.14583396911621,1,1,1000,1000,3.359489,0,0.0009991666302084,0.0009991666302084,0.0,0,0.0009991666302084
1778782188.4195452,71604680,1,0.0008807111298665,0.0008810863364487,0.001132040284574,-0.0026232269592583,-0.0011382387019693,-9.817253112792969,0,0,29.14583396911621,1,1,760,800,3.359489,0,0.001132040284574,0.001132040284574,0.0,0,0.001132040284574
1778782188.4595292,71644664,0,0.0010033239377662,0.001049903454259,0.0010729702189564,-0.0005531618953682,-0.0012967870570719,-9.817606925964355,0,0,29.14794921875,1,1,1000,1000,3.399473,0,0.0010729702189564,0.0010729702189564,0.0,0,0.0010729702189564
1778782188.4595292,71644664,1,0.0009982358897104,0.0011206886265426,0.0009881041478365,-0.0002441690594423,-0.0033460999839007,-9.820394515991213,0,0,29.14794921875,1,1,760,800,3.399473,0,0.0009881041478365,0.0009881041478365,0.0,0,0.0009881041478365
1778782188.4995131,71684648,0,0.0010090086143463,0.0009399205446243,0.0009876283584162,-0.0006561866612173,-0.0017057966906577,-9.818910598754885,0,0,29.15006256103516,1,1,1000,1000,3.439457,0,0.0009876283584162,0.0009876283584162,0.0,0,0.0009876283584162
1778782188.4995131,71684648,1,0.0009693230967968,0.0010574404150247,0.0008330940036103,-0.0037757540121674,0.0006949998787604,-9.816906929016112,0,0,29.15006256103516,1,1,760,800,3.439457,0,0.0008330940036103,0.0008330940036103,0.0,0,0.0008330940036103
1778782188.5394971,71724632,0,0.0010611183242872,0.0011057128431275,0.001012269873172,0.0001273943635169,-0.0009775222279131,-9.816672325134276,0,0,29.152175903320312,1,1,1000,1000,3.479441,0,0.001012269873172,0.001012269873172,0.0,0,0.001012269873172
1778782188.5394971,71724632,1,0.000816568150185,0.0010263957083225,0.0012959167361259,-0.0015446873148903,-0.0011383213568478,-9.817630767822266,0,0,29.152175903320312,1,1,760,800,3.479441,0,0.0012959167361259,0.0012959167361259,0.0,0,0.0012959167361259
1778782188.5794811,71764616,0,0.0008866262505762,0.0009594367584213,0.0010458412580192,-0.002168915932998,-0.0009721817914396,-9.817861557006836,0,0,29.15428733825684,1,1,1000,1000,3.519425,0,0.0010458412580192,0.0010458412580192,0.0,0,0.0010458412580192
1778782188.5794811,71764616,1,0.0010960050858557,0.0010739200515672,0.0010160863166674,-0.0023038641083985,-0.0014306813245639,-9.818792343139648,0,0,29.15428733825684,1,1,760,800,3.519425,0,0.0010160863166674,0.0010160863166674,0.0,0,0.0010160863166674
1778782188.619465,71804600,0,0.0010104663670063,0.0009891202207654,0.0010039056651294,-0.0021535158157348,-0.0001990832970477,-9.817282676696776,0,0,29.156400680541992,1,1,1000,1000,3.559409,0,0.0010039056651294,0.0010039056651294,0.0,0,0.0010039056651294
1778782188.619465,71804600,1,0.0007885413942858,0.0011131990468129,0.0010673715732991,-0.0012889985227957,-0.0007095073233358,-9.817169189453123,0,0,29.156400680541992,1,1,760,800,3.559409,0,0.0010673715732991,0.0010673715732991,0.0,0,0.0010673715732991
1778782188.659449,71844584,0,0.0010182941332459,0.0010250979103147,0.0010701577411964,-0.0009023420279845,0.0003853339876513,-9.81796646118164,0,0,29.15851211547852,1,1,1000,1000,3.599393,0,0.0010701577411964,0.0010701577411964,0.0,0,0.0010701577411964
1778782188.659449,71844584,1,0.0008713335264474,0.0009682544623501,0.000983327277936,-0.0023265182971954,-0.001661735586822,-9.817458152770996,0,0,29.15851211547852,1,1,760,800,3.599393,0,0.000983327277936,0.000983327277936,0.0,0,0.000983327277936
1778782188.699433,71884568,0,0.001057626795955,0.0009770522592589,0.0009925013873726,-0.0023724765051156,-0.0016900689806789,-9.816301345825195,0,0,29.160625457763672,1,1,1000,1000,3.639377,0,0.0009925013873726,0.0009925013873726,0.0,0,0.0009925013873726
1778782188.699433,71884568,1,0.000945670180954,0.0011582493316382,0.001192046678625,-0.0002013601188082,-0.0021962039172649,-9.817245483398438,0,0,29.160625457763672,1,1,760,800,3.639377,0,0.001192046678625,0.001192046678625,0.0,0,0.001192046678625
1778782188.739417,71924552,0,0.0010237933602184,0.0010617051739245,0.0010053213918581,-0.0005750731215812,-0.0015896779950708,-9.816997528076172,0,0,29.162736892700195,1,1,1000,1000,3.679361,0,0.0010053213918581,0.0010053213918581,0.0,0,0.0010053213918581
1778782188.739417,71924552,1,0.0010371441021561,0.0009223268134519,0.0009261587983928,-0.001382443588227,0.0001406222581863,-9.81746768951416,0,0,29.162736892700195,1,1,760,800,3.679361,0,0.0009261587983928,0.0009261587983928,0.0,0,0.0009261587983928
1778782188.779401,71964536,0,0.001027516555041,0.0010086323600262,0.0009871067013591,7.009296678006649e-05,-0.000519192428328,-9.818275451660156,0,0,29.16484832763672,1,1,1000,1000,3.719345,0,0.0009871067013591,0.0009871067013591,0.0,0,0.0009871067013591
1778782188.779401,71964536,1,0.0011622866149991,0.0010624508140608,0.0009919994045048,-0.0004889711271971,-0.0037212851457297,-9.81640338897705,0,0,29.16484832763672,1,1,760,800,3.719345,0,0.0009919994045048,0.0009919994045048,0.0,0,0.0009919994045048
1778782188.819385,72004520,0,0.0010761646553874,0.0010147554567083,0.0010089094284921,-0.0002223410847363,-0.0004777158028446,-9.816996574401855,0,0,29.16695976257324,1,1,1000,1000,3.759329,0,0.0010089094284921,0.0010089094284921,0.0,0,0.0010089094284921
1778782188.819385,72004520,1,0.0009661127696745,0.0009597592870704,0.0011503847781568,-0.0020401391666382,-0.0008759789634495,-9.81574821472168,0,0,29.16695976257324,1,1,760,800,3.759329,0,0.0011503847781568,0.0011503847781568,0.0,0,0.0011503847781568
1778782188.859369,72044504,0,0.001056840759702,0.0010026306845247,0.0009668667335063,-0.0009067313512787,-0.0003798810357693,-9.818435668945312,0,0,29.16907119750977,1,1,1000,1000,3.799313,0,0.0009668667335063,0.0009668667335063,0.0,0,0.0009668667335063
1778782188.859369,72044504,1,0.0010347553761675,0.0009731731843203,0.0011360875796526,-0.0013807751238346,-0.0028888152446597,-9.815546035766602,0,0,29.16907119750977,1,1,760,800,3.799313,0,0.0011360875796526,0.0011360875796526,0.0,0,0.0011360875796526
1778782188.899353,72084488,0,0.0010389504022896,0.0010063850786536,0.0009805778972804,-5.8180656196782365e-05,-0.0004124859697185,-9.81833267211914,0,0,29.171180725097656,1,1,1000,1000,3.839297,0,0.0009805778972804,0.0009805778972804,0.0,0,0.0009805778972804
1778782188.899353,72084488,1,0.0008711822447367,0.0010283663868904,0.0012337147491052,-0.0005410516750998,-0.0013195583596825,-9.818567276000977,0,0,29.171180725097656,1,1,760,800,3.839297,0,0.0012337147491052,0.0012337147491052,0.0,0,0.0012337147491052
1778782188.939337,72124472,0,0.0009963456541299,0.0009932182729244,0.0010277178371325,-0.0009127446683123,-0.0010512153385207,-9.818178176879885,0,0,29.17329216003418,1,1,1000,1000,3.879281,0,0.0010277178371325,0.0010277178371325,0.0,0,0.0010277178371325
1778782188.939337,72124472,1,0.0012480339501053,0.0009131660917773,0.0011851206654682,-0.0003544241772033,-0.0008110353373922,-9.817779541015623,0,0,29.17329216003418,1,1,760,800,3.879281,0,0.0011851206654682,0.0011851206654682,0.0,0,0.0011851206654682
1778782188.979321,72164456,0,0.0010565733537077,0.0010517181362956,0.0010128567228093,-0.0018420343985781,-0.0001674995583016,-9.818565368652344,0,0,29.17540168762207,1,1,1000,1000,3.919265,0,0.0010128567228093,0.0010128567228093,0.0,0,0.0010128567228093
1778782188.979321,72164456,1,0.0011189458891749,0.0010148793226107,0.0009999184403568,-0.0010280376300215,-0.0032335533760488,-9.81492805480957,0,0,29.17540168762207,1,1,760,800,3.919265,0,0.0009999184403568,0.0009999184403568,0.0,0,0.0009999184403568
1778782189.0193052,72204440,0,0.0010455331066623,0.0010236361995339,0.0010845789220184,-0.0011259402381256,-0.001860779011622,-9.816255569458008,0,0,29.17751121520996,1,1,1000,1000,3.959249,0,0.0010845789220184,0.0010845789220184,0.0,0,0.0010845789220184
1778782189.0193052,72204440,1,0.0007159874076023,0.0009368857135996,0.0010741270380094,-0.0001329744409304,-0.0029375804588198,-9.81820583343506,0,0,29.17751121520996,1,1,760,800,3.959249,0,0.0010741270380094,0.0010741270380094,0.0,0,0.0010741270380094
1778782189.0592892,72244424,0,0.0010807779617607,0.0010019526816904,0.0009131322149187,-0.0003155797894578,-0.001770723843947,-9.816570281982422,0,0,29.17962074279785,1,1,1000,1000,3.999233,0,0.0009131322149187,0.0009131322149187,0.0,0,0.0009131322149187
1778782189.0592892,72244424,1,0.001164288027212,0.0010140070226043,0.000653272611089,-0.0008784743258729,-0.0009140088804997,-9.816737174987791,0,0,29.17962074279785,1,1,760,800,3.999233,0,0.000653272611089,0.000653272611089,0.0,0,0.000653272611089
1778782189.0992732,72284408,0,0.0010254803346469,0.0011196811683475,0.0010133974719792,-0.0008376673795282,-0.0004477657785173,-9.81809902191162,0,0,29.18172836303711,1,1,1000,1000,4.039217,0,0.0010133974719792,0.0010133974719792,0.0,0,0.0010133974719792
1778782189.0992732,72284408,1,0.0010496017057448,0.0011556835379451,0.0011944085126742,-0.0012395191006362,-0.0015237771440297,-9.818058013916016,0,0,29.18172836303711,1,1,760,800,4.039217,0,0.0011944085126742,0.0011944085126742,0.0,0,0.0011944085126742
1778782189.1392572,72324392,0,0.0010729011846706,0.0010432039853185,0.0010827368823811,-0.0026531335897743,-0.0006900517037138,-9.817501068115234,0,0,29.18383979797364,1,1,1000,1000,4.079201,0,0.0010827368823811,0.0010827368823811,0.0,0,0.0010827368823811
1778782189.1392572,72324392,1,0.0010912803700193,0.0010903497459366,0.0010168589651584,0.0016368483193218,0.0007729436620138,-9.819509506225586,0,0,29.18383979797364,1,1,760,800,4.079201,0,0.0010168589651584,0.0010168589651584,0.0,0,0.0010168589651584
1778782189.1792412,72364376,0,0.0009915137197822,0.0010421125916764,0.0009737773216329,-0.0016495094168931,-0.001862151781097,-9.817293167114258,0,0,29.18594741821289,1,1,1000,1000,4.119185,0,0.0009737773216329,0.0009737773216329,0.0,0,0.0009737773216329
1778782189.1792412,72364376,1,0.0013229539617896,0.0011444403789937,0.0008301550988107,-0.0016419549938291,0.0001119113221648,-9.81870460510254,0,0,29.18594741821289,1,1,760,800,4.119185,0,0.0008301550988107,0.0008301550988107,0.0,0,0.0008301550988107
1778782189.2192252,72404360,0,0.0009273147443309,0.0010916870087385,0.0010581410024315,-0.0011978681432083,-0.0002301243221154,-9.81747817993164,0,0,29.18805694580078,1,1,1000,1000,4.159169,0,0.0010581410024315,0.0010581410024315,0.0,0,0.0010581410024315
1778782189.2192252,72404360,1,0.001092727528885,0.0011063772253692,0.0010052893776446,-0.0011183505412191,-0.0006868915515951,-9.817425727844238,0,0,29.18805694580078,1,1,760,800,4.159169,0,0.0010052893776446,0.0010052893776446,0.0,0,0.0010052893776446
1778782189.260042,72445177,0,0.0010296870023012,0.0010417974554002,0.0010524333920329,-0.0009885958861559,-0.0018299084622412,-9.817736625671388,0,0,29.19016456604004,1,1,1000,1000,4.199986,0,0.0010524333920329,0.0010524333920329,0.0,0,0.0010524333920329
1778782189.260042,72445177,1,0.001131952740252,0.001133166020736,0.001009355764836,-3.326204023323953e-06,-0.0018971469253301,-9.818758964538574,0,0,29.19016456604004,1,1,760,800,4.199986,0,0.001009355764836,0.001009355764836,0.0,0,0.001009355764836
1778782189.300026,72485161,0,0.0010124334366992,0.0010604634881019,0.0010059381602331,-0.0010998707730323,-0.0011498685926198,-9.818473815917969,0,0,29.192272186279297,1,1,1000,1000,4.23997,0,0.0010059381602331,0.0010059381602331,0.0,0,0.0010059381602331
1778782189.300026,72485161,1,0.0010100387735292,0.0008902526460587,0.0010054839076474,-0.0038689072243869,-0.0019756634719669,-9.815507888793944,0,0,29.192272186279297,1,1,760,800,4.23997,0,0.0010054839076474,0.0010054839076474,0.0,0,0.0010054839076474
1778782189.34001,72525145,0,0.0009670810541138,0.0009944658959284,0.0010108522837981,0.0002840595261659,-0.0007923410157673,-9.816481590270996,0,0,29.194379806518555,1,1,1000,1000,4.279954,0,0.0010108522837981,0.0010108522837981,0.0,0,0.0010108522837981
1778782189.34001,72525145,1,0.0010193424532189,0.0010067950934171,0.0011417407076805,3.8280453736661e-05,0.0004988596774637,-9.818472862243652,0,0,29.194379806518555,1,1,760,800,4.279954,0,0.0011417407076805,0.0011417407076805,0.0,0,0.0011417407076805
1778782189.379994,72565129,0,0.0010058028856292,0.0009669446735642,0.0010574625339359,-0.0012153818970546,-0.0007903894293121,-9.818330764770508,0,0,29.19648742675781,1,1,1000,1000,4.319938,0,0.0010574625339359,0.0010574625339359,0.0,0,0.0010574625339359
1778782189.379994,72565129,1,0.0009016235126182,0.0009184021037071,0.0008975451346486,0.0019446088699623,-4.104485924472101e-06,-9.818137168884276,0,0,29.19648742675781,1,1,760,800,4.319938,0,0.0008975451346486,0.0008975451346486,0.0,0,0.0008975451346486
1778782189.419978,72605113,0,0.0009423966403119,0.0011284690117463,0.0010858576279133,-0.0006165640079416,-0.0010635324288159,-9.817774772644045,0,0,29.19859313964844,1,1,1000,1000,4.359922,0,0.0010858576279133,0.0010858576279133,0.0,0,0.0010858576279133
1778782189.419978,72605113,1,0.0008219080045819,0.0008736738236621,0.0011248691007494,-0.0012389400508254,-0.0014853801112622,-9.817930221557615,0,0,29.19859313964844,1,1,760,800,4.359922,0,0.0011248691007494,0.0011248691007494,0.0,0,0.0011248691007494
1778782189.459962,72645097,0,0.0010669762268662,0.0010544219985604,0.0009870624635368,-0.0003486472123768,-0.0003140674380119,-9.817864418029783,0,0,29.20070075988769,1,1,1000,1000,4.399906,0,0.0009870624635368,0.0009870624635368,0.0,0,0.0009870624635368
1778782189.459962,72645097,1,0.0011368755949661,0.0010277749970555,0.0010451702401041,-0.0024775273632258,-0.0030413644853979,-9.817602157592772,0,0,29.20070075988769,1,1,760,800,4.399906,0,0.0010451702401041,0.0010451702401041,0.0,0,0.0010451702401041
1778782189.499946,72685081,0,0.0010166768915951,0.0010334756225347,0.0011499912943691,-0.0008694324060343,-0.0013702869182452,-9.817131996154783,0,0,29.20280647277832,1,1,1000,1000,4.43989,0,0.0011499912943691,0.0011499912943691,0.0,0,0.0011499912943691
1778782189.499946,72685081,1,0.0012072360841557,0.0009987236699089,0.0008094455115497,-0.0028867973014712,0.0002855049096979,-9.819931983947754,0,0,29.20280647277832,1,1,760,800,4.43989,0,0.0008094455115497,0.0008094455115497,0.0,0,0.0008094455115497
1778782189.53993,72725065,0,0.0010711085051298,0.0010152491740882,0.0009895177790895,-0.0012973850825801,-0.0004260693967808,-9.818044662475586,0,0,29.204965591430664,1,1,1000,1000,4.479874,0,0.0009895177790895,0.0009895177790895,0.0,0,0.0009895177790895
1778782189.53993,72725065,1,0.001057730638422,0.0009322900441475,0.001006469130516,-0.0024979310110211,-0.002972969552502,-9.820658683776855,0,0,29.204965591430664,1,1,760,800,4.479874,0,0.001006469130516,0.001006469130516,0.0,0,0.001006469130516
1778782189.579914,72765049,0,0.0010888485703617,0.001023982767947,0.0010402456391602,-0.0006046692724339,-0.0012349545722827,-9.816360473632812,0,0,29.20707321166992,1,1,1000,1000,4.519858,0,0.0010402456391602,0.0010402456391602,0.0,0,0.0010402456391602
1778782189.579914,72765049,1,0.0008029649034142,0.001028332626447,0.0008702845079824,0.0020777753088623,0.0003136036393698,-9.817789077758787,0,0,29.20707321166992,1,1,760,800,4.519858,0,0.0008702845079824,0.0008702845079824,0.0,0,0.0008702845079824
1778782189.619898,72805033,0,0.0010617292718961,0.0010833065025508,0.0010279953712597,-0.0019888086244463,-0.0009619705379009,-9.816753387451172,0,0,29.20917701721192,1,1,1000,1000,4.559842,0,0.0010279953712597,0.0010279953712597,0.0,0,0.0010279953712597
1778782189.619898,72805033,1,0.0010978899663314,0.0010303920134902,0.0010910155251622,-0.0014844667166471,0.0003524328640196,-9.816146850585938,0,0,29.20917701721192,1,1,760,800,4.559842,0,0.0010910155251622,0.0010910155251622,0.0,0,0.0010910155251622
1778782189.659882,72845017,0,0.0010081973159685,0.0009669357677921,0.0010394918499514,0.0001079516659956,-0.0012150714173913,-9.817248344421388,0,0,29.21128273010254,1,1,1000,1000,4.599826,0,0.0010394918499514,0.0010394918499514,0.0,0,0.0010394918499514
1778782189.659882,72845017,1,0.0008708937093615,0.0009932703105732,0.0009705083211883,-7.179146632552147e-05,-0.0015540623571723,-9.818264961242676,0,0,29.21128273010254,1,1,760,800,4.599826,0,0.0009705083211883,0.0009705083211883,0.0,0,0.0009705083211883
1778782189.699866,72885001,0,0.0009724328410811,0.0010101306252181,0.0010266252793371,-0.0019008992239832,-0.0013005952350795,-9.816877365112305,0,0,29.213388442993164,1,1,1000,1000,4.63981,0,0.0010266252793371,0.0010266252793371,0.0,0,0.0010266252793371
1778782189.699866,72885001,1,0.0009143410134129,0.0011419889051467,0.000990149914287,-0.0034370869398117,-0.0018174819415435,-9.819799423217772,0,0,29.213388442993164,1,1,760,800,4.63981,0,0.000990149914287,0.000990149914287,0.0,0,0.000990149914287
1778782189.73985,72924985,0,0.0011374001624062,0.0010792382527142,0.0010710211936384,-0.0008936361409723,-0.001460981904529,-9.81718635559082,0,0,29.21543884277344,1,1,1000,1000,4.679794,0,0.0010710211936384,0.0010710211936384,0.0,0,0.0010710211936384
1778782189.73985,72924985,1,0.0012943488545715,0.001035104971379,0.0010409352835267,-1.4389192983799148e-05,-0.0021819076500833,-9.81670379638672,0,0,29.21543884277344,1,1,760,800,4.679794,0,0.0010409352835267,0.0010409352835267,0.0,0,0.0010409352835267
