timestamp,TimeUS,I,Alt,AltAMSL,Press,Temp,CRt,SMS,Offset,GndTemp,H,CPress,TimeSec,AttackActive_BARO,Alt_attacked,SoftwareSensor_Alt,Residual_Alt,DetectionFlag_Alt,Recovered_Alt
1778785729.9591827,71144031,0,0.00372314453125,584.0936889648438,94502.828125,30.62,0.0,71144,0.0,28.02182960510254,1,94502.828125,0.0,0,0.00372314453125,0.00372314453125,0.0,0,0.00372314453125
1778785729.9591827,71144031,1,-0.04901123046875,584.0409545898438,94502.1640625,30.62,0.0,71144,0.0,28.02182960510254,1,94502.1640625,0.0,0,-0.04901123046875,-0.04901123046875,0.0,0,-0.04901123046875
1778785730.059976,71244824,0,0.00372314453125,584.0936889648438,94502.828125,30.63,0.0,71244,0.0,28.02182960510254,1,94502.828125,0.100793,0,0.00372314453125,0.00372314453125,0.0,0,0.00372314453125
1778785730.059976,71244824,1,-0.18133544921875,583.9086303710938,94503.6640625,30.63,0.0,71244,0.0,28.02182960510254,1,94503.6640625,0.100793,0,-0.18133544921875,-0.18133544921875,0.0,0,-0.18133544921875
1778785730.159936,71344784,0,0.00372314453125,584.0936889648438,94502.828125,30.63,0.0,71344,0.0,28.02182960510254,1,94502.828125,0.200753,0,0.00372314453125,0.00372314453125,0.0,0,0.00372314453125
1778785730.159936,71344784,1,-0.04901123046875,584.0409545898438,94502.1640625,30.63,0.0,71344,0.0,28.02182960510254,1,94502.1640625,0.200753,0,-0.04901123046875,-0.04901123046875,0.0,0,-0.04901123046875
1778785730.259896,71444744,0,0.00372314453125,584.0936889648438,94502.828125,30.63,0.0,71444,0.0,28.02182960510254,1,94502.828125,0.300713,0,0.00372314453125,0.00372314453125,0.0,0,0.00372314453125
1778785730.259896,71444744,1,-0.26092529296875,583.8290405273438,94504.5625,30.63,0.0,71444,0.0,28.02182960510254,1,94504.5625,0.300713,0,-0.26092529296875,-0.26092529296875,0.0,0,-0.26092529296875
1778785730.359856,71544704,0,0.00372314453125,584.0936889648438,94502.828125,30.63,0.0,71544,0.0,28.02182960510254,1,94502.828125,0.400673,0,0.00372314453125,0.00372314453125,0.0,0,0.00372314453125
1778785730.359856,71544704,1,0.0628662109375,584.15283203125,94500.890625,30.63,0.0,71544,0.0,28.02182960510254,1,94500.890625,0.400673,0,0.0628662109375,0.0628662109375,0.0,0,0.0628662109375
1778785730.459816,71644664,0,0.00372314453125,584.0936889648438,94502.828125,30.63,0.0,71644,0.0,28.02182960510254,1,94502.828125,0.500633,0,0.00372314453125,0.00372314453125,0.0,0,0.00372314453125
1778785730.459816,71644664,1,0.06866455078125,584.1586303710938,94500.828125,30.63,0.0,71644,0.0,28.02182960510254,1,94500.828125,0.500633,0,0.06866455078125,0.06866455078125,0.0,0,0.06866455078125
1778785730.5597758,71744624,0,0.00372314453125,584.0936889648438,94502.828125,30.64,0.0,71744,0.0,28.02182960510254,1,94502.828125,0.600593,0,0.00372314453125,0.00372314453125,0.0,0,0.00372314453125
1778785730.5597758,71744624,1,-0.11688232421875,583.9730834960938,94502.921875,30.64,0.0,71744,0.0,28.02182960510254,1,94502.921875,0.600593,0,-0.11688232421875,-0.11688232421875,0.0,0,-0.11688232421875
1778785730.659736,71844584,0,0.00372314453125,584.0936889648438,94502.828125,30.64,0.0,71844,0.0,28.02182960510254,1,94502.828125,0.700553,0,0.00372314453125,0.00372314453125,0.0,0,0.00372314453125
1778785730.659736,71844584,1,-0.26678466796875,583.8231811523438,94504.625,30.64,0.0,71844,0.0,28.02182960510254,1,94504.625,0.700553,0,-0.26678466796875,-0.26678466796875,0.0,0,-0.26678466796875
1778785730.759696,71944544,0,0.00372314453125,584.0936889648438,94502.828125,30.64,0.0,71944,0.0,28.02182960510254,1,94502.828125,0.800513,0,0.00372314453125,0.00372314453125,0.0,0,0.00372314453125
1778785730.759696,71944544,1,0.06866455078125,584.1586303710938,94500.828125,30.64,0.0,71944,0.0,28.02182960510254,1,94500.828125,0.800513,0,0.06866455078125,0.06866455078125,0.0,0,0.06866455078125
1778785730.859656,72044504,0,0.00372314453125,584.0936889648438,94502.828125,30.64,0.0,72044,0.0,28.02182960510254,1,94502.828125,0.900473,0,0.00372314453125,0.00372314453125,0.0,0,0.00372314453125
1778785730.859656,72044504,1,-0.11102294921875,583.9789428710938,94502.859375,30.64,0.0,72044,0.0,28.02182960510254,1,94502.859375,0.900473,0,-0.11102294921875,-0.11102294921875,0.0,0,-0.11102294921875
1778785730.959616,72144464,0,0.00372314453125,584.0936889648438,94502.828125,30.64,0.0,72144,0.0,28.02182960510254,1,94502.828125,1.000433,0,0.00372314453125,0.00372314453125,0.0,0,0.00372314453125
1778785730.959616,72144464,1,-0.28143310546875,583.8085327148438,94504.796875,30.64,0.0,72144,0.0,28.02182960510254,1,94504.796875,1.000433,0,-0.28143310546875,-0.28143310546875,0.0,0,-0.28143310546875
1778785731.059576,72244424,0,0.00372314453125,584.0936889648438,94502.828125,30.65,0.0,72244,0.0,28.02182960510254,1,94502.828125,1.100393,0,0.00372314453125,0.00372314453125,0.0,0,0.00372314453125
1778785731.059576,72244424,1,-0.11688232421875,583.9730834960938,94502.921875,30.65,0.0,72244,0.0,28.02182960510254,1,94502.921875,1.100393,0,-0.11688232421875,-0.11688232421875,0.0,0,-0.11688232421875
1778785731.159536,72344384,0,0.00372314453125,584.0936889648438,94502.828125,30.65,0.0,72344,0.0,28.02182960510254,1,94502.828125,1.200353,0,0.00372314453125,0.00372314453125,0.0,0,0.00372314453125
1778785731.159536,72344384,1,-0.10809326171875,583.9818725585938,94502.828125,30.65,0.0,72344,0.0,28.02182960510254,1,94502.828125,1.200353,0,-0.10809326171875,-0.10809326171875,0.0,0,-0.10809326171875
1778785731.259496,72444344,0,0.00372314453125,584.0936889648438,94502.828125,30.65,0.0,72444,0.0,28.02182960510254,1,94502.828125,1.300313,0,0.00372314453125,0.00372314453125,0.0,0,0.00372314453125
1778785731.259496,72444344,1,-0.19891357421875,583.8910522460938,94503.8515625,30.65,0.0,72444,0.0,28.02182960510254,1,94503.8515625,1.300313,0,-0.19891357421875,-0.19891357421875,0.0,0,-0.19891357421875
1778785731.3594558,72544304,0,0.00372314453125,584.0936889648438,94502.828125,30.65,0.0,72544,0.0,28.02182960510254,1,94502.828125,1.400273,0,0.00372314453125,0.00372314453125,0.0,0,0.00372314453125
1778785731.3594558,72544304,1,-0.07830810546875,584.0116577148438,94502.4921875,30.65,0.0,72544,0.0,28.02182960510254,1,94502.4921875,1.400273,0,-0.07830810546875,-0.07830810546875,0.0,0,-0.07830810546875
1778785731.459416,72644264,0,0.00372314453125,584.0936889648438,94502.828125,30.65,0.0,72644,0.0,28.02182960510254,1,94502.828125,1.500233,0,0.00372314453125,0.00372314453125,0.0,0,0.00372314453125
1778785731.459416,72644264,1,-0.12567138671875,583.9642944335938,94503.03125,30.65,0.0,72644,0.0,28.02182960510254,1,94503.03125,1.500233,0,-0.12567138671875,-0.12567138671875,0.0,0,-0.12567138671875
1778785731.559376,72744224,0,0.00372314453125,584.0936889648438,94502.828125,30.65,0.0,72744,0.0,28.02182960510254,1,94502.828125,1.600193,0,0.00372314453125,0.00372314453125,0.0,0,0.00372314453125
1778785731.559376,72744224,1,-0.07830810546875,584.0116577148438,94502.4921875,30.65,0.0,72744,0.0,28.02182960510254,1,94502.4921875,1.600193,0,-0.07830810546875,-0.07830810546875,0.0,0,-0.07830810546875
1778785731.659336,72844184,0,0.00372314453125,584.0936889648438,94502.828125,30.66,0.0,72844,0.0,28.02182960510254,1,94502.828125,1.700153,0,0.00372314453125,0.00372314453125,0.0,0,0.00372314453125
1778785731.659336,72844184,1,-0.06072998046875,584.0292358398438,94502.2890625,30.66,0.0,72844,0.0,28.02182960510254,1,94502.2890625,1.700153,0,-0.06072998046875,-0.06072998046875,0.0,0,-0.06072998046875
1778785731.759296,72944144,0,0.00372314453125,584.0936889648438,94502.828125,30.66,0.0,72944,0.0,28.02182960510254,1,94502.828125,1.800113,0,0.00372314453125,0.00372314453125,0.0,0,0.00372314453125
1778785731.759296,72944144,1,-0.29315185546875,583.7968139648438,94504.921875,30.66,0.0,72944,0.0,28.02182960510254,1,94504.921875,1.800113,0,-0.29315185546875,-0.29315185546875,0.0,0,-0.29315185546875
1778785731.859256,73044104,0,0.00372314453125,584.0936889648438,94502.828125,30.66,0.0,73044,0.0,28.02182960510254,1,94502.828125,1.900073,0,0.00372314453125,0.00372314453125,0.0,0,0.00372314453125
1778785731.859256,73044104,1,-0.23748779296875,583.8524780273438,94504.2890625,30.66,0.0,73044,0.0,28.02182960510254,1,94504.2890625,1.900073,0,-0.23748779296875,-0.23748779296875,0.0,0,-0.23748779296875
1778785731.959216,73144064,0,0.00372314453125,584.0936889648438,94502.828125,30.66,0.0,73144,0.0,28.02182960510254,1,94502.828125,2.000033,0,0.00372314453125,0.00372314453125,0.0,0,0.00372314453125
1778785731.959216,73144064,1,-0.12567138671875,583.9642944335938,94503.03125,30.66,0.0,73144,0.0,28.02182960510254,1,94503.03125,2.000033,0,-0.12567138671875,-0.12567138671875,0.0,0,-0.12567138671875
1778785732.059176,73244024,0,0.00372314453125,584.0936889648438,94502.828125,30.66,0.0,73244,0.0,28.02182960510254,1,94502.828125,2.099993,0,0.00372314453125,0.00372314453125,0.0,0,0.00372314453125
1778785732.059176,73244024,1,-0.06072998046875,584.0292358398438,94502.2890625,30.66,0.0,73244,0.0,28.02182960510254,1,94502.2890625,2.099993,0,-0.06072998046875,-0.06072998046875,0.0,0,-0.06072998046875
1778785732.1599689,73344817,0,0.00372314453125,584.0936889648438,94502.828125,30.67,0.0,73344,0.0,28.02182960510254,1,94502.828125,2.200786,0,0.00372314453125,0.00372314453125,0.0,0,0.00372314453125
1778785732.1599689,73344817,1,-0.13446044921875,583.9555053710938,94503.125,30.67,0.0,73344,0.0,28.02182960510254,1,94503.125,2.200786,0,-0.13446044921875,-0.13446044921875,0.0,0,-0.13446044921875
1778785732.2599287,73444777,0,0.00372314453125,584.0936889648438,94502.828125,30.67,0.0,73444,0.0,28.02182960510254,1,94502.828125,2.300746,0,0.00372314453125,0.00372314453125,0.0,0,0.00372314453125
1778785732.2599287,73444777,1,-0.13446044921875,583.9555053710938,94503.125,30.67,0.0,73444,0.0,28.02182960510254,1,94503.125,2.300746,0,-0.13446044921875,-0.13446044921875,0.0,0,-0.13446044921875
1778785732.359889,73544737,0,0.00372314453125,584.0936889648438,94502.828125,30.67,0.0,73544,0.0,28.02182960510254,1,94502.828125,2.400706,0,0.00372314453125,0.00372314453125,0.0,0,0.00372314453125
1778785732.359889,73544737,1,-0.07830810546875,584.0116577148438,94502.4921875,30.67,0.0,73544,0.0,28.02182960510254,1,94502.4921875,2.400706,0,-0.07830810546875,-0.07830810546875,0.0,0,-0.07830810546875
1778785732.4598489,73644697,0,0.00372314453125,584.0936889648438,94502.828125,30.67,0.0,73644,0.0,28.02182960510254,1,94502.828125,2.500666,0,0.00372314453125,0.00372314453125,0.0,0,0.00372314453125
1778785732.4598489,73644697,1,-0.05487060546875,584.0350952148438,94502.2265625,30.67,0.0,73644,0.0,28.02182960510254,1,94502.2265625,2.500666,0,-0.05487060546875,-0.05487060546875,0.0,0,-0.05487060546875
1778785732.5598087,73744657,0,0.00372314453125,584.0936889648438,94502.828125,30.67,0.0,73744,0.0,28.02182960510254,1,94502.828125,2.600626,0,0.00372314453125,0.00372314453125,0.0,0,0.00372314453125
1778785732.5598087,73744657,1,-0.03729248046875,584.0526733398438,94502.0234375,30.67,0.0,73744,0.0,28.02182960510254,1,94502.0234375,2.600626,0,-0.03729248046875,-0.03729248046875,0.0,0,-0.03729248046875
1778785732.6597688,73844617,0,0.00372314453125,584.0936889648438,94502.828125,30.67,0.0,73844,0.0,28.02182960510254,1,94502.828125,2.700586,0,0.00372314453125,0.00372314453125,0.0,0,0.00372314453125
1778785732.6597688,73844617,1,0.02423095703125,584.1141967773438,94501.3203125,30.67,0.0,73844,0.0,28.02182960510254,1,94501.3203125,2.700586,0,0.02423095703125,0.02423095703125,0.0,0,0.02423095703125
1778785732.759729,73944577,0,0.00372314453125,584.0936889648438,94502.828125,30.68,0.0,73944,0.0,28.02182960510254,1,94502.828125,2.800546,0,0.00372314453125,0.00372314453125,0.0,0,0.00372314453125
1778785732.759729,73944577,1,0.07745361328125,584.1674194335938,94500.71875,30.68,0.0,73944,0.0,28.02182960510254,1,94500.71875,2.800546,0,0.07745361328125,0.07745361328125,0.0,0,0.07745361328125
1778785732.859689,74044537,0,0.00372314453125,584.0936889648438,94502.828125,30.68,0.0,74044,0.0,28.02182960510254,1,94502.828125,2.900506,0,0.00372314453125,0.00372314453125,0.0,0,0.00372314453125
1778785732.859689,74044537,1,-0.00213623046875,584.0878295898438,94501.6171875,30.68,0.0,74044,0.0,28.02182960510254,1,94501.6171875,2.900506,0,-0.00213623046875,-0.00213623046875,0.0,0,-0.00213623046875
1778785732.9596488,74144497,0,0.00372314453125,584.0936889648438,94502.828125,30.68,0.0,74144,0.0,28.02182960510254,1,94502.828125,3.000466,0,0.00372314453125,0.00372314453125,0.0,0,0.00372314453125
1778785732.9596488,74144497,1,-0.02557373046875,584.0643920898438,94501.8828125,30.68,0.0,74144,0.0,28.02182960510254,1,94501.8828125,3.000466,0,-0.02557373046875,-0.02557373046875,0.0,0,-0.02557373046875
1778785733.0596087,74244457,0,0.00372314453125,584.0936889648438,94502.828125,30.68,0.0,74244,0.0,28.02182960510254,1,94502.828125,3.100426,0,0.00372314453125,0.00372314453125,0.0,0,0.00372314453125
1778785733.0596087,74244457,1,0.08038330078125,584.1703491210938,94500.6875,30.68,0.0,74244,0.0,28.02182960510254,1,94500.6875,3.100426,0,0.08038330078125,0.08038330078125,0.0,0,0.08038330078125
1778785733.159569,74344417,0,0.00372314453125,584.0936889648438,94502.828125,30.68,0.0,74344,0.0,28.02182960510254,1,94502.828125,3.200386,0,0.00372314453125,0.00372314453125,0.0,0,0.00372314453125
1778785733.159569,74344417,1,-0.10809326171875,583.9818725585938,94502.828125,30.68,0.0,74344,0.0,28.02182960510254,1,94502.828125,3.200386,0,-0.10809326171875,-0.10809326171875,0.0,0,-0.10809326171875
1778785733.2595289,74444377,0,0.00372314453125,584.0936889648438,94502.828125,30.68,0.0,74444,0.0,28.02182960510254,1,94502.828125,3.300346,0,0.00372314453125,0.00372314453125,0.0,0,0.00372314453125
1778785733.2595289,74444377,1,0.00958251953125,584.0995483398438,94501.4921875,30.68,0.0,74444,0.0,28.02182960510254,1,94501.4921875,3.300346,0,0.00958251953125,0.00958251953125,0.0,0,0.00958251953125
1778785733.3594887,74544337,0,0.00372314453125,584.0936889648438,94502.828125,30.69,0.0,74544,0.0,28.02182960510254,1,94502.828125,3.400306,0,0.00372314453125,0.00372314453125,0.0,0,0.00372314453125
1778785733.3594887,74544337,1,-0.16375732421875,583.9262084960938,94503.4609375,30.69,0.0,74544,0.0,28.02182960510254,1,94503.4609375,3.400306,0,-0.16375732421875,-0.16375732421875,0.0,0,-0.16375732421875
1778785733.4594488,74644297,0,0.00372314453125,584.0936889648438,94502.828125,30.69,0.0,74644,0.0,28.02182960510254,1,94502.828125,3.500266,0,0.00372314453125,0.00372314453125,0.0,0,0.00372314453125
1778785733.4594488,74644297,1,0.04473876953125,584.1347045898438,94501.09375,30.69,0.0,74644,0.0,28.02182960510254,1,94501.09375,3.500266,0,0.04473876953125,0.04473876953125,0.0,0,0.04473876953125
1778785733.559409,74744257,0,0.00372314453125,584.0936889648438,94502.828125,30.69,0.0,74744,0.0,28.02182960510254,1,94502.828125,3.600226,0,0.00372314453125,0.00372314453125,0.0,0,0.00372314453125
1778785733.559409,74744257,1,-0.18719482421875,583.9027709960938,94503.7265625,30.69,0.0,74744,0.0,28.02182960510254,1,94503.7265625,3.600226,0,-0.18719482421875,-0.18719482421875,0.0,0,-0.18719482421875
1778785733.6593688,74844217,0,0.00372314453125,584.0936889648438,94502.828125,30.69,0.0,74844,0.0,28.02182960510254,1,94502.828125,3.700186,0,0.00372314453125,0.00372314453125,0.0,0,0.00372314453125
1778785733.6593688,74844217,1,0.00079345703125,584.0907592773438,94501.5859375,30.69,0.0,74844,0.0,28.02182960510254,1,94501.5859375,3.700186,0,0.00079345703125,0.00079345703125,0.0,0,0.00079345703125
1778785733.7593288,74944177,0,0.00372314453125,584.0936889648438,94502.828125,30.69,0.0,74944,0.0,28.02182960510254,1,94502.828125,3.800146,0,0.00372314453125,0.00372314453125,0.0,0,0.00372314453125
1778785733.7593288,74944177,1,0.02130126953125,584.1112670898438,94501.3515625,30.69,0.0,74944,0.0,28.02182960510254,1,94501.3515625,3.800146,0,0.02130126953125,0.02130126953125,0.0,0,0.02130126953125
1778785733.8592887,75044137,0,0.00372314453125,584.0936889648438,94502.828125,30.7,0.0,75044,0.0,28.02182960510254,1,94502.828125,3.900106,0,0.00372314453125,0.00372314453125,0.0,0,0.00372314453125
1778785733.8592887,75044137,1,-0.15789794921875,583.9320678710938,94503.390625,30.7,0.0,75044,0.0,28.02182960510254,1,94503.390625,3.900106,0,-0.15789794921875,-0.15789794921875,0.0,0,-0.15789794921875
1778785733.959249,75144097,0,0.00372314453125,584.0936889648438,94502.828125,30.7,0.0,75144,0.0,28.02182960510254,1,94502.828125,4.000066,0,0.00372314453125,0.00372314453125,0.0,0,0.00372314453125
1778785733.959249,75144097,1,-0.21942138671875,583.8705444335938,94504.0859375,30.7,0.0,75144,0.0,28.02182960510254,1,94504.0859375,4.000066,0,-0.21942138671875,-0.21942138671875,0.0,0,-0.21942138671875
1778785734.0592089,75244057,0,0.00372314453125,584.0936889648438,94502.828125,30.7,0.0,75244,0.0,28.02182960510254,1,94502.828125,4.100026,0,0.00372314453125,0.00372314453125,0.0,0,0.00372314453125
1778785734.0592089,75244057,1,-0.02264404296875,584.0673217773438,94501.8515625,30.7,0.0,75244,0.0,28.02182960510254,1,94501.8515625,4.100026,0,-0.02264404296875,-0.02264404296875,0.0,0,-0.02264404296875
1778785734.160002,75344850,0,0.00372314453125,584.0936889648438,94502.828125,30.7,0.0,75344,0.0,28.02182960510254,1,94502.828125,4.200819,0,0.00372314453125,0.00372314453125,0.0,0,0.00372314453125
1778785734.160002,75344850,1,-0.18133544921875,583.9086303710938,94503.6640625,30.7,0.0,75344,0.0,28.02182960510254,1,94503.6640625,4.200819,0,-0.18133544921875,-0.18133544921875,0.0,0,-0.18133544921875
1778785734.2599618,75444810,0,0.00372314453125,584.0936889648438,94502.828125,30.7,0.0,75444,0.0,28.02182960510254,1,94502.828125,4.300779,0,0.00372314453125,0.00372314453125,0.0,0,0.00372314453125
1778785734.2599618,75444810,1,-0.14324951171875,583.9467163085938,94503.2265625,30.7,0.0,75444,0.0,28.02182960510254,1,94503.2265625,4.300779,0,-0.14324951171875,-0.14324951171875,0.0,0,-0.14324951171875
1778785734.359922,75544770,0,0.00372314453125,584.0936889648438,94502.828125,30.7,0.0,75544,0.0,28.02182960510254,1,94502.828125,4.400739,0,0.00372314453125,0.00372314453125,0.0,0,0.00372314453125
1778785734.359922,75544770,1,-0.05487060546875,584.0350952148438,94502.2265625,30.7,0.0,75544,0.0,28.02182960510254,1,94502.2265625,4.400739,0,-0.05487060546875,-0.05487060546875,0.0,0,-0.05487060546875
1778785734.459882,75644730,0,0.00372314453125,584.0936889648438,94502.828125,30.71,0.0,75644,0.0,28.02182960510254,1,94502.828125,4.500699,0,0.00372314453125,0.00372314453125,0.0,0,0.00372314453125
1778785734.459882,75644730,1,-0.11102294921875,583.9789428710938,94502.859375,30.71,0.0,75644,0.0,28.02182960510254,1,94502.859375,4.500699,0,-0.11102294921875,-0.11102294921875,0.0,0,-0.11102294921875
1778785734.559842,75744690,0,0.00372314453125,584.0936889648438,94502.828125,30.71,0.0,75744,0.0,28.02182960510254,1,94502.828125,4.600659,0,0.00372314453125,0.00372314453125,0.0,0,0.00372314453125
1778785734.559842,75744690,1,-0.26678466796875,583.8231811523438,94504.625,30.71,0.0,75744,0.0,28.02182960510254,1,94504.625,4.600659,0,-0.26678466796875,-0.26678466796875,0.0,0,-0.26678466796875
1778785734.659802,75844650,0,0.00372314453125,584.0936889648438,94502.828125,30.71,0.0,75844,0.0,28.02182960510254,1,94502.828125,4.700619,0,0.00372314453125,0.00372314453125,0.0,0,0.00372314453125
1778785734.659802,75844650,1,-0.11102294921875,583.9789428710938,94502.859375,30.71,0.0,75844,0.0,28.02182960510254,1,94502.859375,4.700619,0,-0.11102294921875,-0.11102294921875,0.0,0,-0.11102294921875
1778785734.759762,75944610,0,0.00372314453125,584.0936889648438,94502.828125,30.71,0.0,75944,0.0,28.02182960510254,1,94502.828125,4.800579,0,0.00372314453125,0.00372314453125,0.0,0,0.00372314453125
1778785734.759762,75944610,1,0.04473876953125,584.1347045898438,94501.09375,30.71,0.0,75944,0.0,28.02182960510254,1,94501.09375,4.800579,0,0.04473876953125,0.04473876953125,0.0,0,0.04473876953125
1778785734.859722,76044570,0,0.00372314453125,584.0936889648438,94502.828125,30.71,0.0,76044,0.0,28.02182960510254,1,94502.828125,4.900539,0,0.00372314453125,0.00372314453125,0.0,0,0.00372314453125
1778785734.859722,76044570,1,-0.05487060546875,584.0350952148438,94502.2265625,30.71,0.0,76044,0.0,28.02182960510254,1,94502.2265625,4.900539,0,-0.05487060546875,-0.05487060546875,0.0,0,-0.05487060546875
1778785734.959682,76144530,0,0.00372314453125,584.0936889648438,94502.828125,30.71,0.0,76144,0.0,28.02182960510254,1,94502.828125,5.000499,0,0.00372314453125,0.00372314453125,0.0,0,0.00372314453125
1778785734.959682,76144530,1,0.0155029296875,584.10546875,94501.421875,30.71,0.0,76144,0.0,28.02182960510254,1,94501.421875,5.000499,0,0.0155029296875,0.0155029296875,0.0,0,0.0155029296875
1778785735.0596418,76244490,0,0.00372314453125,584.0936889648438,94502.828125,30.72,0.0,76244,0.0,28.02182960510254,1,94502.828125,5.100459,0,0.00372314453125,0.00372314453125,0.0,0,0.00372314453125
1778785735.0596418,76244490,1,0.05694580078125,584.1469116210938,94500.953125,30.71,0.0,76244,0.0,28.02182960510254,1,94500.953125,5.100459,0,0.05694580078125,0.05694580078125,0.0,0,0.05694580078125
1778785735.159602,76344450,0,0.00372314453125,584.0936889648438,94502.828125,30.72,0.0,76344,0.0,28.02182960510254,1,94502.828125,5.200419,0,0.00372314453125,0.00372314453125,0.0,0,0.00372314453125
1778785735.159602,76344450,1,-0.23455810546875,583.8554077148438,94504.2578125,30.72,0.0,76344,0.0,28.02182960510254,1,94504.2578125,5.200419,0,-0.23455810546875,-0.23455810546875,0.0,0,-0.23455810546875
1778785735.259562,76444410,0,0.00372314453125,584.0936889648438,94502.828125,30.72,0.0,76444,0.0,28.02182960510254,1,94502.828125,5.300379,0,0.00372314453125,0.00372314453125,0.0,0,0.00372314453125
1778785735.259562,76444410,1,-0.28143310546875,583.8085327148438,94504.796875,30.72,0.0,76444,0.0,28.02182960510254,1,94504.796875,5.300379,0,-0.28143310546875,-0.28143310546875,0.0,0,-0.28143310546875
1778785735.359522,76544370,0,0.00372314453125,584.0936889648438,94502.828125,30.72,0.0,76544,0.0,28.02182960510254,1,94502.828125,5.400339,0,0.00372314453125,0.00372314453125,0.0,0,0.00372314453125
1778785735.359522,76544370,1,-0.28143310546875,583.8085327148438,94504.796875,30.72,0.0,76544,0.0,28.02182960510254,1,94504.796875,5.400339,0,-0.28143310546875,-0.28143310546875,0.0,0,-0.28143310546875
1778785735.459482,76644330,0,0.00372314453125,584.0936889648438,94502.828125,30.72,0.0,76644,0.0,28.02182960510254,1,94502.828125,5.500299,0,0.00372314453125,0.00372314453125,0.0,0,0.00372314453125
1778785735.459482,76644330,1,-0.10809326171875,583.9818725585938,94502.828125,30.72,0.0,76644,0.0,28.02182960510254,1,94502.828125,5.500299,0,-0.10809326171875,-0.10809326171875,0.0,0,-0.10809326171875
1778785735.559442,76744290,0,0.00372314453125,584.0936889648438,94502.828125,30.72,0.0,76744,0.0,28.02182960510254,1,94502.828125,5.600259,0,0.00372314453125,0.00372314453125,0.0,0,0.00372314453125
1778785735.559442,76744290,1,-0.11102294921875,583.9789428710938,94502.859375,30.72,0.0,76744,0.0,28.02182960510254,1,94502.859375,5.600259,0,-0.11102294921875,-0.11102294921875,0.0,0,-0.11102294921875
1778785735.659402,76844250,0,0.00372314453125,584.0936889648438,94502.828125,30.72,0.0,76844,0.0,28.02182960510254,1,94502.828125,5.700219,0,0.00372314453125,0.00372314453125,0.0,0,0.00372314453125
1778785735.659402,76844250,1,-0.25799560546875,583.8319702148438,94504.5234375,30.73,0.0,76844,0.0,28.02182960510254,1,94504.5234375,5.700219,0,-0.25799560546875,-0.25799560546875,0.0,0,-0.25799560546875
1778785735.759362,76944210,0,0.00372314453125,584.0936889648438,94502.828125,30.73,0.0,76944,0.0,28.02182960510254,1,94502.828125,5.800179,0,0.00372314453125,0.00372314453125,0.0,0,0.00372314453125
1778785735.759362,76944210,1,-0.21063232421875,583.8793334960938,94503.9921875,30.73,0.0,76944,0.0,28.02182960510254,1,94503.9921875,5.800179,0,-0.21063232421875,-0.21063232421875,0.0,0,-0.21063232421875
1778785735.8593218,77044170,0,0.00372314453125,584.0936889648438,94502.828125,30.73,0.0,77044,0.0,28.02182960510254,1,94502.828125,5.900139,0,0.00372314453125,0.00372314453125,0.0,0,0.00372314453125
1778785735.8593218,77044170,1,-0.01678466796875,584.0731811523438,94501.7890625,30.73,0.0,77044,0.0,28.02182960510254,1,94501.7890625,5.900139,0,-0.01678466796875,-0.01678466796875,0.0,0,-0.01678466796875
1778785735.959282,77144130,0,0.00372314453125,584.0936889648438,94502.828125,30.73,0.0,77144,0.0,28.02182960510254,1,94502.828125,6.000099,0,0.00372314453125,0.00372314453125,0.0,0,0.00372314453125
1778785735.959282,77144130,1,-0.22869873046875,583.8612670898438,94504.1953125,30.73,0.0,77144,0.0,28.02182960510254,1,94504.1953125,6.000099,0,-0.22869873046875,-0.22869873046875,0.0,0,-0.22869873046875
1778785736.059242,77244090,0,0.00372314453125,584.0936889648438,94502.828125,30.73,0.0,77244,0.0,28.02182960510254,1,94502.828125,6.100059,0,0.00372314453125,0.00372314453125,0.0,0,0.00372314453125
1778785736.059242,77244090,1,-0.10223388671875,583.9877319335938,94502.75,30.73,0.0,77244,0.0,28.02182960510254,1,94502.75,6.100059,0,-0.10223388671875,-0.10223388671875,0.0,0,-0.10223388671875
1778785736.159202,77344050,0,0.00372314453125,584.0936889648438,94502.828125,30.73,0.0,77344,0.0,28.02182960510254,1,94502.828125,6.200019,0,0.00372314453125,0.00372314453125,0.0,0,0.00372314453125
1778785736.159202,77344050,1,-0.20477294921875,583.8851928710938,94503.9296875,30.73,0.0,77344,0.0,28.02182960510254,1,94503.9296875,6.200019,0,-0.20477294921875,-0.20477294921875,0.0,0,-0.20477294921875
1778785736.2599947,77444843,0,0.00372314453125,584.0936889648438,94502.828125,30.73,0.0,77444,0.0,28.02182960510254,1,94502.828125,6.300812,0,0.00372314453125,0.00372314453125,0.0,0,0.00372314453125
1778785736.2599947,77444843,1,-0.29315185546875,583.7968139648438,94504.921875,30.74,0.0,77444,0.0,28.02182960510254,1,94504.921875,6.300812,0,-0.29315185546875,-0.29315185546875,0.0,0,-0.29315185546875
1778785736.3599548,77544803,0,0.00372314453125,584.0936889648438,94502.828125,30.74,0.0,77544,0.0,28.02182960510254,1,94502.828125,6.400772,0,0.00372314453125,0.00372314453125,0.0,0,0.00372314453125
1778785736.3599548,77544803,1,0.07745361328125,584.1674194335938,94500.71875,30.73,0.0,77544,0.0,28.02182960510254,1,94500.71875,6.400772,0,0.07745361328125,0.07745361328125,0.0,0,0.07745361328125
1778785736.4599147,77644763,0,0.00372314453125,584.0936889648438,94502.828125,30.74,0.0,77644,0.0,28.02182960510254,1,94502.828125,6.500732,0,0.00372314453125,0.00372314453125,0.0,0,0.00372314453125
1778785736.4599147,77644763,1,-0.26971435546875,583.8202514648438,94504.65625,30.74,0.0,77644,0.0,28.02182960510254,1,94504.65625,6.500732,0,-0.26971435546875,-0.26971435546875,0.0,0,-0.26971435546875
1778785736.559875,77744723,0,0.00372314453125,584.0936889648438,94502.828125,30.74,0.0,77744,0.0,28.02182960510254,1,94502.828125,6.600692,0,0.00372314453125,0.00372314453125,0.0,0,0.00372314453125
1778785736.559875,77744723,1,-0.19891357421875,583.8910522460938,94503.8515625,30.74,0.0,77744,0.0,28.02182960510254,1,94503.8515625,6.600692,0,-0.19891357421875,-0.19891357421875,0.0,0,-0.19891357421875
1778785736.6598349,77844683,0,0.01544189453125,584.1054077148438,94502.6875,30.74,0.003662109375,77844,0.0,28.02182960510254,1,94502.6875,6.700652,0,0.01544189453125,0.01544189453125,0.0,0,0.01544189453125
1778785736.6598349,77844683,1,-0.21063232421875,583.8793334960938,94503.9921875,30.74,0.003662109375,77844,0.0,28.02182960510254,1,94503.9921875,6.700652,0,-0.21063232421875,-0.21063232421875,0.0,0,-0.21063232421875
1778785736.7597947,77944643,0,0.01544189453125,584.1054077148438,94502.6875,30.74,0.0183105450123548,77944,0.0,28.02182960510254,1,94502.6875,6.800612,0,0.01544189453125,0.01544189453125,0.0,0,0.01544189453125
1778785736.7597947,77944643,1,0.00665283203125,584.0966186523438,94501.5234375,30.74,0.0183105450123548,77944,0.0,28.02182960510254,1,94501.5234375,6.800612,0,0.00665283203125,0.00665283203125,0.0,0,0.00665283203125
1778785736.859755,78044603,0,0.02423095703125,584.1141967773438,94502.59375,30.74,0.0393676795065403,78044,0.0,28.02182960510254,1,94502.59375,6.900572,0,0.02423095703125,0.02423095703125,0.0,0,0.02423095703125
1778785736.859755,78044603,1,0.07159423828125,584.1615600585938,94500.78125,30.74,0.0393676795065403,78044,0.0,28.02182960510254,1,94500.78125,6.900572,0,0.07159423828125,0.07159423828125,0.0,0,0.07159423828125
1778785736.959715,78144563,0,0.04815673828125,584.1381225585938,94502.3203125,30.74,0.0578308142721653,78144,0.0,28.02182960510254,1,94502.3203125,7.000532,0,0.04815673828125,0.04815673828125,0.0,0,0.04815673828125
1778785736.959715,78144563,1,0.07745361328125,584.1674194335938,94500.71875,30.74,0.0578308142721653,78144,0.0,28.02182960510254,1,94500.71875,7.000532,0,0.07745361328125,0.07745361328125,0.0,0,0.07745361328125
1778785737.0596747,78244523,0,0.06573486328125,584.1557006835938,94502.125,30.75,0.088653564453125,78244,0.0,28.02182960510254,1,94502.125,7.100492,0,0.06573486328125,0.06573486328125,0.0,0,0.06573486328125
1778785737.0596747,78244523,1,-0.09637451171875,583.9935913085938,94502.6875,30.75,0.088653564453125,78244,0.0,28.02182960510254,1,94502.6875,7.100492,0,-0.09637451171875,-0.09637451171875,0.0,0,-0.09637451171875
1778785737.1596348,78344483,0,0.09503173828125,584.1849975585938,94501.7890625,30.75,0.14251708984375,78344,0.0,28.02182960510254,1,94501.7890625,7.200452,0,0.09503173828125,0.09503173828125,0.0,0,0.09503173828125
1778785737.1596348,78344483,1,-0.03729248046875,584.0526733398438,94502.0234375,30.75,0.14251708984375,78344,0.0,28.02182960510254,1,94502.0234375,7.200452,0,-0.03729248046875,-0.03729248046875,0.0,0,-0.03729248046875
1778785737.259595,78444443,0,0.1273193359375,584.21728515625,94501.421875,30.75,0.1992988735437393,78444,0.0,28.02182960510254,1,94501.421875,7.300412,0,0.1273193359375,0.1273193359375,0.0,0,0.1273193359375
1778785737.259595,78444443,1,-0.16375732421875,583.9262084960938,94503.4609375,30.75,0.1992988735437393,78444,0.0,28.02182960510254,1,94503.4609375,7.300412,0,-0.16375732421875,-0.16375732421875,0.0,0,-0.16375732421875
1778785737.359555,78544403,0,0.1746826171875,584.2646484375,94500.890625,30.75,0.2518653869628906,78544,0.0,28.02182960510254,1,94500.890625,7.400372,0,0.1746826171875,0.1746826171875,0.0,0,0.1746826171875
1778785737.359555,78544403,1,0.02130126953125,584.1112670898438,94501.3515625,30.75,0.2518653869628906,78544,0.0,28.02182960510254,1,94501.3515625,7.400372,0,0.02130126953125,0.02130126953125,0.0,0,0.02130126953125
1778785737.4595149,78644363,0,0.2772216796875,584.3671875,94499.7265625,30.75,0.3334426581859588,78644,0.0,28.02182960510254,1,94499.7265625,7.500332,0,0.2772216796875,0.2772216796875,0.0,0,0.2772216796875
1778785737.4595149,78644363,1,0.05694580078125,584.1469116210938,94500.953125,30.75,0.3334426581859588,78644,0.0,28.02182960510254,1,94500.953125,7.500332,0,0.05694580078125,0.05694580078125,0.0,0,0.05694580078125
1778785737.5594747,78744323,0,0.39495849609375,584.4849243164062,94498.3828125,30.75,0.4971885979175567,78744,0.0,28.02182960510254,1,94498.3828125,7.600292,0,0.39495849609375,0.39495849609375,0.0,0,0.39495849609375
1778785737.5594747,78744323,1,0.22747802734375,584.3174438476562,94499.015625,30.75,0.4971885979175567,78744,0.0,28.02182960510254,1,94499.015625,7.600292,0,0.22747802734375,0.22747802734375,0.0,0,0.22747802734375
1778785737.659435,78844283,0,0.5184326171875,584.6083984375,94496.984375,30.75,0.7505988478660583,78844,0.0,28.02182960510254,1,94496.984375,7.700252,0,0.5184326171875,0.5184326171875,0.0,0,0.5184326171875
1778785737.659435,78844283,1,0.33050537109375,584.4204711914062,94497.8515625,30.75,0.7505988478660583,78844,0.0,28.02182960510254,1,94497.8515625,7.700252,0,0.33050537109375,0.33050537109375,0.0,0,0.33050537109375
1778785737.759395,78944243,0,0.63323974609375,584.7232055664062,94495.6796875,30.75,1.001262664794922,78944,0.0,28.02182960510254,1,94495.6796875,7.800212,0,0.63323974609375,0.63323974609375,0.0,0,0.63323974609375
1778785737.759395,78944243,1,0.67431640625,584.7642822265625,94493.9453125,30.75,1.001262664794922,78944,0.0,28.02182960510254,1,94493.9453125,7.800212,0,0.67431640625,0.67431640625,0.0,0,0.67431640625
1778785737.8593547,79044203,0,0.7568359375,584.8468017578125,94494.28125,30.75,1.1468124389648438,79044,0.0,28.02182960510254,1,94494.28125,7.900172,0,0.7568359375,0.7568359375,0.0,0,0.7568359375
1778785737.8593547,79044203,1,0.7333984375,584.8233642578125,94493.2734375,30.75,1.1468124389648438,79044,0.0,28.02182960510254,1,94493.2734375,7.900172,0,0.7333984375,0.7333984375,0.0,0,0.7333984375
1778785737.9593148,79144163,0,0.87451171875,584.9644775390625,94492.9453125,30.75,1.1905289888381958,79144,0.0,28.02182960510254,1,94492.9453125,8.000132,0,0.87451171875,0.87451171875,0.0,0,0.87451171875
1778785737.9593148,79144163,1,0.88916015625,584.9791259765625,94491.5078125,30.75,1.1905289888381958,79144,0.0,28.02182960510254,1,94491.5078125,8.000132,0,0.88916015625,0.88916015625,0.0,0,0.88916015625
1778785738.059275,79244123,0,0.9951171875,585.0850830078125,94491.5703125,30.76,1.1962890625,79244,0.0,28.02182960510254,1,94491.5703125,8.100092,0,0.9951171875,0.9951171875,0.0,0,0.9951171875
1778785738.059275,79244123,1,0.7333984375,584.8233642578125,94493.2734375,30.76,1.1962890625,79244,0.0,28.02182960510254,1,94493.2734375,8.100092,0,0.7333984375,0.7333984375,0.0,0,0.7333984375
1778785738.159235,79344083,0,1.13623046875,585.2261962890625,94489.96875,30.76,1.2044906616210938,79344,0.0,28.02182960510254,1,94489.96875,8.200052,0,1.13623046875,1.13623046875,0.0,0,1.13623046875
1778785738.159235,79344083,1,1.15093994140625,585.2409057617188,94488.5390625,30.76,1.2044906616210938,79344,0.0,28.02182960510254,1,94488.5390625,8.200052,0,1.15093994140625,1.15093994140625,0.0,0,1.15093994140625
1778785738.2591949,79444043,0,1.28619384765625,585.3761596679688,94488.265625,30.76,1.2409782409667969,79444,0.0,28.02182960510254,1,94488.265625,8.300012,0,1.28619384765625,1.28619384765625,0.0,0,1.28619384765625
1778785738.2591949,79444043,1,1.00689697265625,585.0968627929688,94490.171875,30.76,1.2409782409667969,79444,0.0,28.02182960510254,1,94490.171875,8.300012,0,1.00689697265625,1.00689697265625,0.0,0,1.00689697265625
1778785738.359988,79544836,0,1.4332275390625,585.523193359375,94486.6015625,30.76,1.3206291198730469,79544,0.0,28.02182960510254,1,94486.6015625,8.400805,0,1.4332275390625,1.4332275390625,0.0,0,1.4332275390625
1778785738.359988,79544836,1,1.1802978515625,585.270263671875,94488.203125,30.76,1.3206291198730469,79544,0.0,28.02182960510254,1,94488.203125,8.400805,0,1.1802978515625,1.1802978515625,0.0,0,1.1802978515625
1778785738.4599478,79644796,0,1.6065673828125,585.696533203125,94484.6328125,30.76,1.4187430143356323,79644,0.0,28.02182960510254,1,94484.6328125,8.500765,0,1.6065673828125,1.6065673828125,0.0,0,1.6065673828125
1778785738.4599478,79644796,1,1.5035400390625,585.593505859375,94484.5234375,30.76,1.4187430143356323,79644,0.0,28.02182960510254,1,94484.5234375,8.500765,0,1.5035400390625,1.5035400390625,0.0,0,1.5035400390625
1778785738.559908,79744756,0,1.78631591796875,585.8762817382812,94482.6015625,30.76,1.5133095979690552,79744,0.0,28.02182960510254,1,94482.6015625,8.600725,0,1.78631591796875,1.78631591796875,0.0,0,1.78631591796875
1778785738.559908,79744756,1,1.63592529296875,585.7258911132812,94483.03125,30.76,1.5133095979690552,79744,0.0,28.02182960510254,1,94483.03125,8.600725,0,1.63592529296875,1.63592529296875,0.0,0,1.63592529296875
1778785738.659868,79844716,0,1.97723388671875,586.0671997070312,94480.4296875,30.76,1.6201019287109375,79844,0.0,28.02182960510254,1,94480.4296875,8.700685,0,1.97723388671875,1.97723388671875,0.0,0,1.97723388671875
1778785738.659868,79844716,1,1.89471435546875,585.9846801757812,94480.0859375,30.76,1.6201019287109375,79844,0.0,28.02182960510254,1,94480.0859375,8.700685,0,1.89471435546875,1.89471435546875,0.0,0,1.89471435546875
1778785738.759828,79944676,0,2.16522216796875,586.2551879882812,94478.2890625,30.76,1.737060546875,79944,0.0,28.02182960510254,1,94478.2890625,8.800645,0,2.16522216796875,2.16522216796875,0.0,0,2.16522216796875
1778785738.759828,79944676,1,1.95086669921875,586.0408325195312,94479.453125,30.76,1.737060546875,79944,0.0,28.02182960510254,1,94479.453125,8.800645,0,1.95086669921875,1.95086669921875,0.0,0,1.95086669921875
1778785738.859788,80044636,0,2.37725830078125,586.4672241210938,94475.8828125,30.76,1.8351173400878904,80044,0.0,28.02182960510254,1,94475.8828125,8.900605,0,2.37725830078125,2.37725830078125,0.0,0,2.37725830078125
1778785738.859788,80044636,1,2.209716796875,586.2996826171875,94476.515625,30.76,1.8351173400878904,80044,0.0,28.02182960510254,1,94476.515625,8.900605,0,2.209716796875,2.209716796875,0.0,0,2.209716796875
1778785738.959748,80144596,0,2.59796142578125,586.6879272460938,94473.3828125,30.76,1.9193840026855469,80144,0.0,28.02182960510254,1,94473.3828125,9.000565,0,2.59796142578125,2.59796142578125,0.0,0,2.59796142578125
1778785738.959748,80144596,1,2.42413330078125,586.5140991210938,94474.0859375,30.76,1.9193840026855469,80144,0.0,28.02182960510254,1,94474.0859375,9.000565,0,2.42413330078125,2.42413330078125,0.0,0,2.42413330078125
1778785739.059708,80244556,0,2.8270263671875,586.9169921875,94470.78125,30.76,2.0209884643554688,80244,0.0,28.02182960510254,1,94470.78125,9.100525,0,2.8270263671875,2.8270263671875,0.0,0,2.8270263671875
1778785739.059708,80244556,1,2.52716064453125,586.6171264648438,94472.921875,30.76,2.0209884643554688,80244,0.0,28.02182960510254,1,94472.921875,9.100525,0,2.52716064453125,2.52716064453125,0.0,0,2.52716064453125
1778785739.159668,80344516,0,3.0682373046875,587.158203125,94468.046875,30.76,2.138996124267578,80344,0.0,28.02182960510254,1,94468.046875,9.200485,0,3.0682373046875,3.0682373046875,0.0,0,3.0682373046875
1778785739.159668,80344516,1,2.9564208984375,587.04638671875,94468.046875,30.76,2.138996124267578,80344,0.0,28.02182960510254,1,94468.046875,9.200485,0,2.9564208984375,2.9564208984375,0.0,0,2.9564208984375
1778785739.2596278,80444476,0,3.3154296875,587.4053955078125,94465.2421875,30.76,2.249717712402344,80444,0.0,28.02182960510254,1,94465.2421875,9.300445,0,3.3154296875,3.3154296875,0.0,0,3.3154296875
1778785739.2596278,80444476,1,3.23284912109375,587.3228149414062,94464.8984375,30.76,2.249717712402344,80444,0.0,28.02182960510254,1,94464.8984375,9.300445,0,3.23284912109375,3.23284912109375,0.0,0,3.23284912109375
1778785739.359588,80544436,0,3.5654296875,587.6553955078125,94462.3984375,30.76,2.3450851440429688,80544,0.0,28.02182960510254,1,94462.3984375,9.400405,0,3.5654296875,3.5654296875,0.0,0,3.5654296875
1778785739.359588,80544436,1,3.46240234375,587.5523681640625,94462.3046875,30.76,2.3450851440429688,80544,0.0,28.02182960510254,1,94462.3046875,9.400405,0,3.46240234375,3.46240234375,0.0,0,3.46240234375
1778785739.459548,80644396,0,3.81842041015625,587.9083862304688,94459.53125,30.76,2.4228286743164062,80644,0.0,28.02182960510254,1,94459.53125,9.500365,0,3.81842041015625,3.81842041015625,0.0,0,3.81842041015625
1778785739.459548,80644396,1,3.81500244140625,587.9049682617188,94458.3046875,30.76,2.4228286743164062,80644,0.0,28.02182960510254,1,94458.3046875,9.500365,0,3.81500244140625,3.81500244140625,0.0,0,3.81500244140625
1778785739.5595078,80744356,0,4.06793212890625,588.1578979492188,94456.6953125,30.76,2.4754714965820312,80744,0.0,28.02182960510254,1,94456.6953125,9.600325,0,4.06793212890625,4.06793212890625,0.0,0,4.06793212890625
1778785739.5595078,80744356,1,3.96539306640625,588.0553588867188,94456.6015625,30.76,2.4754714965820312,80744,0.0,28.02182960510254,1,94456.6015625,9.600325,0,3.96539306640625,3.96539306640625,0.0,0,3.96539306640625
1778785739.659468,80844316,0,4.3238525390625,588.413818359375,94453.7890625,30.76,2.5032997131347656,80844,0.0,28.02182960510254,1,94453.7890625,9.700285,0,4.3238525390625,4.3238525390625,0.0,0,4.3238525390625
1778785739.659468,80844316,1,4.3975830078125,588.487548828125,94451.6953125,30.76,2.5032997131347656,80844,0.0,28.02182960510254,1,94451.6953125,9.700285,0,4.3975830078125,4.3975830078125,0.0,0,4.3975830078125
1778785739.759428,80944276,0,4.57391357421875,588.6638793945312,94450.953125,30.76,2.5162124633789062,80944,0.0,28.02182960510254,1,94450.953125,9.800245,0,4.57391357421875,4.57391357421875,0.0,0,4.57391357421875
1778785739.759428,80944276,1,4.28875732421875,588.3787231445312,94452.921875,30.76,2.5162124633789062,80944,0.0,28.02182960510254,1,94452.921875,9.800245,0,4.28875732421875,4.28875732421875,0.0,0,4.28875732421875
1778785739.859388,81044236,0,4.823974609375,588.9139404296875,94448.125,30.76,2.52176284790039,81044,0.0,28.02182960510254,1,94448.125,9.900205,0,4.823974609375,4.823974609375,0.0,0,4.823974609375
1778785739.859388,81044236,1,4.768310546875,588.8582763671875,94447.4921875,30.76,2.52176284790039,81044,0.0,28.02182960510254,1,94447.4921875,9.900205,0,4.768310546875,4.768310546875,0.0,0,4.768310546875
1778785739.959348,81144196,0,5.076904296875,589.1668701171875,94445.2578125,30.76,2.5198745727539062,81144,0.0,28.02182960510254,1,94445.2578125,10.000165,1,10.076904296875,5.076904296875,5.0,1,5.076904296875
1778785739.959348,81144196,1,4.879638671875,588.9696044921875,94446.21875,30.76,2.5198745727539062,81144,0.0,28.02182960510254,1,94446.21875,10.000165,1,9.879638671875,4.879638671875,5.0,1,4.879638671875
1778785740.0593078,81244156,0,5.33575439453125,589.4257202148438,94442.3125,30.76,2.516822576522827,81244,0.0,28.02182960510254,1,94442.3125,10.100125,1,10.33575439453125,5.33575439453125,5.0,1,5.33575439453125
1778785740.0593078,81244156,1,5.17999267578125,589.2699584960938,94442.8203125,30.76,2.516822576522827,81244,0.0,28.02182960510254,1,94442.8203125,10.100125,1,10.17999267578125,5.17999267578125,5.0,1,5.17999267578125
1778785740.159268,81344116,0,5.5828857421875,589.6728515625,94439.515625,30.76,2.52422308921814,81344,0.0,28.02182960510254,1,94439.515625,10.200085,1,10.5828857421875,5.5828857421875,5.0,1,5.5828857421875
1778785740.159268,81344116,1,5.2855224609375,589.37548828125,94441.609375,30.76,2.52422308921814,81344,0.0,28.02182960510254,1,94441.609375,10.200085,1,10.2855224609375,5.2855224609375,5.0,1,5.2855224609375
1778785740.259228,81444076,0,5.83880615234375,589.9287719726562,94436.609375,30.76,2.5342941284179688,81444,0.0,28.02182960510254,1,94436.609375,10.300045,1,10.83880615234375,5.83880615234375,5.0,1,5.83880615234375
1778785740.259228,81444076,1,5.5560302734375,589.64599609375,94438.5390625,30.76,2.5342941284179688,81444,0.0,28.02182960510254,1,94438.5390625,10.300045,1,10.5560302734375,5.5560302734375,5.0,1,5.5560302734375
1778785740.3591878,81544036,0,6.07659912109375,590.1665649414062,94433.8984375,30.76,2.528724670410156,81544,0.0,28.02182960510254,1,94433.8984375,10.400005,1,11.07659912109375,6.07659912109375,5.0,1,6.07659912109375
1778785740.3591878,81544036,1,6.12408447265625,590.2140502929688,94432.1015625,30.76,2.528724670410156,81544,0.0,28.02182960510254,1,94432.1015625,10.400005,1,11.12408447265625,6.12408447265625,5.0,1,6.12408447265625
1778785740.4599807,81644829,0,6.32672119140625,590.4166870117188,94431.0703125,30.76,2.5052452087402344,81644,0.0,28.02182960510254,1,94431.0703125,10.500798,1,11.32672119140625,6.32672119140625,5.0,1,6.32672119140625
1778785740.4599807,81644829,1,6.28863525390625,590.3786010742188,94430.234375,30.76,2.5052452087402344,81644,0.0,28.02182960510254,1,94430.234375,10.500798,1,11.28863525390625,6.28863525390625,5.0,1,6.28863525390625
1778785740.5599408,81744789,0,6.57379150390625,590.6637573242188,94428.265625,30.76,2.4779129028320312,81744,0.0,28.02182960510254,1,94428.265625,10.600758,1,11.57379150390625,6.57379150390625,5.0,1,6.57379150390625
1778785740.5599408,81744789,1,6.41510009765625,590.5050659179688,94428.796875,30.76,2.4779129028320312,81744,0.0,28.02182960510254,1,94428.796875,10.600758,1,11.41510009765625,6.41510009765625,5.0,1,6.41510009765625
1778785740.659901,81844749,0,6.8238525390625,590.913818359375,94425.4296875,30.76,2.4660303592681885,81844,0.0,28.02182960510254,1,94425.4296875,10.700718,1,11.8238525390625,6.8238525390625,5.0,1,6.8238525390625
1778785740.659901,81844749,1,6.53863525390625,590.6286010742188,94427.3984375,30.76,2.4660303592681885,81844,0.0,28.02182960510254,1,94427.3984375,10.700718,1,11.53863525390625,6.53863525390625,5.0,1,6.53863525390625
1778785740.7598608,81944709,0,7.0679931640625,591.157958984375,94422.6640625,30.76,2.472266912460327,81944,0.0,28.02182960510254,1,94422.6640625,10.800678,1,12.0679931640625,7.0679931640625,5.0,1,7.0679931640625
1778785740.7598608,81944709,1,6.8795166015625,590.969482421875,94423.53125,30.76,2.472266912460327,81944,0.0,28.02182960510254,1,94423.53125,10.800678,1,11.8795166015625,6.8795166015625,5.0,1,6.8795166015625
1778785740.8598208,82044669,0,7.318115234375,591.4080810546875,94419.828125,30.76,2.4782943725585938,82044,0.0,28.02182960510254,1,94419.828125,10.900638,1,12.318115234375,7.318115234375,5.0,1,7.318115234375
1778785740.8598208,82044669,1,7.10028076171875,591.1902465820312,94421.03125,30.76,2.4782943725585938,82044,0.0,28.02182960510254,1,94421.03125,10.900638,1,12.10028076171875,7.10028076171875,5.0,1,7.10028076171875
1778785740.9597807,82144629,0,7.555908203125,591.6458740234375,94417.125,30.76,2.473716735839844,82144,0.0,28.02182960510254,1,94417.125,11.000598,1,12.555908203125,7.555908203125,5.0,1,7.555908203125
1778785740.9597807,82144629,1,7.520751953125,591.6107177734375,94416.2578125,30.76,2.473716735839844,82144,0.0,28.02182960510254,1,94416.2578125,11.000598,1,12.520751953125,7.520751953125,5.0,1,7.520751953125
1778785741.059741,82244589,0,7.80596923828125,591.8959350585938,94414.2890625,30.76,2.462196350097656,82244,0.0,28.02182960510254,1,94414.2890625,11.100558,1,12.80596923828125,7.80596923828125,5.0,1,7.80596923828125
1778785741.059741,82244589,1,7.497314453125,591.5872802734375,94416.5234375,30.76,2.462196350097656,82244,0.0,28.02182960510254,1,94416.5234375,11.100558,1,12.497314453125,7.497314453125,5.0,1,7.497314453125
1778785741.1597009,82344549,0,8.05303955078125,592.1430053710938,94411.4921875,30.76,2.4522783756256104,82344,0.0,28.02182960510254,1,94411.4921875,11.200518,1,13.05303955078125,8.05303955078125,5.0,1,8.05303955078125
1778785741.1597009,82344549,1,8.0677490234375,592.15771484375,94410.046875,30.76,2.4522783756256104,82344,0.0,28.02182960510254,1,94410.046875,11.200518,1,13.0677490234375,8.0677490234375,5.0,1,8.0677490234375
1778785741.2596607,82444509,0,8.29730224609375,592.3872680664062,94408.71875,30.76,2.4540328979492188,82444,0.0,28.02182960510254,1,94408.71875,11.300478,1,13.29730224609375,8.29730224609375,5.0,1,8.29730224609375
1778785741.2596607,82444509,1,8.32366943359375,592.4136352539062,94407.1484375,30.76,2.4540328979492188,82444,0.0,28.02182960510254,1,94407.1484375,11.300478,1,13.32366943359375,8.32366943359375,5.0,1,8.32366943359375
1778785741.359621,82544469,0,8.54730224609375,592.6372680664062,94405.890625,30.76,2.4630355834960938,82544,0.0,28.02182960510254,1,94405.890625,11.400438,1,13.54730224609375,8.54730224609375,5.0,1,8.54730224609375
1778785741.359621,82544469,1,8.48236083984375,592.5723266601562,94405.3515625,30.76,2.4630355834960938,82544,0.0,28.02182960510254,1,94405.3515625,11.400438,1,13.48236083984375,8.48236083984375,5.0,1,8.48236083984375
1778785741.459581,82644429,0,8.78515625,592.8751220703125,94403.1796875,30.76,2.465400695800781,82644,0.0,28.02182960510254,1,94403.1796875,11.500398,1,13.78515625,8.78515625,5.0,1,8.78515625
1778785741.459581,82644429,1,8.685546875,592.7755126953125,94403.046875,30.76,2.465400695800781,82644,0.0,28.02182960510254,1,94403.046875,11.500398,1,13.685546875,8.685546875,5.0,1,8.685546875
1778785741.5595407,82744389,0,9.03521728515625,593.1251831054688,94400.3515625,30.76,2.4585533142089844,82744,0.0,28.02182960510254,1,94400.3515625,11.600358,1,14.03521728515625,9.03521728515625,5.0,1,9.03521728515625
1778785741.5595407,82744389,1,9.0234375,593.1134033203125,94399.21875,30.75,2.4585533142089844,82744,0.0,28.02182960510254,1,94399.21875,11.600358,1,14.0234375,9.0234375,5.0,1,9.0234375
1778785741.6595008,82844349,0,9.2735595703125,593.363525390625,94397.6484375,30.76,2.448615789413452,82844,0.0,28.02182960510254,1,94397.6484375,11.700318,1,14.2735595703125,9.2735595703125,5.0,1,9.2735595703125
1778785741.6595008,82844349,1,9.2852783203125,593.375244140625,94396.2421875,30.75,2.448615789413452,82844,0.0,28.02182960510254,1,94396.2421875,11.700318,1,14.2852783203125,9.2852783203125,5.0,1,9.2852783203125
1778785741.7594607,82944309,0,9.5235595703125,593.613525390625,94394.8125,30.75,2.4422261714935303,82944,0.0,28.02182960510254,1,94394.8125,11.800278,1,14.5235595703125,9.5235595703125,5.0,1,9.5235595703125
1778785741.7594607,82944309,1,9.4527587890625,593.542724609375,94394.34375,30.75,2.4422261714935303,82944,0.0,28.02182960510254,1,94394.34375,11.800278,1,14.4527587890625,9.4527587890625,5.0,1,9.4527587890625
1778785741.859421,83044269,0,9.77655029296875,593.8665161132812,94391.9375,30.75,2.445716857910156,83044,0.0,28.02182960510254,1,94391.9375,11.900238,1,14.77655029296875,9.77655029296875,5.0,1,9.77655029296875
1778785741.859421,83044269,1,9.4820556640625,593.572021484375,94394.0078125,30.76,2.445716857910156,83044,0.0,28.02182960510254,1,94394.0078125,11.900238,1,14.4820556640625,9.4820556640625,5.0,1,9.4820556640625
1778785741.9593809,83144229,0,10.01776123046875,594.1077270507812,94389.2109375,30.75,2.4617960453033447,83144,0.0,28.02182960510254,1,94389.2109375,12.000198,1,15.01776123046875,10.01776123046875,5.0,1,10.01776123046875
1778785741.9593809,83144229,1,9.73504638671875,593.8250122070312,94391.1484375,30.76,2.4617960453033447,83144,0.0,28.02182960510254,1,94391.1484375,12.000198,1,14.73504638671875,9.73504638671875,5.0,1,9.73504638671875
1778785742.0593407,83244189,0,10.264404296875,594.3543701171875,94386.3984375,30.75,2.476367950439453,83244,0.0,28.02182960510254,1,94386.3984375,12.100158,1,15.264404296875,10.264404296875,5.0,1,10.264404296875
1778785742.0593407,83244189,1,10.32647705078125,594.4164428710938,94384.4453125,30.75,2.476367950439453,83244,0.0,28.02182960510254,1,94384.4453125,12.100158,1,15.32647705078125,10.32647705078125,5.0,1,10.32647705078125
1778785742.159301,83344149,0,10.51446533203125,594.6044311523438,94383.5703125,30.75,2.473011016845703,83344,0.0,28.02182960510254,1,94383.5703125,12.200118,1,15.51446533203125,10.51446533203125,5.0,1,10.51446533203125
1778785742.159301,83344149,1,10.30010986328125,594.3900756835938,94384.734375,30.75,2.473011016845703,83344,0.0,28.02182960510254,1,94384.734375,12.200118,1,15.30010986328125,10.30010986328125,5.0,1,10.30010986328125
1778785742.259261,83444109,0,10.7674560546875,594.857421875,94380.703125,30.75,2.4677467346191406,83444,0.0,28.02182960510254,1,94380.703125,12.300078,1,15.7674560546875,10.7674560546875,5.0,1,10.7674560546875
1778785742.259261,83444109,1,10.7176513671875,594.8076171875,94380.0078125,30.75,2.4677467346191406,83444,0.0,28.02182960510254,1,94380.0078125,12.300078,1,15.7176513671875,10.7176513671875,5.0,1,10.7176513671875
1778785742.3592207,83544069,0,11.0174560546875,595.107421875,94377.8671875,30.75,2.4815750122070312,83544,0.0,28.02182960510254,1,94377.8671875,12.400038,1,16.0174560546875,11.0174560546875,5.0,1,11.0174560546875
1778785742.3592207,83544069,1,11.09368896484375,595.1836547851562,94375.734375,30.75,2.4815750122070312,83544,0.0,28.02182960510254,1,94375.734375,12.400038,1,16.09368896484375,11.09368896484375,5.0,1,11.09368896484375
1778785742.4591808,83644029,0,11.26458740234375,595.3545532226562,94375.0703125,30.75,2.500648498535156,83644,0.0,28.02182960510254,1,94375.0703125,12.499998,1,16.26458740234375,11.26458740234375,5.0,1,11.26458740234375
1778785742.4591808,83644029,1,11.11761474609375,595.2075805664062,94375.46875,30.75,2.500648498535156,83644,0.0,28.02182960510254,1,94375.46875,12.499998,1,16.11761474609375,11.11761474609375,5.0,1,11.11761474609375
1778785742.559974,83744822,0,11.505859375,595.5958251953125,94372.3359375,30.75,2.501182794570923,83744,0.0,28.02182960510254,1,94372.3359375,12.600791,1,16.505859375,11.505859375,5.0,1,11.505859375
1778785742.559974,83744822,1,11.2998046875,595.3897705078125,94373.3984375,30.75,2.501182794570923,83744,0.0,28.02182960510254,1,94373.3984375,12.600791,1,16.2998046875,11.2998046875,5.0,1,11.2998046875
1778785742.659934,83844782,0,11.75592041015625,595.8458862304688,94369.5,30.75,2.4821090698242188,83844,0.0,28.02182960510254,1,94369.5,12.700751,1,16.75592041015625,11.75592041015625,5.0,1,11.75592041015625
1778785742.659934,83844782,1,11.58502197265625,595.6749877929688,94370.1640625,30.75,2.4821090698242188,83844,0.0,28.02182960510254,1,94370.1640625,12.700751,1,16.58502197265625,11.58502197265625,5.0,1,11.58502197265625
1778785742.759894,83944742,0,11.9996337890625,596.089599609375,94366.734375,30.75,2.4628257751464844,83944,0.0,28.02182960510254,1,94366.734375,12.800711,1,16.9996337890625,11.9996337890625,5.0,1,11.9996337890625
1778785742.759894,83944742,1,11.9234619140625,596.013427734375,94366.328125,30.75,2.4628257751464844,83944,0.0,28.02182960510254,1,94366.328125,12.800711,1,16.9234619140625,11.9234619140625,5.0,1,11.9234619140625
1778785742.859854,84044702,0,12.23211669921875,596.3220825195312,94364.09375,30.75,2.4531362056732178,84044,0.0,28.02182960510254,1,94364.09375,12.900671,1,17.23211669921875,12.23211669921875,5.0,1,12.23211669921875
1778785742.859854,84044702,1,11.9674072265625,596.057373046875,94365.8359375,30.75,2.4531362056732178,84044,0.0,28.02182960510254,1,94365.8359375,12.900671,1,16.9674072265625,11.9674072265625,5.0,1,11.9674072265625
1778785742.9598138,84144662,0,12.46746826171875,596.5574340820312,94361.4296875,30.75,2.434063196182251,84144,0.0,28.02182960510254,1,94361.4296875,13.000631,1,17.46746826171875,12.46746826171875,5.0,1,12.46746826171875
1778785742.9598138,84144662,1,12.34686279296875,596.4368286132812,94361.5234375,30.75,2.434063196182251,84144,0.0,28.02182960510254,1,94361.5234375,13.000631,1,17.34686279296875,12.34686279296875,5.0,1,12.34686279296875
1778785743.059774,84244622,0,12.684814453125,596.7747802734375,94358.9609375,30.75,2.3898887634277344,84244,0.0,28.02182960510254,1,94358.9609375,13.100591,1,17.684814453125,12.684814453125,5.0,1,12.684814453125
1778785743.059774,84244622,1,12.39373779296875,596.4837036132812,94360.9921875,30.75,2.3898887634277344,84244,0.0,28.02182960510254,1,94360.9921875,13.100591,1,17.39373779296875,12.39373779296875,5.0,1,12.39373779296875
1778785743.159734,84344582,0,12.89678955078125,596.9867553710938,94356.5546875,30.75,2.3267745971679688,84344,0.0,28.02182960510254,1,94356.5546875,13.200551,1,17.89678955078125,12.89678955078125,5.0,1,12.89678955078125
1778785743.159734,84344582,1,12.614501953125,596.7044677734375,94358.4921875,30.75,2.3267745971679688,84344,0.0,28.02182960510254,1,94358.4921875,13.200551,1,17.614501953125,12.614501953125,5.0,1,12.614501953125
1778785743.259694,84444542,0,13.09649658203125,597.1864624023438,94354.2890625,30.75,2.2477152347564697,84444,0.0,28.02182960510254,1,94354.2890625,13.300511,1,18.09649658203125,13.09649658203125,5.0,1,13.09649658203125
1778785743.259694,84444542,1,12.83184814453125,596.9218139648438,94356.0234375,30.75,2.2477152347564697,84444,0.0,28.02182960510254,1,94356.0234375,13.300511,1,17.83184814453125,12.83184814453125,5.0,1,12.83184814453125
1778785743.359654,84544502,0,13.2850341796875,597.375,94352.1640625,30.75,2.1529769897460938,84544,0.0,28.02182960510254,1,94352.1640625,13.400471,1,18.2850341796875,13.2850341796875,5.0,1,13.2850341796875
1778785743.359654,84544502,1,13.03204345703125,597.1220092773438,94353.7578125,30.75,2.1529769897460938,84544,0.0,28.02182960510254,1,94353.7578125,13.400471,1,18.03204345703125,13.03204345703125,5.0,1,13.03204345703125
1778785743.459614,84644462,0,13.46429443359375,597.5542602539062,94350.125,30.75,2.050266027450561,84644,0.0,28.02182960510254,1,94350.125,13.500431,1,18.46429443359375,13.46429443359375,5.0,1,13.46429443359375
1778785743.459614,84644462,1,13.54095458984375,597.6309204101562,94347.984375,30.75,2.050266027450561,84644,0.0,28.02182960510254,1,94347.984375,13.500431,1,18.54095458984375,13.54095458984375,5.0,1,13.54095458984375
1778785743.559574,84744422,0,13.63763427734375,597.7276000976562,94348.15625,30.75,1.9466590881347656,84744,0.0,28.02182960510254,1,94348.15625,13.600391,1,18.63763427734375,13.63763427734375,5.0,1,13.63763427734375
1778785743.559574,84744422,1,13.4495849609375,597.53955078125,94349.0234375,30.75,1.9466590881347656,84744,0.0,28.02182960510254,1,94349.0234375,13.600391,1,18.4495849609375,13.4495849609375,5.0,1,13.4495849609375
1778785743.659534,84844382,0,13.79681396484375,597.8867797851562,94346.359375,30.75,1.848239779472351,84844,0.0,28.02182960510254,1,94346.359375,13.700351,1,18.79681396484375,13.79681396484375,5.0,1,13.79681396484375
1778785743.659534,84844382,1,13.58782958984375,597.6777954101562,94347.4609375,30.75,1.848239779472351,84844,0.0,28.02182960510254,1,94347.4609375,13.700351,1,18.58782958984375,13.58782958984375,5.0,1,13.58782958984375
1778785743.7594938,84944342,0,13.94677734375,598.0367431640625,94344.6640625,30.75,1.7544554471969604,84944,0.0,28.02182960510254,1,94344.6640625,13.800311,1,18.94677734375,13.94677734375,5.0,1,13.94677734375
1778785743.7594938,84944342,1,13.71728515625,597.8072509765625,94345.984375,30.75,1.7544554471969604,84944,0.0,28.02182960510254,1,94345.984375,13.800311,1,18.71728515625,13.71728515625,5.0,1,13.71728515625
1778785743.859454,85044302,0,14.0732421875,598.1632080078125,94343.21875,30.75,1.6519737243652344,85044,0.0,28.02182960510254,1,94343.21875,13.900271,1,19.0732421875,14.0732421875,5.0,1,14.0732421875
1778785743.859454,85044302,1,13.80267333984375,597.8926391601562,94345.0234375,30.75,1.6519737243652344,85044,0.0,28.02182960510254,1,94345.0234375,13.900271,1,18.80267333984375,13.80267333984375,5.0,1,13.80267333984375
1778785743.959414,85144262,0,14.20556640625,598.2955322265625,94341.7265625,30.75,1.5318869352340698,85144,0.0,28.02182960510254,1,94341.7265625,14.000231,1,19.20556640625,14.20556640625,5.0,1,14.20556640625
1778785743.959414,85144262,1,13.94384765625,598.0338134765625,94343.421875,30.75,1.5318869352340698,85144,0.0,28.02182960510254,1,94343.421875,14.000231,1,18.94384765625,13.94384765625,5.0,1,13.94384765625
1778785744.059374,85244222,0,14.31744384765625,598.4074096679688,94340.4609375,30.75,1.408443570137024,85244,0.0,28.02182960510254,1,94340.4609375,14.100191,1,19.31744384765625,14.31744384765625,5.0,1,14.31744384765625
1778785744.059374,85244222,1,14.27593994140625,598.3659057617188,94339.65625,30.75,1.408443570137024,85244,0.0,28.02182960510254,1,94339.65625,14.100191,1,19.27593994140625,14.27593994140625,5.0,1,14.27593994140625
1778785744.159334,85344182,0,14.4171142578125,598.507080078125,94339.3203125,30.75,1.298732876777649,85344,0.0,28.02182960510254,1,94339.3203125,14.200151,1,19.4171142578125,14.4171142578125,5.0,1,14.4171142578125
1778785744.159334,85344182,1,14.4552001953125,598.545166015625,94337.6171875,30.75,1.298732876777649,85344,0.0,28.02182960510254,1,94337.6171875,14.200151,1,19.4552001953125,14.4552001953125,5.0,1,14.4552001953125
1778785744.259294,85444142,0,14.51422119140625,598.6041870117188,94338.21875,30.76,1.193675875663757,85444,0.0,28.02182960510254,1,94338.21875,14.300111,1,19.51422119140625,14.51422119140625,5.0,1,14.51422119140625
1778785744.259294,85444142,1,14.5728759765625,598.662841796875,94336.28125,30.75,1.193675875663757,85444,0.0,28.02182960510254,1,94336.28125,14.300111,1,19.5728759765625,14.5728759765625,5.0,1,14.5728759765625
1778785744.359254,85544102,0,14.59674072265625,598.6867065429688,94337.2890625,30.76,1.084880828857422,85544,0.0,28.02182960510254,1,94337.2890625,14.400071,1,19.59674072265625,14.59674072265625,5.0,1,14.59674072265625
1778785744.359254,85544102,1,14.5875244140625,598.677490234375,94336.125,30.76,1.084880828857422,85544,0.0,28.02182960510254,1,94336.125,14.400071,1,19.5875244140625,14.5875244140625,5.0,1,14.5875244140625
