timestamp,TimeUS,I,GyrX,GyrY,GyrZ,AccX,AccY,AccZ,EG,EA,T,GH,AH,GHz,AHz,TimeSec,AttackActive_IMU,GyrZ_attacked,SoftwareSensor_GyrZ,Residual_GyrZ,DetectionFlag_GyrZ,Recovered_GyrZ
1778788392.699207,65884469,0,0.0009140516049228,0.0009033981477841,0.0009237399790436,4.852438723901287e-05,-0.0024303742684423,-9.817787170410156,0,0,28.840648651123047,1,1,1000,1000,0.0,0,0.0009237399790436,0.0009237399790436,0.0,0,0.0009237399790436
1778788392.699207,65884469,1,0.0008154634851962,0.0009601981728337,0.0007753984536975,-0.0009366731392219,0.0009079400333575,-9.818324089050291,0,0,28.840648651123047,1,1,760,800,0.0,0,0.0007753984536975,0.0007753984536975,0.0,0,0.0007753984536975
1778788392.740024,65925286,0,0.0009212211589328,0.0008525763405486,0.0009686308912932,-0.0017397566698491,-0.0010481998324394,-9.817962646484377,0,0,28.842857360839844,1,1,1000,1000,0.040817,0,0.0009686308912932,0.0009686308912932,0.0,0,0.0009686308912932
1778788392.740024,65925286,1,0.0009044568287208,0.0010468622203916,0.0010587552096694,-0.0028701031114906,-0.0019179234514012,-9.818723678588867,0,0,28.842803955078125,1,1,760,800,0.040817,0,0.0010587552096694,0.0010587552096694,0.0,0,0.0010587552096694
1778788392.780008,65965270,0,0.0008693089475855,0.0009351693443022,0.0008689555106684,-0.0009350695181638,-0.0011599268764257,-9.817306518554688,0,0,28.84501075744629,1,1,1000,1000,0.080801,0,0.0008689555106684,0.0008689555106684,0.0,0,0.0008689555106684
1778788392.780008,65965270,1,0.0010624532587826,0.0008150734938681,0.0009217590559273,-0.0008501830161549,-0.0005121081485413,-9.815150260925291,0,0,28.84495735168457,1,1,760,800,0.080801,0,0.0009217590559273,0.0009217590559273,0.0,0,0.0009217590559273
1778788392.819992,66005254,0,0.0009324351558461,0.0009828455513343,0.0009180665947496,-0.0016596168279647,-0.0011505000293254,-9.818524360656738,0,0,28.84716415405273,1,1,1000,1000,0.120785,0,0.0009180665947496,0.0009180665947496,0.0,0,0.0009180665947496
1778788392.819992,66005254,1,0.0008291936246678,0.0010278145782649,0.0009060758166015,-0.0029311494436115,-8.078003156697378e-05,-9.818509101867676,0,0,28.847110748291016,1,1,760,800,0.120785,0,0.0009060758166015,0.0009060758166015,0.0,0,0.0009060758166015
1778788392.859976,66045238,0,0.0009131389087997,0.0009303718688897,0.0009882593294605,-0.0004251505015417,-0.0006230555591173,-9.817291259765623,0,0,28.84931755065918,1,1,1000,1000,0.160769,0,0.0009882593294605,0.0009882593294605,0.0,0,0.0009882593294605
1778788392.859976,66045238,1,0.0009329917957074,0.0009932147804647,0.0010368665680289,-0.0027578040026128,-0.0022788974456489,-9.818527221679688,0,0,28.84926414489746,1,1,760,800,0.160769,0,0.0010368665680289,0.0010368665680289,0.0,0,0.0010368665680289
1778788392.89996,66085222,0,0.0009506189380772,0.0009200842468999,0.0009450056240893,-0.0013060559285804,-0.0013589905574917,-9.817142486572266,0,0,28.851417541503903,1,1,1000,1000,0.200753,0,0.0009450056240893,0.0009450056240893,0.0,0,0.0009450056240893
1778788392.89996,66085222,1,0.0008138224948197,0.0007899565971456,0.0011414034524932,-0.0016149844741448,0.0013261607382446,-9.817687034606934,0,0,28.851417541503903,1,1,760,800,0.200753,0,0.0011414034524932,0.0011414034524932,0.0,0,0.0011414034524932
1778788392.939944,66125206,0,0.0009534268756397,0.0008711374830454,0.0009960200404748,-0.0012131413677707,-0.0005248147645033,-9.815933227539062,0,0,28.85357093811035,1,1,1000,1000,0.240737,0,0.0009960200404748,0.0009960200404748,0.0,0,0.0009960200404748
1778788392.939944,66125206,1,0.0009881923906505,0.0008972200448624,0.0009129361133091,-0.0015896012773737,-0.0015985947102308,-9.816545486450195,0,0,28.85357093811035,1,1,760,800,0.240737,0,0.0009129361133091,0.0009129361133091,0.0,0,0.0009129361133091
1778788392.979928,66165190,0,0.0009639316704124,0.0009267668356187,0.0009012593072839,-0.0011784309754148,-0.0006320611573755,-9.818537712097168,0,0,28.855722427368164,1,1,1000,1000,0.280721,0,0.0009012593072839,0.0009012593072839,0.0,0,0.0009012593072839
1778788392.979928,66165190,1,0.0009535555727779,0.0010175076313316,0.0008520944975316,-0.00245051109232,0.0001168177477666,-9.818769454956056,0,0,28.855722427368164,1,1,760,800,0.280721,0,0.0008520944975316,0.0008520944975316,0.0,0,0.0008520944975316
1778788393.019912,66205174,0,0.0009478107676841,0.0009139704634435,0.0009750751778483,-0.0013058682670816,-0.0008680603932589,-9.817156791687012,0,0,28.85787582397461,1,1,1000,1000,0.320705,0,0.0009750751778483,0.0009750751778483,0.0,0,0.0009750751778483
1778788393.019912,66205174,1,0.0009507060749456,0.0009018906857818,0.0010126791894435,-0.0033680140040814,-0.001181298517622,-9.81830596923828,0,0,28.85787582397461,1,1,760,800,0.320705,0,0.0010126791894435,0.0010126791894435,0.0,0,0.0010126791894435
1778788393.059896,66245158,0,0.0009787618182599,0.0009303325787186,0.0010519882198423,-0.0004167663282714,-0.0016677195671945,-9.817419052124023,0,0,28.860027313232425,1,1,1000,1000,0.360689,0,0.0010519882198423,0.0010519882198423,0.0,0,0.0010519882198423
1778788393.059896,66245158,1,0.0008023427799344,0.0009332209010608,0.0009403708390891,-0.0015935651026666,0.0005652626277878,-9.816902160644531,0,0,28.860027313232425,1,1,760,800,0.360689,0,0.0009403708390891,0.0009403708390891,0.0,0,0.0009403708390891
1778788393.09988,66285142,0,0.00088471948402,0.0009634256130084,0.0009408122859895,-0.0014385922113433,-0.0001062134688254,-9.816558837890623,0,0,28.862178802490234,1,1,1000,1000,0.400673,0,0.0009408122859895,0.0009408122859895,0.0,0,0.0009408122859895
1778788393.09988,66285142,1,0.0010914475424215,0.0009933369001373,0.0010809572413563,-0.0030978638678789,-0.0005848276196047,-9.81755256652832,0,0,28.862178802490234,1,1,760,800,0.400673,0,0.0010809572413563,0.0010809572413563,0.0,0,0.0010809572413563
1778788393.139864,66325126,0,0.000905628199689,0.0009000000427477,0.0008128601475618,-0.0014011831954121,-0.0015229681739583,-9.817601203918455,0,0,28.864330291748047,1,1,1000,1000,0.440657,0,0.0008128601475618,0.0008128601475618,0.0,0,0.0008128601475618
1778788393.139864,66325126,1,0.0010906171519309,0.0008101051207631,0.0008106839377433,0.0016591346357017,-0.0017775299493223,-9.816271781921388,0,0,28.864330291748047,1,1,760,800,0.440657,0,0.0008106839377433,0.0008106839377433,0.0,0,0.0008106839377433
1778788393.179848,66365110,0,0.000883535540197,0.0008872554753907,0.0009099476155824,-0.000551339238882,-0.000261766166659,-9.81654930114746,0,0,28.86648368835449,1,1,1000,1000,0.480641,0,0.0009099476155824,0.0009099476155824,0.0,0,0.0009099476155824
1778788393.179848,66365110,1,0.0009534019627608,0.0009749071905389,0.0008467442239634,-0.0006350363837555,-0.0008226592908613,-9.817354202270508,0,0,28.86648368835449,1,1,760,800,0.480641,0,0.0008467442239634,0.0008467442239634,0.0,0,0.0008467442239634
1778788393.219832,66405094,0,0.0009491480304859,0.0010065134847536,0.0009356657974421,-0.0006175275775603,-0.0008061905391514,-9.817715644836426,0,0,28.868633270263672,1,1,1000,1000,0.520625,0,0.0009356657974421,0.0009356657974421,0.0,0,0.0009356657974421
1778788393.219832,66405094,1,0.0008142571896314,0.0007636658847332,0.0010091122239828,-0.0015991239342838,0.0006851347861811,-9.814387321472168,0,0,28.868633270263672,1,1,760,800,0.520625,0,0.0010091122239828,0.0010091122239828,0.0,0,0.0010091122239828
1778788393.259816,66445078,0,0.0009508485090918,0.000882722553797,0.0009436403634026,-3.12807533191517e-05,-0.0010512709850445,-9.818345069885254,0,0,28.870784759521484,1,1,1000,1000,0.560609,0,0.0009436403634026,0.0009436403634026,0.0,0,0.0009436403634026
1778788393.259816,66445078,1,0.0008183298632502,0.0008231917163357,0.0009193237056024,-0.0005747891846112,-0.000845962902531,-9.815350532531738,0,0,28.870784759521484,1,1,760,800,0.560609,0,0.0009193237056024,0.0009193237056024,0.0,0,0.0009193237056024
1778788393.2998,66485062,0,0.000912529125344,0.0009056649287231,0.0009492113022133,-0.0009770215256139,-0.0006531288963742,-9.81699275970459,0,0,28.872987747192383,1,1,1000,1000,0.600593,0,0.0009492113022133,0.0009492113022133,0.0,0,0.0009492113022133
1778788393.2998,66485062,1,0.0006661154329776,0.0009688562131486,0.0008972476935014,3.4913438867079094e-05,-0.0004479036433622,-9.818365097045898,0,0,28.872987747192383,1,1,760,800,0.600593,0,0.0008972476935014,0.0008972476935014,0.0,0,0.0008972476935014
1778788393.339784,66525046,0,0.0009785547154024,0.0009098877198994,0.0008960721315816,-0.0005659472080878,-0.0015733189648017,-9.817121505737305,0,0,28.875139236450195,1,1,1000,1000,0.640577,0,0.0008960721315816,0.0008960721315816,0.0,0,0.0008960721315816
1778788393.339784,66525046,1,0.0009916748385876,0.0008580637513659,0.001068724785,6.441034201998264e-05,-0.0012881818693131,-9.818275451660156,0,0,28.875139236450195,1,1,760,800,0.640577,0,0.001068724785,0.001068724785,0.0,0,0.001068724785
1778788393.379768,66565030,0,0.0009319140808656,0.0009405807359144,0.0009151807171292,0.000196408611373,-0.001165613066405,-9.817218780517578,0,0,28.87728881835937,1,1,1000,1000,0.680561,0,0.0009151807171292,0.0009151807171292,0.0,0,0.0009151807171292
1778788393.379768,66565030,1,0.0008884265553206,0.0010168923763558,0.0011680799070745,-0.0016083114314824,0.000970610009972,-9.818058013916016,0,0,28.87728881835937,1,1,760,800,0.680561,0,0.0011680799070745,0.0011680799070745,0.0,0,0.0011680799070745
1778788393.419752,66605014,0,0.0009501859312877,0.0009244327666237,0.0008819184731692,-0.0002589685609564,-0.0010759542929008,-9.818424224853516,0,0,28.87943649291992,1,1,1000,1000,0.720545,0,0.0008819184731692,0.0008819184731692,0.0,0,0.0008819184731692
1778788393.419752,66605014,1,0.0007616015500389,0.0009361011907458,0.0009563932544551,-0.0003856547409668,-0.0014127603499218,-9.817416191101074,0,0,28.87943649291992,1,1,760,800,0.720545,0,0.0009563932544551,0.0009563932544551,0.0,0,0.0009563932544551
1778788393.459736,66644998,0,0.0009465184994041,0.0009965633507817,0.0008924081921577,-0.0011425246484577,-0.0015360105317085,-9.817577362060549,0,0,28.881532669067383,1,1,1000,1000,0.760529,0,0.0008924081921577,0.0008924081921577,0.0,0,0.0008924081921577
1778788393.459736,66644998,1,0.0012559134047478,0.0007190404576249,0.0007173593621701,-0.0012371523771435,-0.0014183514285832,-9.817126274108888,0,0,28.881532669067383,1,1,760,800,0.760529,0,0.0007173593621701,0.0007173593621701,0.0,0,0.0007173593621701
1778788393.49972,66684982,0,0.0010021803900599,0.0009646328981034,0.000946216052398,-0.0015286525012925,-0.000965047860518,-9.817876815795898,0,0,28.88368225097656,1,1,1000,1000,0.800513,0,0.000946216052398,0.000946216052398,0.0,0,0.000946216052398
1778788393.49972,66684982,1,0.0008705832296982,0.0009280127123929,0.0009019462158903,0.0012357549276202,-0.0010219251271337,-9.815160751342772,0,0,28.88368225097656,1,1,760,800,0.800513,0,0.0009019462158903,0.0009019462158903,0.0,0,0.0009019462158903
1778788393.539704,66724966,0,0.0009176700259558,0.0009695190819911,0.0010210340842604,-0.0007830667309463,-0.0004596315848175,-9.818058967590332,0,0,28.885831832885746,1,1,1000,1000,0.840497,0,0.0010210340842604,0.0010210340842604,0.0,0,0.0010210340842604
1778788393.539704,66724966,1,0.0007803358021192,0.0010218089446425,0.0010367173235863,-0.0007700191927142,-0.0018237081822007,-9.817182540893556,0,0,28.885831832885746,1,1,760,800,0.840497,0,0.0010367173235863,0.0010367173235863,0.0,0,0.0010367173235863
1778788393.579688,66764950,0,0.0009399751434102,0.0009353413479402,0.0008956937817856,-0.001417901716195,-0.0007240554550662,-9.81602382659912,0,0,28.88797950744629,1,1,1000,1000,0.880481,0,0.0008956937817856,0.0008956937817856,0.0,0,0.0008956937817856
1778788393.579688,66764950,1,0.0009965777862817,0.0011287180241197,0.0010462952777743,-0.0028758090920746,0.0003561910707503,-9.817098617553713,0,0,28.88797950744629,1,1,760,800,0.880481,0,0.0010462952777743,0.0010462952777743,0.0,0,0.0010462952777743
1778788393.619672,66804934,0,0.0009140638867393,0.000938608078286,0.0009296868811361,-0.0004782197938766,-0.0018272246234118,-9.817831993103027,0,0,28.89012908935547,1,1,1000,1000,0.920465,0,0.0009296868811361,0.0009296868811361,0.0,0,0.0009296868811361
1778788393.619672,66804934,1,0.0006454755202867,0.0009836400859057,0.0007417576853185,-0.0033364247065037,0.0010261631105095,-9.817713737487791,0,0,28.89012908935547,1,1,760,800,0.920465,0,0.0007417576853185,0.0007417576853185,0.0,0,0.0007417576853185
1778788393.659656,66844918,0,0.0009095837594941,0.0009106122888624,0.0009376744274049,-0.0024754451587796,0.0006565756630152,-9.817955017089844,0,0,28.892274856567383,1,1,1000,1000,0.960449,0,0.0009376744274049,0.0009376744274049,0.0,0,0.0009376744274049
1778788393.659656,66844918,1,0.0008235006825998,0.0009719745721668,0.0010342311579734,4.0272745536640286e-05,-0.0015962501056492,-9.818073272705078,0,0,28.892274856567383,1,1,760,800,0.960449,0,0.0010342311579734,0.0010342311579734,0.0,0,0.0010342311579734
1778788393.69964,66884902,0,0.0009651705040596,0.0009518906008452,0.0009635955793783,-4.450291089597158e-05,-0.0006729648448526,-9.817899703979492,0,0,28.89442253112793,1,1,1000,1000,1.000433,0,0.0009635955793783,0.0009635955793783,0.0,0,0.0009635955793783
1778788393.69964,66884902,1,0.0009989789687097,0.0009000410209409,0.0008909096941351,-0.0019492597784847,0.0016652591293677,-9.81690788269043,0,0,28.89442253112793,1,1,760,800,1.000433,0,0.0008909096941351,0.0008909096941351,0.0,0,0.0008909096941351
1778788393.739624,66924886,0,0.0009629229898564,0.0009420206188224,0.0009376381640322,-0.0005058254464529,-0.0006996119045652,-9.81833267211914,0,0,28.89657020568848,1,1,1000,1000,1.040417,0,0.0009376381640322,0.0009376381640322,0.0,0,0.0009376381640322
1778788393.739624,66924886,1,0.0008806020487099,0.000920066551771,0.0012715234188362,-0.0002260339970234,-0.0015790265752002,-9.817026138305664,0,0,28.89657020568848,1,1,760,800,1.040417,0,0.0012715234188362,0.0012715234188362,0.0,0,0.0012715234188362
1778788393.779608,66964870,0,0.000915459357202,0.0010373889235779,0.0010095783509314,-0.0013586585409939,-0.0005635344423353,-9.817697525024414,0,0,28.898717880249023,1,1,1000,1000,1.080401,0,0.0010095783509314,0.0010095783509314,0.0,0,0.0010095783509314
1778788393.779608,66964870,1,0.0010178786469623,0.0011258545564487,0.0009810645133256,-0.0021927270572632,-0.002808476332575,-9.818357467651367,0,0,28.898717880249023,1,1,760,800,1.080401,0,0.0009810645133256,0.0009810645133256,0.0,0,0.0009810645133256
1778788393.819592,67004854,0,0.0009466471383348,0.000932125840336,0.0009265856351703,-0.0006558537133969,-0.0015791638288646,-9.817688941955566,0,0,28.900863647460938,1,1,1000,1000,1.120385,0,0.0009265856351703,0.0009265856351703,0.0,0,0.0009265856351703
1778788393.819592,67004854,1,0.0009817089885473,0.0009470585500821,0.0010763166937977,-0.0021636714227497,8.102868014248088e-05,-9.820436477661133,0,0,28.900863647460938,1,1,760,800,1.120385,0,0.0010763166937977,0.0010763166937977,0.0,0,0.0010763166937977
1778788393.859576,67044838,0,0.0009288624278269,0.0008865309646353,0.0008892764453776,-0.0012793946079909,-0.0006310502067208,-9.817508697509766,0,0,28.903011322021484,1,1,1000,1000,1.160369,0,0.0008892764453776,0.0008892764453776,0.0,0,0.0008892764453776
1778788393.859576,67044838,1,0.000982636003755,0.0008993277442641,0.0007880374323576,-0.0006689806468784,0.0003307482111267,-9.817819595336914,0,0,28.903011322021484,1,1,760,800,1.160369,0,0.0007880374323576,0.0007880374323576,0.0,0,0.0007880374323576
1778788393.89956,67084822,0,0.0010032295249402,0.0009577412856742,0.0009527302463538,-0.0008378927013836,-0.0004230246413499,-9.816598892211914,0,0,28.9051570892334,1,1,1000,1000,1.200353,0,0.0009527302463538,0.0009527302463538,0.0,0,0.0009527302463538
1778788393.89956,67084822,1,0.0010209473548457,0.0009850905044004,0.0009404266602359,-0.0018850117921829,0.0020075386855751,-9.82085418701172,0,0,28.9051570892334,1,1,760,800,1.200353,0,0.0009404266602359,0.0009404266602359,0.0,0,0.0009404266602359
1778788393.939544,67124806,0,0.0008934732759371,0.0009055108530446,0.0009854182135313,-0.0009964350610971,-0.0018674619495868,-9.817224502563477,0,0,28.907302856445312,1,1,1000,1000,1.240337,0,0.0009854182135313,0.0009854182135313,0.0,0,0.0009854182135313
1778788393.939544,67124806,1,0.0008899908862076,0.0009418818517588,0.0009760526008903,-0.0011917003430426,-0.0022069283295422,-9.818206787109377,0,0,28.907302856445312,1,1,760,800,1.240337,0,0.0009760526008903,0.0009760526008903,0.0,0,0.0009760526008903
1778788393.979528,67164790,0,0.0009952877881005,0.0008775033056735,0.0009421503054909,-0.0011617811396718,-0.0016743299784138,-9.817777633666992,0,0,28.909448623657227,1,1,1000,1000,1.280321,0,0.0009421503054909,0.0009421503054909,0.0,0,0.0009421503054909
1778788393.979528,67164790,1,0.0009931511012837,0.0007482950459234,0.0008453152840957,-0.0015113513218238,-0.0008362667285837,-9.817069053649902,0,0,28.909448623657227,1,1,760,800,1.280321,0,0.0008453152840957,0.0008453152840957,0.0,0,0.0008453152840957
1778788394.019512,67204774,0,0.0009216120815835,0.0009751913603395,0.0008992388029582,-0.0009979857131838,-0.0011461593676358,-9.81743049621582,0,0,28.911592483520508,1,1,1000,1000,1.320305,0,0.0008992388029582,0.0008992388029582,0.0,0,0.0008992388029582
1778788394.019512,67204774,1,0.0009002939914353,0.000841275032144,0.0009241751395165,9.164262155536562e-05,-2.626444438647013e-05,-9.817496299743652,0,0,28.911592483520508,1,1,760,800,1.320305,0,0.0009241751395165,0.0009241751395165,0.0,0,0.0009241751395165
1778788394.059496,67244758,0,0.0009874624665826,0.0010009853867813,0.0009537970181554,-0.0016429277602583,-0.000912791583687,-9.81736183166504,0,0,28.913738250732425,1,1,1000,1000,1.360289,0,0.0009537970181554,0.0009537970181554,0.0,0,0.0009537970181554
1778788394.059496,67244758,1,0.0009922333993017,0.0008868582081049,0.0011077738599851,0.0007828420493751,-0.0013576264027506,-9.819534301757812,0,0,28.913738250732425,1,1,760,800,1.360289,0,0.0011077738599851,0.0011077738599851,0.0,0,0.0011077738599851
1778788394.09948,67284742,0,0.000894439057447,0.0008930424810387,0.0009526497451588,-0.0012351090554147,-0.0009128575911745,-9.817937850952148,0,0,28.915884017944336,1,1,1000,1000,1.400273,0,0.0009526497451588,0.0009526497451588,0.0,0,0.0009526497451588
1778788394.09948,67284742,1,0.0008073718636296,0.000903858046513,0.001081497175619,0.0001446574751753,-0.0017434454057365,-9.816645622253418,0,0,28.915884017944336,1,1,760,800,1.400273,0,0.001081497175619,0.001081497175619,0.0,0,0.001081497175619
1778788394.139464,67324726,0,0.0010198093950748,0.0009673918248154,0.0010071780998259,-0.0027189513202756,-0.0009926605271175,-9.817249298095703,0,0,28.918027877807617,1,1,1000,1000,1.440257,0,0.0010071780998259,0.0010071780998259,0.0,0,0.0010071780998259
1778788394.139464,67324726,1,0.0009416079265065,0.0008534101070836,0.000832738878671,-0.0016755061224102,-0.0003792473289649,-9.819204330444336,0,0,28.918027877807617,1,1,760,800,1.440257,0,0.000832738878671,0.000832738878671,0.0,0,0.000832738878671
1778788394.179448,67364710,0,0.0008856125641614,0.000936011376325,0.0009419280104339,-0.0011608072090893,-0.0008132011862471,-9.817703247070312,0,0,28.9201717376709,1,1,1000,1000,1.480241,0,0.0009419280104339,0.0009419280104339,0.0,0,0.0009419280104339
1778788394.179448,67364710,1,0.0007967214332893,0.0009611407294869,0.0005754663143306,-0.0017719225725159,-0.0006328790914267,-9.817445755004885,0,0,28.9201717376709,1,1,760,800,1.480241,0,0.0005754663143306,0.0005754663143306,0.0,0,0.0005754663143306
1778788394.219432,67404694,0,0.0008975701057352,0.0010198808740824,0.0009215821046382,-0.0023466490674763,-0.000486592965899,-9.817612648010254,0,0,28.92231559753418,1,1,1000,1000,1.520225,0,0.0009215821046382,0.0009215821046382,0.0,0,0.0009215821046382
1778788394.219432,67404694,1,0.0012398104881867,0.0010239498224109,0.0008241612231358,0.0002783810778055,-7.391804683720693e-05,-9.817718505859377,0,0,28.92231559753418,1,1,760,800,1.520225,0,0.0008241612231358,0.0008241612231358,0.0,0,0.0008241612231358
1778788394.259416,67444678,0,0.0009050165535882,0.0009181685745716,0.0009083253098651,-0.0006237734341993,-0.0012717514764517,-9.816765785217283,0,0,28.92445945739746,1,1,1000,1000,1.560209,0,0.0009083253098651,0.0009083253098651,0.0,0,0.0009083253098651
1778788394.259416,67444678,1,0.0010839842725545,0.000972332432866,0.0008615349652245,-0.0009785724105313,0.0003619063063524,-9.81776237487793,0,0,28.92445945739746,1,1,760,800,1.560209,0,0.0008615349652245,0.0008615349652245,0.0,0,0.0008615349652245
1778788394.2994,67484662,0,0.0009014050010591,0.0009801629930734,0.0010010334663093,-0.0018577170558273,-0.0018003284931182,-9.81712532043457,0,0,28.926603317260746,1,1,1000,1000,1.600193,0,0.0010010334663093,0.0010010334663093,0.0,0,0.0010010334663093
1778788394.2994,67484662,1,0.0007806584471836,0.0009041191660799,0.0008792737498879,-0.0016646762378513,-0.0007756106788292,-9.816913604736328,0,0,28.926603317260746,1,1,760,800,1.600193,0,0.0008792737498879,0.0008792737498879,0.0,0,0.0008792737498879
1778788394.339384,67524646,0,0.0009824966546148,0.0008865321287885,0.0009953054832294,-0.0009269305737689,-0.0016760877333581,-9.818437576293944,0,0,28.92874526977539,1,1,1000,1000,1.640177,0,0.0009953054832294,0.0009953054832294,0.0,0,0.0009953054832294
1778788394.339384,67524646,1,0.0010076877661049,0.0008798227645456,0.0008581163128837,-0.0011011755559593,-0.0014580845599994,-9.816446304321287,0,0,28.92874526977539,1,1,760,800,1.640177,0,0.0008581163128837,0.0008581163128837,0.0,0,0.0008581163128837
1778788394.379368,67564630,0,0.0009357693488709,0.0009913961403071,0.0009835097007453,-0.0011219900334253,-0.0018108789809048,-9.818115234375,0,0,28.930889129638672,1,1,1000,1000,1.680161,0,0.0009835097007453,0.0009835097007453,0.0,0,0.0009835097007453
1778788394.379368,67564630,1,0.000902593426872,0.0007596928626298,0.0009208731935359,0.0007794214761815,-0.0021130077075213,-9.818466186523438,0,0,28.930889129638672,1,1,760,800,1.680161,0,0.0009208731935359,0.0009208731935359,0.0,0,0.0009208731935359
1778788394.419352,67604614,0,0.0009166483068838,0.0009485977352596,0.0009021442383527,-0.0008276987937279,-0.0006107742665335,-9.817627906799316,0,0,28.93303108215332,1,1,1000,1000,1.720145,0,0.0009021442383527,0.0009021442383527,0.0,0,0.0009021442383527
1778788394.419352,67604614,1,0.001037768786773,0.0010088784620165,0.0008246373035944,-0.0006912911194376,0.0003420715802349,-9.816523551940918,0,0,28.93303108215332,1,1,760,800,1.720145,0,0.0008246373035944,0.0008246373035944,0.0,0,0.0008246373035944
1778788394.459336,67644598,0,0.0009027713676914,0.0009547136141918,0.0010305726900696,-0.0006893551908433,-0.0003297764924354,-9.817585945129396,0,0,28.93517303466797,1,1,1000,1000,1.760129,0,0.0010305726900696,0.0010305726900696,0.0,0,0.0010305726900696
1778788394.459336,67644598,1,0.0009392880601808,0.0009698658832348,0.0008040057728067,-0.0010762579040601,-0.0031541064381599,-9.817667961120604,0,0,28.93517303466797,1,1,760,800,1.760129,0,0.0008040057728067,0.0008040057728067,0.0,0,0.0008040057728067
1778788394.49932,67684582,0,0.0009115921566262,0.0009648511186242,0.0009913659887388,-0.0011939678806811,-0.0004981684614904,-9.81659698486328,0,0,28.937314987182617,1,1,1000,1000,1.800113,0,0.0009913659887388,0.0009913659887388,0.0,0,0.0009913659887388
1778788394.49932,67684582,1,0.0010193703928962,0.001104142749682,0.0007981302333064,-0.0007552207680419,-0.0008310021366924,-9.818886756896973,0,0,28.937314987182617,1,1,760,800,1.800113,0,0.0007981302333064,0.0007981302333064,0.0,0,0.0007981302333064
1778788394.539304,67724566,0,0.000922734150663,0.0009820153936743,0.0008515822701156,-3.470766023383476e-05,-0.0009805681183934,-9.817748069763184,0,0,28.93945503234864,1,1,1000,1000,1.840097,0,0.0008515822701156,0.0008515822701156,0.0,0,0.0008515822701156
1778788394.539304,67724566,1,0.0009063277393579,0.0010025987867265,0.001195921562612,-0.0019106609979644,-0.0003161475178785,-9.819722175598145,0,0,28.93945503234864,1,1,760,800,1.840097,0,0.001195921562612,0.001195921562612,0.0,0,0.001195921562612
1778788394.579288,67764550,0,0.0010046474635601,0.0009037836571224,0.0009262035018764,-0.0005991818616166,-0.0021394125651568,-9.81761646270752,0,0,28.94159698486328,1,1,1000,1000,1.880081,0,0.0009262035018764,0.0009262035018764,0.0,0,0.0009262035018764
1778788394.579288,67764550,1,0.0011509511386975,0.0009768286254256,0.0008555398671887,-0.0023624741006642,-0.0019039430189877,-9.815343856811523,0,0,28.94159698486328,1,1,760,800,1.880081,0,0.0008555398671887,0.0008555398671887,0.0,0,0.0008555398671887
1778788394.619272,67804534,0,0.0009473656537011,0.0009348219609819,0.0009338656091131,-0.0009542775806039,-0.0001729094510665,-9.81767463684082,0,0,28.943737030029297,1,1,1000,1000,1.920065,0,0.0009338656091131,0.0009338656091131,0.0,0,0.0009338656091131
1778788394.619272,67804534,1,0.0012046642368659,0.000857452279888,0.0009906878694891,-0.0009709587320685,0.000179268346983,-9.820109367370604,0,0,28.943737030029297,1,1,760,800,1.920065,0,0.0009906878694891,0.0009906878694891,0.0,0,0.0009906878694891
1778788394.659256,67844518,0,0.0009592319838702,0.0009522230830043,0.0010182140395045,-0.0006902500172145,-0.0016061931382864,-9.817742347717283,0,0,28.945878982543945,1,1,1000,1000,1.960049,0,0.0010182140395045,0.0010182140395045,0.0,0,0.0010182140395045
1778788394.659256,67844518,1,0.0010237151291221,0.0010422349441796,0.0010020134504884,-0.0021040625870227,-0.0029073795303702,-9.816306114196776,0,0,28.945878982543945,1,1,760,800,1.960049,0,0.0010020134504884,0.0010020134504884,0.0,0,0.0010020134504884
1778788394.69924,67884502,0,0.0009234260069206,0.0009733196930028,0.0009308453882113,-0.0005401216913014,-0.000605130684562,-9.817185401916504,0,0,28.94801902770996,1,1,1000,1000,2.000033,0,0.0009308453882113,0.0009308453882113,0.0,0,0.0009308453882113
1778788394.69924,67884502,1,0.000934561190661,0.0009736491483636,0.000888587848749,-0.0013181453105062,-0.0020240508019924,-9.815282821655272,0,0,28.94801902770996,1,1,760,800,2.000033,0,0.000888587848749,0.000888587848749,0.0,0,0.000888587848749
1778788394.739224,67924486,0,0.0009882870363071,0.0009600030025467,0.0009483049507252,-0.001019072253257,-0.0016084357630461,-9.816383361816406,0,0,28.950159072875977,1,1,1000,1000,2.040017,0,0.0009483049507252,0.0009483049507252,0.0,0,0.0009483049507252
1778788394.739224,67924486,1,0.0010957956546917,0.0010396051220595,0.00120663898997,-0.0033120447769761,0.0010991487652063,-9.818302154541016,0,0,28.950159072875977,1,1,760,800,2.040017,0,0.00120663898997,0.00120663898997,0.0,0,0.00120663898997
1778788394.779208,67964470,0,0.0009483940666541,0.0008974568918347,0.0009283902472816,-0.0001921593211591,-0.0005688828532584,-9.818248748779297,0,0,28.952299118041992,1,1,1000,1000,2.080001,0,0.0009283902472816,0.0009283902472816,0.0,0,0.0009283902472816
1778788394.779208,67964470,1,0.0011956522939726,0.0008672543917782,0.0009393537184223,0.0009635497117415,0.0013369908556342,-9.817110061645508,0,0,28.952299118041992,1,1,760,800,2.080001,0,0.0009393537184223,0.0009393537184223,0.0,0,0.0009393537184223
1778788394.8200247,68005287,0,0.0009715293417684,0.0009296322241425,0.0009784456342458,-0.0011655406560748,-0.0005457959487102,-9.817564964294434,0,0,28.954490661621094,1,1,1000,1000,2.120818,0,0.0009784456342458,0.0009784456342458,0.0,0,0.0009784456342458
1778788394.8200247,68005287,1,0.0008238839218392,0.0009006777545437,0.0008767810650169,-0.0035645435564219,-0.0023956415243446,-9.818473815917969,0,0,28.954439163208008,1,1,760,800,2.120818,0,0.0008767810650169,0.0008767810650169,0.0,0,0.0008767810650169
1778788394.8600087,68045271,0,0.0009610098786652,0.0009418274275958,0.0009505270863883,-0.0007023471989668,-0.001116391737014,-9.817209243774414,0,0,28.95663070678711,1,1,1000,1000,2.160802,0,0.0009505270863883,0.0009505270863883,0.0,0,0.0009505270863883
1778788394.8600087,68045271,1,0.0008789738640189,0.0010388026712462,0.0009110703831538,0.0001424972142558,-0.000762824434787,-9.815670013427734,0,0,28.95657730102539,1,1,760,800,2.160802,0,0.0009110703831538,0.0009110703831538,0.0,0,0.0009110703831538
1778788394.8999927,68085255,0,0.0009556295699439,0.000843854388222,0.0009711541933938,-0.0012794759823009,-0.0016802665777504,-9.818389892578123,0,0,28.958770751953125,1,1,1000,1000,2.200786,0,0.0009711541933938,0.0009711541933938,0.0,0,0.0009711541933938
1778788394.8999927,68085255,1,0.0009153066785074,0.0010018670000135,0.0007300513680092,-0.0026814555749297,-0.0004271975194569,-9.819998741149902,0,0,28.958717346191406,1,1,760,800,2.200786,0,0.0007300513680092,0.0007300513680092,0.0,0,0.0007300513680092
1778788394.9399767,68125239,0,0.0010510084684938,0.0009634508169256,0.000975729082711,-0.0010605104034766,0.0003108634264208,-9.8172025680542,0,0,28.960908889770508,1,1,1000,1000,2.24077,0,0.000975729082711,0.000975729082711,0.0,0,0.000975729082711
1778788394.9399767,68125239,1,0.0011108246399089,0.0007928375271148,0.00095059373416,0.0020312252454459,0.0001787807414075,-9.816957473754885,0,0,28.96085548400879,1,1,760,800,2.24077,0,0.00095059373416,0.00095059373416,0.0,0,0.00095059373416
1778788394.979961,68165223,0,0.0010065584210678,0.0009807131718844,0.0009540608734823,-0.0017173690721392,-0.0008136335527524,-9.816817283630373,0,0,28.96299362182617,1,1,1000,1000,2.280754,0,0.0009540608734823,0.0009540608734823,0.0,0,0.0009540608734823
1778788394.979961,68165223,1,0.0008913691272027,0.000823134148959,0.0012800073018297,-0.002434630645439,-0.0018633239669725,-9.815881729125977,0,0,28.96299362182617,1,1,760,800,2.280754,0,0.0012800073018297,0.0012800073018297,0.0,0,0.0012800073018297
1778788395.0199451,68205207,0,0.0009648608393035,0.0008970886701717,0.0009566923836246,-0.0004203514545224,-0.0012191690038889,-9.818320274353027,0,0,28.965131759643555,1,1,1000,1000,2.320738,0,0.0009566923836246,0.0009566923836246,0.0,0,0.0009566923836246
1778788395.0199451,68205207,1,0.0008049934986047,0.0008832388557493,0.0012699683429673,-0.0053208251483738,-0.0027646776288747,-9.81991195678711,0,0,28.965131759643555,1,1,760,800,2.320738,0,0.0012699683429673,0.0012699683429673,0.0,0,0.0012699683429673
1778788395.0599291,68245191,0,0.0010167440632358,0.0009288904839195,0.0009430883219465,-0.0005566106410697,-0.0017835107864812,-9.81635856628418,0,0,28.967269897460938,1,1,1000,1000,2.360722,0,0.0009430883219465,0.0009430883219465,0.0,0,0.0009430883219465
1778788395.0599291,68245191,1,0.0010713479714468,0.0009125382057391,0.0009646255057305,-0.0006270866142585,-0.0009066059719771,-9.816941261291504,0,0,28.967269897460938,1,1,760,800,2.360722,0,0.0009646255057305,0.0009646255057305,0.0,0,0.0009646255057305
1778788395.0999131,68285175,0,0.00092695269268,0.00102785078343,0.0009967188816517,0.000140477248351,-0.0010759477736428,-9.817687034606934,0,0,28.969406127929688,1,1,1000,1000,2.400706,0,0.0009967188816517,0.0009967188816517,0.0,0,0.0009967188816517
1778788395.0999131,68285175,1,0.0008026814321056,0.0008571604266762,0.0009747815784066,-0.0033684072550386,-0.0020932920742779,-9.815813064575195,0,0,28.969406127929688,1,1,760,800,2.400706,0,0.0009747815784066,0.0009747815784066,0.0,0,0.0009747815784066
1778788395.139897,68325159,0,0.0009292520699091,0.0009313445189036,0.0010488132247701,-0.0007470836280845,-0.0008420448866672,-9.817700386047363,0,0,28.97154426574707,1,1,1000,1000,2.44069,0,0.0010488132247701,0.0010488132247701,0.0,0,0.0010488132247701
1778788395.139897,68325159,1,0.0009966825600713,0.0010021745692938,0.000929417903535,0.0023398036137223,-0.0006484386976808,-9.817811012268066,0,0,28.97154426574707,1,1,760,800,2.44069,0,0.000929417903535,0.000929417903535,0.0,0,0.000929417903535
1778788395.179881,68365143,0,0.0009796759113669,0.0009631673456169,0.0009061958407983,-0.001397579559125,-0.0001307606289628,-9.81652545928955,0,0,28.973682403564453,1,1,1000,1000,2.480674,0,0.0009061958407983,0.0009061958407983,0.0,0,0.0009061958407983
1778788395.179881,68365143,1,0.0007794360863044,0.0009074136032722,0.0010663364082574,-0.0005431720637716,-0.0006474463152699,-9.815536499023438,0,0,28.973682403564453,1,1,760,800,2.480674,0,0.0010663364082574,0.0010663364082574,0.0,0,0.0010663364082574
1778788395.219865,68405127,0,0.0009919030126184,0.0009314038325101,0.0009932953398674,-0.000233312981436,-0.0005399534711614,-9.817441940307615,0,0,28.975818634033203,1,1,1000,1000,2.520658,0,0.0009932953398674,0.0009932953398674,0.0,0,0.0009932953398674
1778788395.219865,68405127,1,0.0009297165670432,0.0009519566665403,0.001463790773414,-0.002718981122598,-0.0018506936030462,-9.817462921142578,0,0,28.975818634033203,1,1,760,800,2.520658,0,0.001463790773414,0.001463790773414,0.0,0,0.001463790773414
1778788395.259849,68445111,0,0.0009382917196489,0.0009764829301275,0.000932399125304,-0.0007896761526353,-0.0020165788009762,-9.81672477722168,0,0,28.97795486450196,1,1,1000,1000,2.560642,0,0.000932399125304,0.000932399125304,0.0,0,0.000932399125304
1778788395.259849,68445111,1,0.0012025635223835,0.0008314242586493,0.0006661394727416,0.0005855793133378,-0.0010608459124341,-9.81966781616211,0,0,28.97795486450196,1,1,760,800,2.560642,0,0.0006661394727416,0.0006661394727416,0.0,0,0.0006661394727416
1778788395.299833,68485095,0,0.000930581940338,0.0010174931958317,0.0010384890483692,-0.0001731978991301,-0.0001881878997664,-9.816143989562988,0,0,28.980091094970703,1,1,1000,1000,2.600626,0,0.0010384890483692,0.0010384890483692,0.0,0,0.0010384890483692
1778788395.299833,68485095,1,0.0009064607438631,0.0011632335372269,0.0009011820657178,-0.0022340668365359,-0.0003524239582475,-9.816535949707031,0,0,28.980091094970703,1,1,760,800,2.600626,0,0.0009011820657178,0.0009011820657178,0.0,0,0.0009011820657178
1778788395.339817,68525079,0,0.0009194340091198,0.0009522274485789,0.0009437653352506,-0.0016205727588385,-0.0017704839119687,-9.817145347595217,0,0,28.982227325439453,1,1,1000,1000,2.64061,0,0.0009437653352506,0.0009437653352506,0.0,0,0.0009437653352506
1778788395.339817,68525079,1,0.0009367497987113,0.0008334041340276,0.0006718640797771,-0.0006455967668443,-0.0003532338887453,-9.816749572753906,0,0,28.982227325439453,1,1,760,800,2.64061,0,0.0006718640797771,0.0006718640797771,0.0,0,0.0006718640797771
1778788395.379801,68565063,0,0.0009470269433222,0.0009749979944899,0.0009961473988369,-0.0004573655314743,-0.0009392548818141,-9.816435813903809,0,0,28.98441505432129,1,1,1000,1000,2.680594,0,0.0009961473988369,0.0009961473988369,0.0,0,0.0009961473988369
1778788395.379801,68565063,1,0.0008194468682631,0.0010734960669651,0.0009572549024596,-9.91950510069728e-05,-0.0017255623824894,-9.81566047668457,0,0,28.98441505432129,1,1,760,800,2.680594,0,0.0009572549024596,0.0009572549024596,0.0,0,0.0009572549024596
1778788395.419785,68605047,0,0.000993030029349,0.0009868761990219,0.0010131988674402,-0.0009371495107188,-0.0001858039322542,-9.818270683288574,0,0,28.98655128479004,1,1,1000,1000,2.720578,0,0.0010131988674402,0.0010131988674402,0.0,0,0.0010131988674402
1778788395.419785,68605047,1,0.0010062652872875,0.0009530907846055,0.0008642655448056,0.0004794232954736,-0.0038584652356803,-9.816730499267578,0,0,28.98655128479004,1,1,760,800,2.720578,0,0.0008642655448056,0.0008642655448056,0.0,0,0.0008642655448056
1778788395.459769,68645031,0,0.0009596855961717,0.0009659465285949,0.0010031127603724,-0.0012722352985292,-0.0012616517487913,-9.817062377929688,0,0,28.98868560791016,1,1,1000,1000,2.760562,0,0.0010031127603724,0.0010031127603724,0.0,0,0.0010031127603724
1778788395.459769,68645031,1,0.0009536055731587,0.0009803348220884,0.000956906878855,-0.0025916525628417,-0.0016436040168628,-9.81422996520996,0,0,28.98868560791016,1,1,760,800,2.760562,0,0.000956906878855,0.000956906878855,0.0,0,0.000956906878855
1778788395.499753,68685015,0,0.0010097997728735,0.0010691010393202,0.0009662546217441,-0.0012857711408287,-0.0006662564119324,-9.817819595336914,0,0,28.99081993103028,1,1,1000,1000,2.800546,0,0.0009662546217441,0.0009662546217441,0.0,0,0.0009662546217441
1778788395.499753,68685015,1,0.0010727586923167,0.000758464098908,0.0009496592683717,-0.0023427810519933,-0.0028786677867174,-9.819697380065918,0,0,28.99081993103028,1,1,760,800,2.800546,0,0.0009496592683717,0.0009496592683717,0.0,0,0.0009496592683717
1778788395.5397367,68724999,0,0.0009577472810633,0.0009494349360466,0.0009531796677038,-0.0005033835768699,0.0002436961513012,-9.817218780517578,0,0,28.992902755737305,1,1,1000,1000,2.84053,0,0.0009531796677038,0.0009531796677038,0.0,0,0.0009531796677038
1778788395.5397367,68724999,1,0.0010743647580966,0.0008772140135988,0.0010284828022122,-0.0005110030760988,-0.0024948283098638,-9.817758560180664,0,0,28.992902755737305,1,1,760,800,2.84053,0,0.0010284828022122,0.0010284828022122,0.0,0,0.0010284828022122
1778788395.5797207,68764983,0,0.0009569289395585,0.0009953496046364,0.0009441924048587,-0.0012577173765748,-0.0018117001745849,-9.817431449890137,0,0,28.99503517150879,1,1,1000,1000,2.880514,0,0.0009441924048587,0.0009441924048587,0.0,0,0.0009441924048587
1778788395.5797207,68764983,1,0.0011365601094439,0.0010216591181233,0.0011780626373365,-0.0023969002068042,0.0003037875285372,-9.818315505981444,0,0,28.99503517150879,1,1,760,800,2.880514,0,0.0011780626373365,0.0011780626373365,0.0,0,0.0011780626373365
1778788395.6197047,68804967,0,0.0009473313111811,0.0010108489077538,0.0010650221956893,-0.0014111548662185,-0.0013068423140794,-9.81874656677246,0,0,28.997169494628903,1,1,1000,1000,2.920498,0,0.0010650221956893,0.0010650221956893,0.0,0,0.0010650221956893
1778788395.6197047,68804967,1,0.0008941743290051,0.0007010925328359,0.0008991155773401,-0.0012863584561273,-0.0002414530317764,-9.81861972808838,0,0,28.997169494628903,1,1,760,800,2.920498,0,0.0008991155773401,0.0008991155773401,0.0,0,0.0008991155773401
1778788395.6596887,68844951,0,0.0009047393104992,0.0008997407276183,0.0010169936576858,-0.0013805112103,-2.530822530388832e-05,-9.81753635406494,0,0,28.999303817749023,1,1,1000,1000,2.960482,0,0.0010169936576858,0.0010169936576858,0.0,0,0.0010169936576858
1778788395.6596887,68844951,1,0.0011604011524468,0.0011965779121965,0.0008588517084717,-0.0003452954115346,0.0024564680643379,-9.819339752197266,0,0,28.999303817749023,1,1,760,800,2.960482,0,0.0008588517084717,0.0008588517084717,0.0,0,0.0008588517084717
1778788395.6996727,68884935,0,0.0010401175823062,0.000940955011174,0.0010582620743662,-0.0002496698580216,-0.0006507121142931,-9.819687843322754,0,0,29.001436233520508,1,1,1000,1000,3.000466,0,0.0010582620743662,0.0010582620743662,0.0,0,0.0010582620743662
1778788395.6996727,68884935,1,0.0010535833425819,0.0009750569006428,0.0010548471473157,0.0001790618844097,-0.0021341298706829,-9.817906379699709,0,0,29.001436233520508,1,1,760,800,3.000466,0,0.0010548471473157,0.0010548471473157,0.0,0,0.0010548471473157
1778788395.7396567,68924919,0,0.0009427173645235,0.0009353901259601,0.0009438558481633,-0.0014905063435435,-0.0021138216834515,-9.818645477294922,0,0,29.003570556640625,1,1,1000,1000,3.04045,0,0.0009438558481633,0.0009438558481633,0.0,0,0.0009438558481633
1778788395.7396567,68924919,1,0.0009672775049693,0.0011038251686841,0.0012659084750339,-0.0005097466055303,-0.0011251000687479,-9.817235946655272,0,0,29.003570556640625,1,1,760,800,3.04045,0,0.0012659084750339,0.0012659084750339,0.0,0,0.0012659084750339
1778788395.7796412,68964903,0,0.0009207827388308,0.00099347170908,0.0009558337042108,-0.0011359468335285,-0.0009328768937848,-9.817816734313965,0,0,29.00570297241211,1,1,1000,1000,3.080434,0,0.0009558337042108,0.0009558337042108,0.0,0,0.0009558337042108
1778788395.7796412,68964903,1,0.0009190638083964,0.0009334057685919,0.0009571093833073,0.0028020851314067,-0.0015527593204751,-9.818029403686523,0,0,29.00570297241211,1,1,760,800,3.080434,0,0.0009571093833073,0.0009571093833073,0.0,0,0.0009571093833073
1778788395.8196251,69004887,0,0.0009587837848812,0.0008918792009353,0.0009305589483119,-0.0012747414875775,-0.0015163916395977,-9.817944526672363,0,0,29.0078353881836,1,1,1000,1000,3.120418,0,0.0009305589483119,0.0009305589483119,0.0,0,0.0009305589483119
1778788395.8196251,69004887,1,0.0008450364693999,0.0008864981937222,0.0008886178256943,-0.0031484002247452,-0.0023118031676858,-9.816265106201172,0,0,29.0078353881836,1,1,760,800,3.120418,0,0.0008886178256943,0.0008886178256943,0.0,0,0.0008886178256943
1778788395.8596091,69044871,0,0.0010197458323091,0.000990571686998,0.0010292138904333,-0.0020110681653022,-0.0011921327095478,-9.817174911499023,0,0,29.00996780395508,1,1,1000,1000,3.160402,0,0.0010292138904333,0.0010292138904333,0.0,0,0.0010292138904333
1778788395.8596091,69044871,1,0.0010686228051781,0.0009230384603142,0.0009201338980346,-0.0016350243240594,0.0010113132884725,-9.815571784973145,0,0,29.00996780395508,1,1,760,800,3.160402,0,0.0009201338980346,0.0009201338980346,0.0,0,0.0009201338980346
1778788395.899593,69084855,0,0.000967284257058,0.0009135470027104,0.0009780758991837,-0.0007225553854368,-0.0009518585866317,-9.816997528076172,0,0,29.01210021972656,1,1,1000,1000,3.200386,0,0.0009780758991837,0.0009780758991837,0.0,0,0.0009780758991837
1778788395.899593,69084855,1,0.0011165445903316,0.0009457903215661,0.0009833177318796,-0.001728965435177,-0.000386593514122,-9.818964004516602,0,0,29.01210021972656,1,1,760,800,3.200386,0,0.0009833177318796,0.0009833177318796,0.0,0,0.0009833177318796
1778788395.939577,69124839,0,0.0009636262548156,0.001023300923407,0.0009369570179842,-0.0016895220614969,-0.0010353940306231,-9.817608833312988,0,0,29.01423072814941,1,1,1000,1000,3.24037,0,0.0009369570179842,0.0009369570179842,0.0,0,0.0009369570179842
1778788395.939577,69124839,1,0.0009686599951237,0.0008036926155909,0.0009160907356999,0.0002268078387714,-2.1440275304485112e-05,-9.815686225891112,0,0,29.01423072814941,1,1,760,800,3.24037,0,0.0009160907356999,0.0009160907356999,0.0,0,0.0009160907356999
1778788395.979561,69164823,0,0.0010197337251156,0.0009312198380939,0.0010142686078324,-0.0014530159533023,-0.0017950042383745,-9.817153930664062,0,0,29.016361236572266,1,1,1000,1000,3.280354,0,0.0010142686078324,0.0010142686078324,0.0,0,0.0010142686078324
1778788395.979561,69164823,1,0.0007718629203736,0.0009421676513738,0.0009497212013229,-0.0011426546843722,-0.0015680514043197,-9.818090438842772,0,0,29.016361236572266,1,1,760,800,3.280354,0,0.0009497212013229,0.0009497212013229,0.0,0,0.0009497212013229
1778788396.019545,69204807,0,0.0009337732335552,0.0010334855178371,0.0009473214740864,-0.0010305632604286,-0.0017918606754392,-9.817591667175291,0,0,29.01849365234375,1,1,1000,1000,3.320338,0,0.0009473214740864,0.0009473214740864,0.0,0,0.0009473214740864
1778788396.019545,69204807,1,0.0010000243782997,0.0010073285084217,0.0009097661240957,-0.0017624156316742,-0.0002619775477796,-9.819931030273438,0,0,29.01849365234375,1,1,760,800,3.320338,0,0.0009097661240957,0.0009097661240957,0.0,0,0.0009097661240957
1778788396.059529,69244791,0,0.0009711067541502,0.0009678846108727,0.0010294661624357,-0.0012257599737495,-0.000749732600525,-9.81841278076172,0,0,29.02062225341797,1,1,1000,1000,3.360322,0,0.0010294661624357,0.0010294661624357,0.0,0,0.0010294661624357
1778788396.059529,69244791,1,0.0009508047369308,0.0009072974207811,0.00070219731424,-0.0029884739778935,-0.0001799881720216,-9.816689491271973,0,0,29.02062225341797,1,1,760,800,3.360322,0,0.00070219731424,0.00070219731424,0.0,0,0.00070219731424
1778788396.099513,69284775,0,0.0009735104395076,0.0010274251690134,0.0009539345046505,-0.0006639911443926,-0.0011388536076992,-9.8180570602417,0,0,29.022754669189453,1,1,1000,1000,3.400306,0,0.0009539345046505,0.0009539345046505,0.0,0,0.0009539345046505
1778788396.099513,69284775,1,0.0010332257952541,0.0008593111415393,0.0010379672748968,0.0006029476644471,-0.0004941052757203,-9.817559242248535,0,0,29.022754669189453,1,1,760,800,3.400306,0,0.0010379672748968,0.0010379672748968,0.0,0,0.0010379672748968
1778788396.139497,69324759,0,0.0009779806714504,0.0009798251558095,0.0010763261234387,-0.0014603737508878,-0.0011304913787171,-9.816576957702637,0,0,29.024885177612305,1,1,1000,1000,3.44029,0,0.0010763261234387,0.0010763261234387,0.0,0,0.0010763261234387
1778788396.139497,69324759,1,0.0009757953812368,0.00103183707688,0.001185510540381,-0.0024889402557164,-0.0003854020033031,-9.815902709960938,0,0,29.024885177612305,1,1,760,800,3.44029,0,0.001185510540381,0.001185510540381,0.0,0,0.001185510540381
1778788396.179481,69364743,0,0.0009259932558052,0.0009127767407335,0.0009995006257668,-0.0005884417332708,-0.0014642809983342,-9.817058563232422,0,0,29.027013778686523,1,1,1000,1000,3.480274,0,0.0009995006257668,0.0009995006257668,0.0,0,0.0009995006257668
1778788396.179481,69364743,1,0.000833841622807,0.0009213827433995,0.000859449384734,-0.0019313010852783,-0.001061302376911,-9.81549072265625,0,0,29.027013778686523,1,1,760,800,3.480274,0,0.000859449384734,0.000859449384734,0.0,0,0.000859449384734
1778788396.219465,69404727,0,0.0010068439878523,0.0009761629626154,0.0009429032797925,-0.0015583733329549,-0.0003650040307547,-9.81637191772461,0,0,29.02914428710937,1,1,1000,1000,3.520258,0,0.0009429032797925,0.0009429032797925,0.0,0,0.0009429032797925
1778788396.219465,69404727,1,0.0010429976973682,0.0009386009769514,0.0009416033281013,-0.0028387263882905,-0.0007741039735265,-9.8201265335083,0,0,29.02914428710937,1,1,760,800,3.520258,0,0.0009416033281013,0.0009416033281013,0.0,0,0.0009416033281013
1778788396.259449,69444711,0,0.0009947875514626,0.0009492791723459,0.0009902687743306,-0.0015801873523741,-0.0013572530588135,-9.817253112792969,0,0,29.0312728881836,1,1,1000,1000,3.560242,0,0.0009902687743306,0.0009902687743306,0.0,0,0.0009902687743306
1778788396.259449,69444711,1,0.0009971184190362,0.0009278549114242,0.0008911007898859,-0.0003366176679264,-0.0009025469189509,-9.816654205322266,0,0,29.0312728881836,1,1,760,800,3.560242,0,0.0008911007898859,0.0008911007898859,0.0,0,0.0008911007898859
1778788396.2994328,69484695,0,0.0010076833423227,0.0009455708786845,0.0009566663065925,-0.001138016115874,-0.000962168618571,-9.817425727844238,0,0,29.03340148925781,1,1,1000,1000,3.600226,0,0.0009566663065925,0.0009566663065925,0.0,0,0.0009566663065925
1778788396.2994328,69484695,1,0.0009579031611792,0.0009593189461156,0.0011917318915948,-0.0018276483751833,-0.005735061597079,-9.815752029418944,0,0,29.03340148925781,1,1,760,800,3.600226,0,0.0011917318915948,0.0011917318915948,0.0,0,0.0011917318915948
1778788396.3394167,69524679,0,0.0010113440221175,0.000979502685368,0.0009856963297352,-0.0011984771117568,-0.0010602421825751,-9.81684684753418,0,0,29.03553009033203,1,1,1000,1000,3.64021,0,0.0009856963297352,0.0009856963297352,0.0,0,0.0009856963297352
1778788396.3394167,69524679,1,0.0008975841337814,0.0009974807035177,0.0011483273701742,0.0008950313786044,-0.0009278593934141,-9.818052291870115,0,0,29.03553009033203,1,1,760,800,3.64021,0,0.0011483273701742,0.0011483273701742,0.0,0,0.0011483273701742
1778788396.3794007,69564663,0,0.0010102685773745,0.0009907992789521,0.0009243977256119,-0.0001447221293346,-0.0019520263886079,-9.817512512207031,0,0,29.03765869140625,1,1,1000,1000,3.680194,0,0.0009243977256119,0.0009243977256119,0.0,0,0.0009243977256119
1778788396.3794007,69564663,1,0.000972747860942,0.0010633545462042,0.000997124472633,0.0004699317505583,-0.0009988534729927,-9.816959381103516,0,0,29.03765869140625,1,1,760,800,3.680194,0,0.000997124472633,0.000997124472633,0.0,0,0.000997124472633
1778788396.4193847,69604647,0,0.000981202116236,0.0009746231371536,0.0010343611938878,-0.0007482973160222,-0.0008735093288123,-9.818294525146484,0,0,29.03978729248047,1,1,1000,1000,3.720178,0,0.0010343611938878,0.0010343611938878,0.0,0,0.0010343611938878
1778788396.4193847,69604647,1,0.0011201633606106,0.0008707247325219,0.0008600980509072,-0.0011296611046418,0.0010343117173761,-9.81778621673584,0,0,29.03978729248047,1,1,760,800,3.720178,0,0.0008600980509072,0.0008600980509072,0.0,0,0.0008600980509072
1778788396.4593687,69644631,0,0.0010391569230705,0.0009776038350537,0.0010015075094997,-0.000919523066841,-0.0012604801449924,-9.817028999328612,0,0,29.041915893554688,1,1,1000,1000,3.760162,0,0.0010015075094997,0.0010015075094997,0.0,0,0.0010015075094997
1778788396.4593687,69644631,1,0.0008711447007954,0.0011379932984709,0.001076846383512,-0.0021041685249656,-0.0009843087755143,-9.816585540771484,0,0,29.041915893554688,1,1,760,800,3.760162,0,0.001076846383512,0.001076846383512,0.0,0,0.001076846383512
1778788396.4993527,69684615,0,0.0009670168510638,0.0009800082771107,0.0009296465432271,-0.0008267431985586,-0.0009854020318016,-9.817087173461914,0,0,29.04404258728028,1,1,1000,1000,3.800146,0,0.0009296465432271,0.0009296465432271,0.0,0,0.0009296465432271
1778788396.4993527,69684615,1,0.0010694143129512,0.0009910771623253,0.0010685146553441,-0.0016175503842532,-0.0006126549560576,-9.817587852478027,0,0,29.04404258728028,1,1,760,800,3.800146,0,0.0010685146553441,0.0010685146553441,0.0,0,0.0010685146553441
1778788396.5393367,69724599,0,0.0009835002711042,0.0009750537574291,0.0010004087816923,-0.000651121197734,-0.0004530599690042,-9.817325592041016,0,0,29.04616928100586,1,1,1000,1000,3.84013,0,0.0010004087816923,0.0010004087816923,0.0,0,0.0010004087816923
1778788396.5393367,69724599,1,0.0007154117920435,0.0009475306142121,0.0010590008459985,-0.0004732632369268,3.103489871136844e-05,-9.816842079162598,0,0,29.04616928100586,1,1,760,800,3.84013,0,0.0010590008459985,0.0010590008459985,0.0,0,0.0010590008459985
1778788396.5793211,69764583,0,0.000970130204223,0.0010293527739122,0.0010493258014321,-0.0014295217115432,-0.0011453013867139,-9.818320274353027,0,0,29.04829788208008,1,1,1000,1000,3.880114,0,0.0010493258014321,0.0010493258014321,0.0,0,0.0010493258014321
1778788396.5793211,69764583,1,0.0008740698685869,0.0010369663359597,0.0009370867628604,-0.0008232694817706,0.0002987957850564,-9.817121505737305,0,0,29.04829788208008,1,1,760,800,3.880114,0,0.0009370867628604,0.0009370867628604,0.0,0,0.0009370867628604
1778788396.6193051,69804567,0,0.0010076081380248,0.0009946555364876,0.0010129227302968,-0.0006513671251013,-0.0012858681147918,-9.816723823547363,0,0,29.050424575805664,1,1,1000,1000,3.920098,0,0.0010129227302968,0.0010129227302968,0.0,0,0.0010129227302968
1778788396.6193051,69804567,1,0.0010030075209215,0.0008094673976302,0.0010340508306398,-0.0003400163841433,-0.0013770617078989,-9.816486358642578,0,0,29.050424575805664,1,1,760,800,3.920098,0,0.0010340508306398,0.0010340508306398,0.0,0,0.0010340508306398
1778788396.6592891,69844551,0,0.0009779194369912,0.0009987454395741,0.0009937571594491,-0.0006078724982216,-0.0012229706626385,-9.818031311035156,0,0,29.052549362182617,1,1,1000,1000,3.960082,0,0.0009937571594491,0.0009937571594491,0.0,0,0.0009937571594491
1778788396.6592891,69844551,1,0.0010127068962901,0.0010095799807459,0.0009468143689446,0.0004850820987485,0.0006917180726304,-9.819272994995115,0,0,29.052549362182617,1,1,760,800,3.960082,0,0.0009468143689446,0.0009468143689446,0.0,0,0.0009468143689446
1778788396.699273,69884535,0,0.0009882820304483,0.0009709142614156,0.0010401798645034,-0.0015152326086536,-0.0011359602212905,-9.816645622253418,0,0,29.054676055908203,1,1,1000,1000,4.000066,0,0.0010401798645034,0.0010401798645034,0.0,0,0.0010401798645034
1778788396.699273,69884535,1,0.0010421945480629,0.000857776030898,0.0009578748140484,-0.0003781510458793,-0.0011992384679615,-9.816617965698242,0,0,29.054676055908203,1,1,760,800,4.000066,0,0.0009578748140484,0.0009578748140484,0.0,0,0.0009578748140484
1778788396.739257,69924519,0,0.0010224184952676,0.0009925753111019,0.0009126468212343,-0.0013764820760115,-0.0008236574940383,-9.81672477722168,0,0,29.05680084228516,1,1,1000,1000,4.04005,0,0.0009126468212343,0.0009126468212343,0.0,0,0.0009126468212343
1778788396.739257,69924519,1,0.0008672956610098,0.001058880938217,0.0009100073948502,0.0011734542204067,-0.0011531420750543,-9.816306114196776,0,0,29.05680084228516,1,1,760,800,4.04005,0,0.0009100073948502,0.0009100073948502,0.0,0,0.0009100073948502
1778788396.779241,69964503,0,0.0009923016186803,0.0009767560986801,0.0009593102149665,-0.0019213953055441,-0.0003266145649831,-9.817708969116213,0,0,29.058927536010746,1,1,1000,1000,4.080034,0,0.0009593102149665,0.0009593102149665,0.0,0,0.0009593102149665
1778788396.779241,69964503,1,0.00098582287319,0.0009034721879288,0.000921553466469,-0.0033545310143381,-8.288647222798318e-05,-9.818102836608888,0,0,29.058927536010746,1,1,760,800,4.080034,0,0.000921553466469,0.000921553466469,0.0,0,0.000921553466469
1778788396.819225,70004487,0,0.0009644880192354,0.0010200651595368,0.000997353810817,0.0003715943021234,-0.0016007318627089,-9.817456245422363,0,0,29.06105232238769,1,1,1000,1000,4.120018,0,0.000997353810817,0.000997353810817,0.0,0,0.000997353810817
1778788396.819225,70004487,1,0.0008625441114418,0.0008362066582776,0.001049785525538,0.000351131777279,0.0011569440830498,-9.818477630615234,0,0,29.06105232238769,1,1,760,800,4.120018,0,0.001049785525538,0.001049785525538,0.0,0,0.001049785525538
1778788396.859209,70044471,0,0.0009420762071385,0.0009629631531424,0.0009698011563159,-0.0011571851791813,-0.0019044232321903,-9.816539764404297,0,0,29.06317901611328,1,1,1000,1000,4.160002,0,0.0009698011563159,0.0009698011563159,0.0,0,0.0009698011563159
1778788396.859209,70044471,1,0.0009201972279697,0.0007583670085296,0.0007543468382209,-0.0017577131511643,-0.00342015363276,-9.818282127380373,0,0,29.06317901611328,1,1,760,800,4.160002,0,0.0007543468382209,0.0007543468382209,0.0,0,0.0007543468382209
1778788396.900026,70085288,0,0.0010118971113115,0.0010196797084063,0.0009942699689418,-0.0007778687868267,-0.0011170539073646,-9.817697525024414,0,0,29.06535720825196,1,1,1000,1000,4.200819,0,0.0009942699689418,0.0009942699689418,0.0,0,0.0009942699689418
1778788396.900026,70085288,1,0.0008777700131759,0.000979273347184,0.000984818325378,-0.0010647374438121,0.0006996362935751,-9.817028045654297,0,0,29.065303802490234,1,1,760,800,4.200819,0,0.000984818325378,0.000984818325378,0.0,0,0.000984818325378
1778788396.94001,70125272,0,0.0010104265529662,0.0009623212390579,0.0009620528435334,-0.00034813201637,-0.0004081773222424,-9.817407608032228,0,0,29.06748008728028,1,1,1000,1000,4.240803,0,0.0009620528435334,0.0009620528435334,0.0,0,0.0009620528435334
1778788396.94001,70125272,1,0.001049724407494,0.0009547357913106,0.0009521624306216,-0.0005040516844019,-0.0017834105528891,-9.819171905517578,0,0,29.067428588867188,1,1,760,800,4.240803,0,0.0009521624306216,0.0009521624306216,0.0,0,0.0009521624306216
1778788396.979994,70165256,0,0.0009944727644324,0.0009588263346813,0.0009723503026179,-0.0001107369171222,-0.0003535700670909,-9.818429946899414,0,0,29.069604873657227,1,1,1000,1000,4.280787,0,0.0009723503026179,0.0009723503026179,0.0,0,0.0009723503026179
1778788396.979994,70165256,1,0.0009994753636419,0.0011065676808357,0.0008549141348339,-0.003841581987217,-0.0016932976432144,-9.817327499389648,0,0,29.069551467895508,1,1,760,800,4.280787,0,0.0008549141348339,0.0008549141348339,0.0,0,0.0008549141348339
1778788397.019978,70205240,0,0.0009872252121567,0.0009766607545316,0.0010161615209653,-0.0003893575049005,-0.0011986179742962,-9.817572593688965,0,0,29.071727752685547,1,1,1000,1000,4.320771,0,0.0010161615209653,0.0010161615209653,0.0,0,0.0010161615209653
1778788397.019978,70205240,1,0.0010290944483131,0.0010671009076759,0.0011143237352371,-0.0020073298364877,-0.0014853338943794,-9.817943572998049,0,0,29.071674346923828,1,1,760,800,4.320771,0,0.0011143237352371,0.0011143237352371,0.0,0,0.0011143237352371
1778788397.059962,70245224,0,0.0010015241568908,0.0009913211688399,0.0010264276061207,-0.0010104670654982,-0.0017308734823018,-9.818033218383787,0,0,29.07379913330078,1,1,1000,1000,4.360755,0,0.0010264276061207,0.0010264276061207,0.0,0,0.0010264276061207
1778788397.059962,70245224,1,0.0011068008607253,0.0009735592757351,0.0009874739916995,-0.0025247232988476,-0.0010080311913043,-9.816515922546388,0,0,29.07379913330078,1,1,760,800,4.360755,0,0.0009874739916995,0.0009874739916995,0.0,0,0.0009874739916995
1778788397.099946,70285208,0,0.0009926063939929,0.0010067680850625,0.0009971087565645,-0.0014574989909306,-0.0014832585584372,-10.003396034240724,0,0,29.07592391967773,1,1,1000,1000,4.400739,0,0.0009971087565645,0.0009971087565645,0.0,0,0.0009971087565645
1778788397.099946,70285208,1,0.0009775847429409,0.0009730781894177,0.0012066493509337,-0.0001015203961287,6.554399442393333e-05,-10.005574226379396,0,0,29.07592391967773,1,1,760,800,4.400739,0,0.0012066493509337,0.0012066493509337,0.0,0,0.0012066493509337
1778788397.13993,70325192,0,0.0010043317452073,0.0009889876237139,0.0010274825617671,-0.0009296637726947,-0.0010136353084817,-10.502392768859863,0,0,29.078044891357425,1,1,1000,1000,4.440723,0,0.0010274825617671,0.0010274825617671,0.0,0,0.0010274825617671
1778788397.13993,70325192,1,0.0010089629795402,0.0009135769796557,0.0011413635220378,-0.0005950387567281,-0.0011283954372629,-10.501659393310549,0,0,29.078044891357425,1,1,760,800,4.440723,0,0.0011413635220378,0.0011413635220378,0.0,0,0.0011413635220378
1778788397.179914,70365176,0,0.0009626141982153,0.0009936043061316,0.0010103464592248,-0.0013327320339158,-0.0010603959672152,-10.395122528076172,0,0,29.08016967773437,1,1,1000,1000,4.480707,0,0.0010103464592248,0.0010103464592248,0.0,0,0.0010103464592248
1778788397.179914,70365176,1,0.0010776338167488,0.0010121484519913,0.0009403741569258,-0.0021239577326923,-0.0007121004164218,-10.394464492797852,0,0,29.08016967773437,1,1,760,800,4.480707,0,0.0009403741569258,0.0009403741569258,0.0,0,0.0009403741569258
1778788397.219898,70405160,0,0.0010130614973604,0.0010228753089904,0.0010453755967319,-0.0014377285260707,-0.0019184382399544,-10.363421440124512,0,0,29.082290649414062,1,1,1000,1000,4.520691,0,0.0010453755967319,0.0010453755967319,0.0,0,0.0010453755967319
1778788397.219898,70405160,1,0.0008843889227136,0.0007415412110276,0.001007342361845,-9.691843297332524e-05,-0.0009916891576722,-10.363616943359377,0,0,29.082290649414062,1,1,760,800,4.520691,0,0.001007342361845,0.001007342361845,0.0,0,0.001007342361845
1778788397.259882,70445144,0,0.0010202236007899,0.0009559229947626,0.0009836752433329,-0.0012382295681163,-0.0014557014219462,-10.400712966918944,0,0,29.084413528442383,1,1,1000,1000,4.560675,0,0.0009836752433329,0.0009836752433329,0.0,0,0.0009836752433329
1778788397.259882,70445144,1,0.0011365131940692,0.0009146863012574,0.0010501367505639,-0.0013702900614589,-0.0018488049972802,-10.400989532470703,0,0,29.084413528442383,1,1,760,800,4.560675,0,0.0010501367505639,0.0010501367505639,0.0,0,0.0010501367505639
1778788397.299866,70485128,0,0.0009456148836761,0.0010269184131175,0.0010516226757317,-0.0017226072959601,-0.000829093682114,-10.390869140625,0,0,29.08653450012207,1,1,1000,1000,4.600659,0,0.0010516226757317,0.0010516226757317,0.0,0,0.0010516226757317
1778788397.299866,70485128,1,0.0010046093957498,0.0009816153906285,0.0011098908726125,-0.0027193310670554,-0.0011687953956425,-10.390789031982422,0,0,29.08653450012207,1,1,760,800,4.600659,0,0.0011098908726125,0.0011098908726125,0.0,0,0.0011098908726125
1778788397.33985,70525112,0,0.0010392188560217,0.0009827283211052,0.0009742291877046,-0.0002722190110944,-0.0013652868801727,-10.360889434814451,0,0,29.08865737915039,1,1,1000,1000,4.640643,0,0.0009742291877046,0.0009742291877046,0.0,0,0.0009742291877046
1778788397.33985,70525112,1,0.0009881505975499,0.0011005558772012,0.0010291642975062,0.0009781708940863,-0.0009743485134094,-10.361909866333008,0,0,29.08865737915039,1,1,760,800,4.640643,0,0.0010291642975062,0.0010291642975062,0.0,0,0.0010291642975062
1778788397.379834,70565096,0,0.0010122419334948,0.0010578776709735,0.0009923696052283,-0.0010131638264283,-0.0002425723505439,-10.341657638549805,0,0,29.09077835083008,1,1,1000,1000,4.680627,0,0.0009923696052283,0.0009923696052283,0.0,0,0.0009923696052283
1778788397.379834,70565096,1,0.0011572833172976,0.0010403495980426,0.000927556247916,-0.0015459150308743,0.0008881074609234,-10.344233512878418,0,0,29.09077835083008,1,1,760,800,4.680627,0,0.000927556247916,0.000927556247916,0.0,0,0.000927556247916
