timestamp,TimeUS,I,Alt,AltAMSL,Press,Temp,CRt,SMS,Offset,GndTemp,H,CPress,TimeSec,AttackActive_BARO,Alt_attacked,SoftwareSensor_Alt,Residual_Alt,DetectionFlag_Alt,Recovered_Alt
1778782185.0600562,68245191,0,0.00372314453125,584.0936889648438,94502.828125,30.57,0.0,68245,0.0,28.02182960510254,1,94502.828125,0.0,0,0.00372314453125,0.00372314453125,0.0,0,0.00372314453125
1778782185.0600562,68245191,1,-0.14910888671875,583.9408569335938,94503.296875,30.57,0.0,68245,0.0,28.02182960510254,1,94503.296875,0.0,0,-0.14910888671875,-0.14910888671875,0.0,0,-0.14910888671875
1778782185.160016,68345151,0,0.00372314453125,584.0936889648438,94502.828125,30.57,0.0,68345,0.0,28.02182960510254,1,94502.828125,0.09996,0,0.00372314453125,0.00372314453125,0.0,0,0.00372314453125
1778782185.160016,68345151,1,-0.17547607421875,583.9144897460938,94503.59375,30.57,0.0,68345,0.0,28.02182960510254,1,94503.59375,0.09996,0,-0.17547607421875,-0.17547607421875,0.0,0,-0.17547607421875
1778782185.259976,68445111,0,0.00372314453125,584.0936889648438,94502.828125,30.57,0.0,68445,0.0,28.02182960510254,1,94502.828125,0.19992,0,0.00372314453125,0.00372314453125,0.0,0,0.00372314453125
1778782185.259976,68445111,1,-0.07830810546875,584.0116577148438,94502.4921875,30.57,0.0,68445,0.0,28.02182960510254,1,94502.4921875,0.19992,0,-0.07830810546875,-0.07830810546875,0.0,0,-0.07830810546875
1778782185.359936,68545071,0,0.00372314453125,584.0936889648438,94502.828125,30.57,0.0,68545,0.0,28.02182960510254,1,94502.828125,0.29988,0,0.00372314453125,0.00372314453125,0.0,0,0.00372314453125
1778782185.359936,68545071,1,-0.04608154296875,584.0438842773438,94502.125,30.57,0.0,68545,0.0,28.02182960510254,1,94502.125,0.29988,0,-0.04608154296875,-0.04608154296875,0.0,0,-0.04608154296875
1778782185.459896,68645031,0,0.00372314453125,584.0936889648438,94502.828125,30.57,0.0,68645,0.0,28.02182960510254,1,94502.828125,0.39984,0,0.00372314453125,0.00372314453125,0.0,0,0.00372314453125
1778782185.459896,68645031,1,0.03009033203125,584.1200561523438,94501.2578125,30.57,0.0,68645,0.0,28.02182960510254,1,94501.2578125,0.39984,0,0.03009033203125,0.03009033203125,0.0,0,0.03009033203125
1778782185.559856,68744991,0,0.00372314453125,584.0936889648438,94502.828125,30.58,0.0,68744,0.0,28.02182960510254,1,94502.828125,0.4998,0,0.00372314453125,0.00372314453125,0.0,0,0.00372314453125
1778782185.559856,68744991,1,0.05694580078125,584.1469116210938,94500.953125,30.58,0.0,68744,0.0,28.02182960510254,1,94500.953125,0.4998,0,0.05694580078125,0.05694580078125,0.0,0,0.05694580078125
1778782185.659816,68844951,0,0.00372314453125,584.0936889648438,94502.828125,30.58,0.0,68844,0.0,28.02182960510254,1,94502.828125,0.59976,0,0.00372314453125,0.00372314453125,0.0,0,0.00372314453125
1778782185.659816,68844951,1,-0.29315185546875,583.7968139648438,94504.921875,30.58,0.0,68844,0.0,28.02182960510254,1,94504.921875,0.59976,0,-0.29315185546875,-0.29315185546875,0.0,0,-0.29315185546875
1778782185.759776,68944911,0,0.00372314453125,584.0936889648438,94502.828125,30.58,0.0,68944,0.0,28.02182960510254,1,94502.828125,0.69972,0,0.00372314453125,0.00372314453125,0.0,0,0.00372314453125
1778782185.759776,68944911,1,-0.22869873046875,583.8612670898438,94504.1953125,30.58,0.0,68944,0.0,28.02182960510254,1,94504.1953125,0.69972,0,-0.22869873046875,-0.22869873046875,0.0,0,-0.22869873046875
1778782185.8597362,69044871,0,0.00372314453125,584.0936889648438,94502.828125,30.58,0.0,69044,0.0,28.02182960510254,1,94502.828125,0.79968,0,0.00372314453125,0.00372314453125,0.0,0,0.00372314453125
1778782185.8597362,69044871,1,-0.10809326171875,583.9818725585938,94502.828125,30.58,0.0,69044,0.0,28.02182960510254,1,94502.828125,0.79968,0,-0.10809326171875,-0.10809326171875,0.0,0,-0.10809326171875
1778782185.959696,69144831,0,0.00372314453125,584.0936889648438,94502.828125,30.58,0.0,69144,0.0,28.02182960510254,1,94502.828125,0.89964,0,0.00372314453125,0.00372314453125,0.0,0,0.00372314453125
1778782185.959696,69144831,1,-0.11688232421875,583.9730834960938,94502.921875,30.58,0.0,69144,0.0,28.02182960510254,1,94502.921875,0.89964,0,-0.11688232421875,-0.11688232421875,0.0,0,-0.11688232421875
1778782186.059656,69244791,0,0.00372314453125,584.0936889648438,94502.828125,30.59,0.0,69244,0.0,28.02182960510254,1,94502.828125,0.9996,0,0.00372314453125,0.00372314453125,0.0,0,0.00372314453125
1778782186.059656,69244791,1,0.00958251953125,584.0995483398438,94501.4921875,30.59,0.0,69244,0.0,28.02182960510254,1,94501.4921875,0.9996,0,0.00958251953125,0.00958251953125,0.0,0,0.00958251953125
1778782186.159616,69344751,0,0.00372314453125,584.0936889648438,94502.828125,30.59,0.0,69344,0.0,28.02182960510254,1,94502.828125,1.09956,0,0.00372314453125,0.00372314453125,0.0,0,0.00372314453125
1778782186.159616,69344751,1,-0.24334716796875,583.8466186523438,94504.359375,30.59,0.0,69344,0.0,28.02182960510254,1,94504.359375,1.09956,0,-0.24334716796875,-0.24334716796875,0.0,0,-0.24334716796875
1778782186.259576,69444711,0,0.00372314453125,584.0936889648438,94502.828125,30.59,0.0,69444,0.0,28.02182960510254,1,94502.828125,1.19952,0,0.00372314453125,0.00372314453125,0.0,0,0.00372314453125
1778782186.259576,69444711,1,-0.25213623046875,583.8378295898438,94504.4609375,30.59,0.0,69444,0.0,28.02182960510254,1,94504.4609375,1.19952,0,-0.25213623046875,-0.25213623046875,0.0,0,-0.25213623046875
1778782186.359536,69544671,0,0.00372314453125,584.0936889648438,94502.828125,30.59,0.0,69544,0.0,28.02182960510254,1,94502.828125,1.29948,0,0.00372314453125,0.00372314453125,0.0,0,0.00372314453125
1778782186.359536,69544671,1,-0.26971435546875,583.8202514648438,94504.65625,30.59,0.0,69544,0.0,28.02182960510254,1,94504.65625,1.29948,0,-0.26971435546875,-0.26971435546875,0.0,0,-0.26971435546875
1778782186.459496,69644631,0,0.00372314453125,584.0936889648438,94502.828125,30.59,0.0,69644,0.0,28.02182960510254,1,94502.828125,1.39944,0,0.00372314453125,0.00372314453125,0.0,0,0.00372314453125
1778782186.459496,69644631,1,-0.23748779296875,583.8524780273438,94504.2890625,30.6,0.0,69644,0.0,28.02182960510254,1,94504.2890625,1.39944,0,-0.23748779296875,-0.23748779296875,0.0,0,-0.23748779296875
1778782186.559456,69744591,0,0.00372314453125,584.0936889648438,94502.828125,30.6,0.0,69744,0.0,28.02182960510254,1,94502.828125,1.4994,0,0.00372314453125,0.00372314453125,0.0,0,0.00372314453125
1778782186.559456,69744591,1,-0.23748779296875,583.8524780273438,94504.2890625,30.6,0.0,69744,0.0,28.02182960510254,1,94504.2890625,1.4994,0,-0.23748779296875,-0.23748779296875,0.0,0,-0.23748779296875
1778782186.6594162,69844551,0,0.00372314453125,584.0936889648438,94502.828125,30.6,0.0,69844,0.0,28.02182960510254,1,94502.828125,1.59936,0,0.00372314453125,0.00372314453125,0.0,0,0.00372314453125
1778782186.6594162,69844551,1,0.0540771484375,584.14404296875,94500.984375,30.6,0.0,69844,0.0,28.02182960510254,1,94500.984375,1.59936,0,0.0540771484375,0.0540771484375,0.0,0,0.0540771484375
1778782186.759376,69944511,0,0.00372314453125,584.0936889648438,94502.828125,30.6,0.0,69944,0.0,28.02182960510254,1,94502.828125,1.69932,0,0.00372314453125,0.00372314453125,0.0,0,0.00372314453125
1778782186.759376,69944511,1,0.02130126953125,584.1112670898438,94501.3515625,30.6,0.0,69944,0.0,28.02182960510254,1,94501.3515625,1.69932,0,0.02130126953125,0.02130126953125,0.0,0,0.02130126953125
1778782186.859336,70044471,0,0.00372314453125,584.0936889648438,94502.828125,30.6,0.0,70044,0.0,28.02182960510254,1,94502.828125,1.79928,0,0.00372314453125,0.00372314453125,0.0,0,0.00372314453125
1778782186.859336,70044471,1,-0.24334716796875,583.8466186523438,94504.359375,30.6,0.0,70044,0.0,28.02182960510254,1,94504.359375,1.79928,0,-0.24334716796875,-0.24334716796875,0.0,0,-0.24334716796875
1778782186.9592962,70144431,0,0.00372314453125,584.0936889648438,94502.828125,30.6,0.0,70144,0.0,28.02182960510254,1,94502.828125,1.89924,0,0.00372314453125,0.00372314453125,0.0,0,0.00372314453125
1778782186.9592962,70144431,1,-0.06072998046875,584.0292358398438,94502.2890625,30.6,0.0,70144,0.0,28.02182960510254,1,94502.2890625,1.89924,0,-0.06072998046875,-0.06072998046875,0.0,0,-0.06072998046875
1778782187.059256,70244391,0,0.00372314453125,584.0936889648438,94502.828125,30.61,0.0,70244,0.0,28.02182960510254,1,94502.828125,1.9992,0,0.00372314453125,0.00372314453125,0.0,0,0.00372314453125
1778782187.059256,70244391,1,-0.26971435546875,583.8202514648438,94504.65625,30.61,0.0,70244,0.0,28.02182960510254,1,94504.65625,1.9992,0,-0.26971435546875,-0.26971435546875,0.0,0,-0.26971435546875
1778782187.1600492,70345184,0,0.00372314453125,584.0936889648438,94502.828125,30.61,0.0,70345,0.0,28.02182960510254,1,94502.828125,2.099993,0,0.00372314453125,0.00372314453125,0.0,0,0.00372314453125
1778782187.1600492,70345184,1,-0.11102294921875,583.9789428710938,94502.859375,30.61,0.0,70345,0.0,28.02182960510254,1,94502.859375,2.099993,0,-0.11102294921875,-0.11102294921875,0.0,0,-0.11102294921875
1778782187.260009,70445144,0,0.00372314453125,584.0936889648438,94502.828125,30.61,0.0,70445,0.0,28.02182960510254,1,94502.828125,2.199953,0,0.00372314453125,0.00372314453125,0.0,0,0.00372314453125
1778782187.260009,70445144,1,-0.21942138671875,583.8705444335938,94504.0859375,30.61,0.0,70445,0.0,28.02182960510254,1,94504.0859375,2.199953,0,-0.21942138671875,-0.21942138671875,0.0,0,-0.21942138671875
1778782187.3599691,70545104,0,0.00372314453125,584.0936889648438,94502.828125,30.61,0.0,70545,0.0,28.02182960510254,1,94502.828125,2.299913,0,0.00372314453125,0.00372314453125,0.0,0,0.00372314453125
1778782187.3599691,70545104,1,0.04473876953125,584.1347045898438,94501.09375,30.61,0.0,70545,0.0,28.02182960510254,1,94501.09375,2.299913,0,0.04473876953125,0.04473876953125,0.0,0,0.04473876953125
1778782187.4599292,70645064,0,0.00372314453125,584.0936889648438,94502.828125,30.61,0.0,70645,0.0,28.02182960510254,1,94502.828125,2.399873,0,0.00372314453125,0.00372314453125,0.0,0,0.00372314453125
1778782187.4599292,70645064,1,-0.06072998046875,584.0292358398438,94502.2890625,30.61,0.0,70645,0.0,28.02182960510254,1,94502.2890625,2.399873,0,-0.06072998046875,-0.06072998046875,0.0,0,-0.06072998046875
1778782187.559889,70745024,0,0.00372314453125,584.0936889648438,94502.828125,30.62,0.0,70745,0.0,28.02182960510254,1,94502.828125,2.499833,0,0.00372314453125,0.00372314453125,0.0,0,0.00372314453125
1778782187.559889,70745024,1,-0.06951904296875,584.0204467773438,94502.390625,30.62,0.0,70745,0.0,28.02182960510254,1,94502.390625,2.499833,0,-0.06951904296875,-0.06951904296875,0.0,0,-0.06951904296875
1778782187.6598492,70844984,0,0.00372314453125,584.0936889648438,94502.828125,30.62,0.0,70844,0.0,28.02182960510254,1,94502.828125,2.599793,0,0.00372314453125,0.00372314453125,0.0,0,0.00372314453125
1778782187.6598492,70844984,1,-0.24627685546875,583.8436889648438,94504.3984375,30.62,0.0,70844,0.0,28.02182960510254,1,94504.3984375,2.599793,0,-0.24627685546875,-0.24627685546875,0.0,0,-0.24627685546875
1778782187.759809,70944944,0,0.00372314453125,584.0936889648438,94502.828125,30.62,0.0,70944,0.0,28.02182960510254,1,94502.828125,2.699753,0,0.00372314453125,0.00372314453125,0.0,0,0.00372314453125
1778782187.759809,70944944,1,-0.23748779296875,583.8524780273438,94504.2890625,30.62,0.0,70944,0.0,28.02182960510254,1,94504.2890625,2.699753,0,-0.23748779296875,-0.23748779296875,0.0,0,-0.23748779296875
1778782187.859769,71044904,0,0.00372314453125,584.0936889648438,94502.828125,30.62,0.0,71044,0.0,28.02182960510254,1,94502.828125,2.799713,0,0.00372314453125,0.00372314453125,0.0,0,0.00372314453125
1778782187.859769,71044904,1,-0.19891357421875,583.8910522460938,94503.8515625,30.62,0.0,71044,0.0,28.02182960510254,1,94503.8515625,2.799713,0,-0.19891357421875,-0.19891357421875,0.0,0,-0.19891357421875
1778782187.9597292,71144864,0,0.00372314453125,584.0936889648438,94502.828125,30.62,0.0,71144,0.0,28.02182960510254,1,94502.828125,2.899673,0,0.00372314453125,0.00372314453125,0.0,0,0.00372314453125
1778782187.9597292,71144864,1,-0.04901123046875,584.0409545898438,94502.1640625,30.62,0.0,71144,0.0,28.02182960510254,1,94502.1640625,2.899673,0,-0.04901123046875,-0.04901123046875,0.0,0,-0.04901123046875
1778782188.059689,71244824,0,0.00372314453125,584.0936889648438,94502.828125,30.63,0.0,71244,0.0,28.02182960510254,1,94502.828125,2.999633,0,0.00372314453125,0.00372314453125,0.0,0,0.00372314453125
1778782188.059689,71244824,1,-0.18133544921875,583.9086303710938,94503.6640625,30.63,0.0,71244,0.0,28.02182960510254,1,94503.6640625,2.999633,0,-0.18133544921875,-0.18133544921875,0.0,0,-0.18133544921875
1778782188.1596491,71344784,0,0.00372314453125,584.0936889648438,94502.828125,30.63,0.0,71344,0.0,28.02182960510254,1,94502.828125,3.099593,0,0.00372314453125,0.00372314453125,0.0,0,0.00372314453125
1778782188.1596491,71344784,1,-0.04901123046875,584.0409545898438,94502.1640625,30.63,0.0,71344,0.0,28.02182960510254,1,94502.1640625,3.099593,0,-0.04901123046875,-0.04901123046875,0.0,0,-0.04901123046875
1778782188.2596092,71444744,0,0.00372314453125,584.0936889648438,94502.828125,30.63,0.0,71444,0.0,28.02182960510254,1,94502.828125,3.199553,0,0.00372314453125,0.00372314453125,0.0,0,0.00372314453125
1778782188.2596092,71444744,1,-0.26092529296875,583.8290405273438,94504.5625,30.63,0.0,71444,0.0,28.02182960510254,1,94504.5625,3.199553,0,-0.26092529296875,-0.26092529296875,0.0,0,-0.26092529296875
1778782188.359569,71544704,0,0.00372314453125,584.0936889648438,94502.828125,30.63,0.0,71544,0.0,28.02182960510254,1,94502.828125,3.299513,0,0.00372314453125,0.00372314453125,0.0,0,0.00372314453125
1778782188.359569,71544704,1,0.0628662109375,584.15283203125,94500.890625,30.63,0.0,71544,0.0,28.02182960510254,1,94500.890625,3.299513,0,0.0628662109375,0.0628662109375,0.0,0,0.0628662109375
1778782188.4595292,71644664,0,0.00372314453125,584.0936889648438,94502.828125,30.63,0.0,71644,0.0,28.02182960510254,1,94502.828125,3.399473,0,0.00372314453125,0.00372314453125,0.0,0,0.00372314453125
1778782188.4595292,71644664,1,0.06866455078125,584.1586303710938,94500.828125,30.63,0.0,71644,0.0,28.02182960510254,1,94500.828125,3.399473,0,0.06866455078125,0.06866455078125,0.0,0,0.06866455078125
1778782188.559489,71744624,0,0.00372314453125,584.0936889648438,94502.828125,30.64,0.0,71744,0.0,28.02182960510254,1,94502.828125,3.499433,0,0.00372314453125,0.00372314453125,0.0,0,0.00372314453125
1778782188.559489,71744624,1,-0.11688232421875,583.9730834960938,94502.921875,30.64,0.0,71744,0.0,28.02182960510254,1,94502.921875,3.499433,0,-0.11688232421875,-0.11688232421875,0.0,0,-0.11688232421875
1778782188.659449,71844584,0,0.00372314453125,584.0936889648438,94502.828125,30.64,0.0,71844,0.0,28.02182960510254,1,94502.828125,3.599393,0,0.00372314453125,0.00372314453125,0.0,0,0.00372314453125
1778782188.659449,71844584,1,-0.26678466796875,583.8231811523438,94504.625,30.64,0.0,71844,0.0,28.02182960510254,1,94504.625,3.599393,0,-0.26678466796875,-0.26678466796875,0.0,0,-0.26678466796875
1778782188.7594092,71944544,0,0.00372314453125,584.0936889648438,94502.828125,30.64,0.0,71944,0.0,28.02182960510254,1,94502.828125,3.699353,0,0.00372314453125,0.00372314453125,0.0,0,0.00372314453125
1778782188.7594092,71944544,1,0.06866455078125,584.1586303710938,94500.828125,30.64,0.0,71944,0.0,28.02182960510254,1,94500.828125,3.699353,0,0.06866455078125,0.06866455078125,0.0,0,0.06866455078125
1778782188.859369,72044504,0,0.00372314453125,584.0936889648438,94502.828125,30.64,0.0,72044,0.0,28.02182960510254,1,94502.828125,3.799313,0,0.00372314453125,0.00372314453125,0.0,0,0.00372314453125
1778782188.859369,72044504,1,-0.11102294921875,583.9789428710938,94502.859375,30.64,0.0,72044,0.0,28.02182960510254,1,94502.859375,3.799313,0,-0.11102294921875,-0.11102294921875,0.0,0,-0.11102294921875
1778782188.9593291,72144464,0,0.00372314453125,584.0936889648438,94502.828125,30.64,0.0,72144,0.0,28.02182960510254,1,94502.828125,3.899273,0,0.00372314453125,0.00372314453125,0.0,0,0.00372314453125
1778782188.9593291,72144464,1,-0.28143310546875,583.8085327148438,94504.796875,30.64,0.0,72144,0.0,28.02182960510254,1,94504.796875,3.899273,0,-0.28143310546875,-0.28143310546875,0.0,0,-0.28143310546875
1778782189.0592892,72244424,0,0.00372314453125,584.0936889648438,94502.828125,30.65,0.0,72244,0.0,28.02182960510254,1,94502.828125,3.999233,0,0.00372314453125,0.00372314453125,0.0,0,0.00372314453125
1778782189.0592892,72244424,1,-0.11688232421875,583.9730834960938,94502.921875,30.65,0.0,72244,0.0,28.02182960510254,1,94502.921875,3.999233,0,-0.11688232421875,-0.11688232421875,0.0,0,-0.11688232421875
1778782189.159249,72344384,0,0.00372314453125,584.0936889648438,94502.828125,30.65,0.0,72344,0.0,28.02182960510254,1,94502.828125,4.099193,0,0.00372314453125,0.00372314453125,0.0,0,0.00372314453125
1778782189.159249,72344384,1,-0.10809326171875,583.9818725585938,94502.828125,30.65,0.0,72344,0.0,28.02182960510254,1,94502.828125,4.099193,0,-0.10809326171875,-0.10809326171875,0.0,0,-0.10809326171875
1778782189.260042,72445177,0,0.00372314453125,584.0936889648438,94502.828125,30.65,0.0,72445,0.0,28.02182960510254,1,94502.828125,4.199986,0,0.00372314453125,0.00372314453125,0.0,0,0.00372314453125
1778782189.260042,72445177,1,-0.19891357421875,583.8910522460938,94503.8515625,30.65,0.0,72445,0.0,28.02182960510254,1,94503.8515625,4.199986,0,-0.19891357421875,-0.19891357421875,0.0,0,-0.19891357421875
1778782189.360002,72545137,0,0.00372314453125,584.0936889648438,94502.828125,30.65,0.0,72545,0.0,28.02182960510254,1,94502.828125,4.299946,0,0.00372314453125,0.00372314453125,0.0,0,0.00372314453125
1778782189.360002,72545137,1,-0.07830810546875,584.0116577148438,94502.4921875,30.65,0.0,72545,0.0,28.02182960510254,1,94502.4921875,4.299946,0,-0.07830810546875,-0.07830810546875,0.0,0,-0.07830810546875
1778782189.459962,72645097,0,0.00372314453125,584.0936889648438,94502.828125,30.65,0.0,72645,0.0,28.02182960510254,1,94502.828125,4.399906,0,0.00372314453125,0.00372314453125,0.0,0,0.00372314453125
1778782189.459962,72645097,1,-0.12567138671875,583.9642944335938,94503.03125,30.65,0.0,72645,0.0,28.02182960510254,1,94503.03125,4.399906,0,-0.12567138671875,-0.12567138671875,0.0,0,-0.12567138671875
1778782189.5599222,72745057,0,0.00372314453125,584.0936889648438,94502.828125,30.65,0.0,72745,0.0,28.02182960510254,1,94502.828125,4.499866,0,0.00372314453125,0.00372314453125,0.0,0,0.00372314453125
1778782189.5599222,72745057,1,-0.07830810546875,584.0116577148438,94502.4921875,30.65,0.0,72745,0.0,28.02182960510254,1,94502.4921875,4.499866,0,-0.07830810546875,-0.07830810546875,0.0,0,-0.07830810546875
1778782189.659882,72845017,0,0.00372314453125,584.0936889648438,94502.828125,30.66,0.0,72845,0.0,28.02182960510254,1,94502.828125,4.599826,0,0.00372314453125,0.00372314453125,0.0,0,0.00372314453125
1778782189.659882,72845017,1,-0.06072998046875,584.0292358398438,94502.2890625,30.66,0.0,72845,0.0,28.02182960510254,1,94502.2890625,4.599826,0,-0.06072998046875,-0.06072998046875,0.0,0,-0.06072998046875
1778782189.759842,72944977,0,0.00372314453125,584.0936889648438,94502.828125,30.66,0.0,72944,0.0,28.02182960510254,1,94502.828125,4.699786,0,0.00372314453125,0.00372314453125,0.0,0,0.00372314453125
1778782189.759842,72944977,1,-0.29315185546875,583.7968139648438,94504.921875,30.66,0.0,72944,0.0,28.02182960510254,1,94504.921875,4.699786,0,-0.29315185546875,-0.29315185546875,0.0,0,-0.29315185546875
1778782189.859802,73044937,0,0.00372314453125,584.0936889648438,94502.828125,30.66,0.0,73044,0.0,28.02182960510254,1,94502.828125,4.799746,0,0.00372314453125,0.00372314453125,0.0,0,0.00372314453125
1778782189.859802,73044937,1,-0.23748779296875,583.8524780273438,94504.2890625,30.66,0.0,73044,0.0,28.02182960510254,1,94504.2890625,4.799746,0,-0.23748779296875,-0.23748779296875,0.0,0,-0.23748779296875
1778782189.959762,73144897,0,0.00372314453125,584.0936889648438,94502.828125,30.66,0.0,73144,0.0,28.02182960510254,1,94502.828125,4.899706,0,0.00372314453125,0.00372314453125,0.0,0,0.00372314453125
1778782189.959762,73144897,1,-0.12567138671875,583.9642944335938,94503.03125,30.66,0.0,73144,0.0,28.02182960510254,1,94503.03125,4.899706,0,-0.12567138671875,-0.12567138671875,0.0,0,-0.12567138671875
1778782190.059722,73244857,0,0.00372314453125,584.0936889648438,94502.828125,30.66,0.0,73244,0.0,28.02182960510254,1,94502.828125,4.999666,0,0.00372314453125,0.00372314453125,0.0,0,0.00372314453125
1778782190.059722,73244857,1,-0.06072998046875,584.0292358398438,94502.2890625,30.66,0.0,73244,0.0,28.02182960510254,1,94502.2890625,4.999666,0,-0.06072998046875,-0.06072998046875,0.0,0,-0.06072998046875
1778782190.159682,73344817,0,0.00372314453125,584.0936889648438,94502.828125,30.67,0.0,73344,0.0,28.02182960510254,1,94502.828125,5.099626,0,0.00372314453125,0.00372314453125,0.0,0,0.00372314453125
1778782190.159682,73344817,1,-0.13446044921875,583.9555053710938,94503.125,30.67,0.0,73344,0.0,28.02182960510254,1,94503.125,5.099626,0,-0.13446044921875,-0.13446044921875,0.0,0,-0.13446044921875
1778782190.259642,73444777,0,0.00372314453125,584.0936889648438,94502.828125,30.67,0.0,73444,0.0,28.02182960510254,1,94502.828125,5.199586,0,0.00372314453125,0.00372314453125,0.0,0,0.00372314453125
1778782190.259642,73444777,1,-0.13446044921875,583.9555053710938,94503.125,30.67,0.0,73444,0.0,28.02182960510254,1,94503.125,5.199586,0,-0.13446044921875,-0.13446044921875,0.0,0,-0.13446044921875
1778782190.3596022,73544737,0,0.00372314453125,584.0936889648438,94502.828125,30.67,0.0,73544,0.0,28.02182960510254,1,94502.828125,5.299546,0,0.00372314453125,0.00372314453125,0.0,0,0.00372314453125
1778782190.3596022,73544737,1,-0.07830810546875,584.0116577148438,94502.4921875,30.67,0.0,73544,0.0,28.02182960510254,1,94502.4921875,5.299546,0,-0.07830810546875,-0.07830810546875,0.0,0,-0.07830810546875
1778782190.459562,73644697,0,0.00372314453125,584.0936889648438,94502.828125,30.67,0.0,73644,0.0,28.02182960510254,1,94502.828125,5.399506,0,0.00372314453125,0.00372314453125,0.0,0,0.00372314453125
1778782190.459562,73644697,1,-0.05487060546875,584.0350952148438,94502.2265625,30.67,0.0,73644,0.0,28.02182960510254,1,94502.2265625,5.399506,0,-0.05487060546875,-0.05487060546875,0.0,0,-0.05487060546875
1778782190.559522,73744657,0,0.00372314453125,584.0936889648438,94502.828125,30.67,0.0,73744,0.0,28.02182960510254,1,94502.828125,5.499466,0,0.00372314453125,0.00372314453125,0.0,0,0.00372314453125
1778782190.559522,73744657,1,-0.03729248046875,584.0526733398438,94502.0234375,30.67,0.0,73744,0.0,28.02182960510254,1,94502.0234375,5.499466,0,-0.03729248046875,-0.03729248046875,0.0,0,-0.03729248046875
1778782190.659482,73844617,0,0.00372314453125,584.0936889648438,94502.828125,30.67,0.0,73844,0.0,28.02182960510254,1,94502.828125,5.599426,0,0.00372314453125,0.00372314453125,0.0,0,0.00372314453125
1778782190.659482,73844617,1,0.02423095703125,584.1141967773438,94501.3203125,30.67,0.0,73844,0.0,28.02182960510254,1,94501.3203125,5.599426,0,0.02423095703125,0.02423095703125,0.0,0,0.02423095703125
1778782190.759442,73944577,0,0.00372314453125,584.0936889648438,94502.828125,30.68,0.0,73944,0.0,28.02182960510254,1,94502.828125,5.699386,0,0.00372314453125,0.00372314453125,0.0,0,0.00372314453125
1778782190.759442,73944577,1,0.07745361328125,584.1674194335938,94500.71875,30.68,0.0,73944,0.0,28.02182960510254,1,94500.71875,5.699386,0,0.07745361328125,0.07745361328125,0.0,0,0.07745361328125
1778782190.859402,74044537,0,0.00372314453125,584.0936889648438,94502.828125,30.68,0.0,74044,0.0,28.02182960510254,1,94502.828125,5.799346,0,0.00372314453125,0.00372314453125,0.0,0,0.00372314453125
1778782190.859402,74044537,1,-0.00213623046875,584.0878295898438,94501.6171875,30.68,0.0,74044,0.0,28.02182960510254,1,94501.6171875,5.799346,0,-0.00213623046875,-0.00213623046875,0.0,0,-0.00213623046875
1778782190.959362,74144497,0,0.00372314453125,584.0936889648438,94502.828125,30.68,0.0,74144,0.0,28.02182960510254,1,94502.828125,5.899306,0,0.00372314453125,0.00372314453125,0.0,0,0.00372314453125
1778782190.959362,74144497,1,-0.02557373046875,584.0643920898438,94501.8828125,30.68,0.0,74144,0.0,28.02182960510254,1,94501.8828125,5.899306,0,-0.02557373046875,-0.02557373046875,0.0,0,-0.02557373046875
1778782191.059322,74244457,0,0.01544189453125,584.1054077148438,94502.6875,30.68,0.003662109375,74244,0.0,28.02182960510254,1,94502.6875,5.999266,0,0.01544189453125,0.01544189453125,0.0,0,0.01544189453125
1778782191.059322,74244457,1,0.09503173828125,584.1849975585938,94500.515625,30.68,0.003662109375,74244,0.0,28.02182960510254,1,94500.515625,5.999266,0,0.09503173828125,0.09503173828125,0.0,0,0.09503173828125
1778782191.1592822,74344417,0,0.01544189453125,584.1054077148438,94502.6875,30.68,0.0183105450123548,74344,0.0,28.02182960510254,1,94502.6875,6.099226,0,0.01544189453125,0.01544189453125,0.0,0,0.01544189453125
1778782191.1592822,74344417,1,-0.09637451171875,583.9935913085938,94502.6875,30.68,0.0183105450123548,74344,0.0,28.02182960510254,1,94502.6875,6.099226,0,-0.09637451171875,-0.09637451171875,0.0,0,-0.09637451171875
1778782191.259242,74444377,0,0.02423095703125,584.1141967773438,94502.59375,30.68,0.0393676795065403,74444,0.0,28.02182960510254,1,94502.59375,6.199186,0,0.02423095703125,0.02423095703125,0.0,0,0.02423095703125
1778782191.259242,74444377,1,0.03302001953125,584.1229858398438,94501.21875,30.68,0.0393676795065403,74444,0.0,28.02182960510254,1,94501.21875,6.199186,0,0.03302001953125,0.03302001953125,0.0,0,0.03302001953125
1778782191.3600352,74545170,0,0.03350830078125,584.1234741210938,94502.4921875,30.69,0.0532376877963542,74545,0.0,28.02182960510254,1,94502.4921875,6.299979,0,0.03350830078125,0.03350830078125,0.0,0,0.03350830078125
1778782191.3600352,74545170,1,-0.13446044921875,583.9555053710938,94503.125,30.69,0.0532376877963542,74545,0.0,28.02182960510254,1,94503.125,6.299979,0,-0.13446044921875,-0.13446044921875,0.0,0,-0.13446044921875
1778782191.459995,74645130,0,0.06573486328125,584.1557006835938,94502.125,30.69,0.0702179223299026,74645,0.0,28.02182960510254,1,94502.125,6.399939,0,0.06573486328125,0.06573486328125,0.0,0,0.06573486328125
1778782191.459995,74645130,1,0.10089111328125,584.1908569335938,94500.453125,30.69,0.0702179223299026,74645,0.0,28.02182960510254,1,94500.453125,6.399939,0,0.10089111328125,0.10089111328125,0.0,0,0.10089111328125
1778782191.5599551,74745090,0,0.08624267578125,584.1762084960938,94501.8828125,30.69,0.1165421977639198,74745,0.0,28.02182960510254,1,94501.8828125,6.499899,0,0.08624267578125,0.08624267578125,0.0,0,0.08624267578125
1778782191.5599551,74745090,1,-0.10809326171875,583.9818725585938,94502.828125,30.69,0.1165421977639198,74745,0.0,28.02182960510254,1,94502.828125,6.499899,0,-0.10809326171875,-0.10809326171875,0.0,0,-0.10809326171875
1778782191.6599152,74845050,0,0.11846923828125,584.2084350585938,94501.5234375,30.69,0.1849499642848968,74845,0.0,28.02182960510254,1,94501.5234375,6.599859,0,0.11846923828125,0.11846923828125,0.0,0,0.11846923828125
1778782191.6599152,74845050,1,0.1097412109375,584.19970703125,94500.3515625,30.69,0.1849499642848968,74845,0.0,28.02182960510254,1,94500.3515625,6.599859,0,0.1097412109375,0.1097412109375,0.0,0,0.1097412109375
1778782191.759875,74945010,0,0.1658935546875,584.255859375,94500.984375,30.69,0.2468394786119461,74945,0.0,28.02182960510254,1,94500.984375,6.699819,0,0.1658935546875,0.1658935546875,0.0,0,0.1658935546875
1778782191.759875,74945010,1,0.18011474609375,584.2700805664062,94499.5546875,30.69,0.2468394786119461,74945,0.0,28.02182960510254,1,94499.5546875,6.699819,0,0.18011474609375,0.18011474609375,0.0,0,0.18011474609375
1778782191.8598351,75044970,0,0.2537841796875,584.34375,94499.9921875,30.69,0.3196144104003906,75044,0.0,28.02182960510254,1,94499.9921875,6.799779,0,0.2537841796875,0.2537841796875,0.0,0,0.2537841796875
1778782191.8598351,75044970,1,0.09210205078125,584.1820678710938,94500.546875,30.69,0.3196144104003906,75044,0.0,28.02182960510254,1,94500.546875,6.799779,0,0.09210205078125,0.09210205078125,0.0,0,0.09210205078125
1778782191.959795,75144930,0,0.3773193359375,584.46728515625,94498.578125,30.69,0.4677256047725677,75144,0.0,28.02182960510254,1,94498.578125,6.899739,0,0.3773193359375,0.3773193359375,0.0,0,0.3773193359375
1778782191.959795,75144930,1,0.1478271484375,584.23779296875,94499.9140625,30.7,0.4677256047725677,75144,0.0,28.02182960510254,1,94499.9140625,6.899739,0,0.1478271484375,0.1478271484375,0.0,0,0.1478271484375
1778782192.059755,75244890,0,0.4949951171875,584.5849609375,94497.2421875,30.7,0.7116175889968872,75244,0.0,28.02182960510254,1,94497.2421875,6.999699,0,0.4949951171875,0.4949951171875,0.0,0,0.4949951171875
1778782192.059755,75244890,1,0.46575927734375,584.5557250976562,94496.3125,30.7,0.7116175889968872,75244,0.0,28.02182960510254,1,94496.3125,6.999699,0,0.46575927734375,0.46575927734375,0.0,0,0.46575927734375
1778782192.1597152,75344850,0,0.61566162109375,584.7056274414062,94495.8828125,30.7,0.969569444656372,75344,0.0,28.02182960510254,1,94495.8828125,7.099659,0,0.61566162109375,0.61566162109375,0.0,0,0.61566162109375
1778782192.1597152,75344850,1,0.42718505859375,584.5171508789062,94496.75,30.7,0.969569444656372,75344,0.0,28.02182960510254,1,94496.75,7.099659,0,0.42718505859375,0.42718505859375,0.0,0,0.42718505859375
1778782192.259675,75444810,0,0.7392578125,584.8292236328125,94494.484375,30.7,1.1348315477371216,75444,0.0,28.02182960510254,1,94494.484375,7.199619,0,0.7392578125,0.7392578125,0.0,0,0.7392578125
1778782192.259675,75444810,1,0.58929443359375,584.6792602539062,94494.9140625,30.7,1.1348315477371216,75444,0.0,28.02182960510254,1,94494.9140625,7.199619,0,0.58929443359375,0.58929443359375,0.0,0,0.58929443359375
1778782192.359635,75544770,0,0.84521484375,584.9351806640625,94493.2734375,30.7,1.191894292831421,75544,0.0,28.02182960510254,1,94493.2734375,7.299579,0,0.84521484375,0.84521484375,0.0,0,0.84521484375
1778782192.359635,75544770,1,0.7861328125,584.8760986328125,94492.6796875,30.7,1.191894292831421,75544,0.0,28.02182960510254,1,94492.6796875,7.299579,0,0.7861328125,0.7861328125,0.0,0,0.7861328125
1778782192.4595952,75644730,0,0.9775390625,585.0675048828125,94491.7734375,30.7,1.1927032470703125,75644,0.0,28.02182960510254,1,94491.7734375,7.399539,0,0.9775390625,0.9775390625,0.0,0,0.9775390625
1778782192.4595952,75644730,1,0.8564453125,584.9464111328125,94491.875,30.7,1.1927032470703125,75644,0.0,28.02182960510254,1,94491.875,7.399539,0,0.8564453125,0.8564453125,0.0,0,0.8564453125
1778782192.559555,75744690,0,1.11279296875,585.2027587890625,94490.234375,30.7,1.191692352294922,75744,0.0,28.02182960510254,1,94490.234375,7.499499,0,1.11279296875,1.11279296875,0.0,0,1.11279296875
1778782192.559555,75744690,1,0.841796875,584.9317626953125,94492.046875,30.7,1.191692352294922,75744,0.0,28.02182960510254,1,94492.046875,7.499499,0,0.841796875,0.841796875,0.0,0,0.841796875
1778782192.6595151,75844650,0,1.25396728515625,585.3439331054688,94488.6328125,30.7,1.2309074401855469,75844,0.0,28.02182960510254,1,94488.6328125,7.599459,0,1.25396728515625,1.25396728515625,0.0,0,1.25396728515625
1778782192.6595151,75844650,1,1.13922119140625,585.2291870117188,94488.6640625,30.7,1.2309074401855469,75844,0.0,28.02182960510254,1,94488.6640625,7.599459,0,1.13922119140625,1.13922119140625,0.0,0,1.13922119140625
1778782192.7594752,75944610,0,1.4127197265625,585.502685546875,94486.8359375,30.7,1.3105583190917969,75944,0.0,28.02182960510254,1,94486.8359375,7.699419,0,1.4127197265625,1.4127197265625,0.0,0,1.4127197265625
1778782192.7594752,75944610,1,1.4537353515625,585.543701171875,94485.1015625,30.7,1.3105583190917969,75944,0.0,28.02182960510254,1,94485.1015625,7.699419,0,1.4537353515625,1.4537353515625,0.0,0,1.4537353515625
1778782192.859435,76044570,0,1.5743408203125,585.664306640625,94485.0,30.7,1.402263641357422,76044,0.0,28.02182960510254,1,94485.0,7.799379,0,1.5743408203125,1.5743408203125,0.0,0,1.5743408203125
1778782192.859435,76044570,1,1.5123291015625,585.602294921875,94484.4296875,30.7,1.402263641357422,76044,0.0,28.02182960510254,1,94484.4296875,7.799379,0,1.5123291015625,1.5123291015625,0.0,0,1.5123291015625
1778782192.9593952,76144530,0,1.75653076171875,585.8464965820312,94482.9296875,30.7,1.4994239807128906,76144,0.0,28.02182960510254,1,94482.9296875,7.899339,0,1.75653076171875,1.75653076171875,0.0,0,1.75653076171875
1778782192.9593952,76144530,1,1.76239013671875,585.8523559570312,94481.59375,30.7,1.4994239807128906,76144,0.0,28.02182960510254,1,94481.59375,7.899339,0,1.76239013671875,1.76239013671875,0.0,0,1.76239013671875
1778782193.059355,76244490,0,1.94500732421875,586.0349731445312,94480.7890625,30.7,1.6075897216796875,76244,0.0,28.02182960510254,1,94480.7890625,7.999299,0,1.94500732421875,1.94500732421875,0.0,0,1.94500732421875
1778782193.059355,76244490,1,1.99774169921875,586.0877075195312,94478.921875,30.7,1.6075897216796875,76244,0.0,28.02182960510254,1,94478.921875,7.999299,0,1.99774169921875,1.99774169921875,0.0,0,1.99774169921875
1778782193.159315,76344450,0,2.13592529296875,586.2258911132812,94478.625,30.7,1.7207337617874146,76344,0.0,28.02182960510254,1,94478.625,8.099259,0,2.13592529296875,2.13592529296875,0.0,0,2.13592529296875
1778782193.159315,76344450,1,1.89764404296875,585.9876098632812,94480.0546875,30.7,1.7207337617874146,76344,0.0,28.02182960510254,1,94480.0546875,8.099259,0,1.89764404296875,1.89764404296875,0.0,0,1.89764404296875
1778782193.2592752,76444410,0,2.344970703125,586.4349365234375,94476.2578125,30.7,1.8241119384765625,76444,0.0,28.02182960510254,1,94476.2578125,8.199219,0,2.344970703125,2.344970703125,0.0,0,2.344970703125
1778782193.2592752,76444410,1,2.05926513671875,586.1492309570312,94478.2265625,30.71,1.8241119384765625,76444,0.0,28.02182960510254,1,94478.2265625,8.199219,0,2.05926513671875,2.05926513671875,0.0,0,2.05926513671875
1778782193.359235,76544370,0,2.56524658203125,586.6552124023438,94473.7578125,30.7,1.9162559509277344,76544,0.0,28.02182960510254,1,94473.7578125,8.299179,0,2.56524658203125,2.56524658203125,0.0,0,2.56524658203125
1778782193.359235,76544370,1,2.280029296875,586.3699951171875,94475.7109375,30.71,1.9162559509277344,76544,0.0,28.02182960510254,1,94475.7109375,8.299179,0,2.280029296875,2.280029296875,0.0,0,2.280029296875
1778782193.460028,76645163,0,2.7947998046875,586.884765625,94471.1484375,30.7,2.016596555709839,76645,0.0,28.02182960510254,1,94471.1484375,8.399972,0,2.7947998046875,2.7947998046875,0.0,0,2.7947998046875
1778782193.460028,76645163,1,2.6829833984375,586.77294921875,94471.1484375,30.7,2.016596555709839,76645,0.0,28.02182960510254,1,94471.1484375,8.399972,0,2.6829833984375,2.6829833984375,0.0,0,2.6829833984375
1778782193.559988,76745123,0,3.02435302734375,587.1143188476562,94468.546875,30.71,2.125941514968872,76745,0.0,28.02182960510254,1,94468.546875,8.499932,0,3.02435302734375,3.02435302734375,0.0,0,3.02435302734375
1778782193.559988,76745123,1,2.9095458984375,586.99951171875,94468.578125,30.71,2.125941514968872,76745,0.0,28.02182960510254,1,94468.578125,8.499932,0,2.9095458984375,2.9095458984375,0.0,0,2.9095458984375
1778782193.659948,76845083,0,3.27435302734375,587.3643188476562,94465.703125,30.71,2.221855878829956,76845,0.0,28.02182960510254,1,94465.703125,8.599892,0,3.27435302734375,3.27435302734375,0.0,0,3.27435302734375
1778782193.659948,76845083,1,3.0120849609375,587.10205078125,94467.4140625,30.71,2.221855878829956,76845,0.0,28.02182960510254,1,94467.4140625,8.599892,0,3.0120849609375,3.0120849609375,0.0,0,3.0120849609375
1778782193.7599082,76945043,0,3.52685546875,587.6168212890625,94462.8359375,30.71,2.306558132171631,76945,0.0,28.02182960510254,1,94462.8359375,8.699852,0,3.52685546875,3.52685546875,0.0,0,3.52685546875
1778782193.7599082,76945043,1,3.3125,587.4024658203125,94464.0,30.71,2.306558132171631,76945,0.0,28.02182960510254,1,94464.0,8.699852,0,3.3125,3.3125,0.0,0,3.3125
1778782193.859868,77045003,0,3.77691650390625,587.8668823242188,94460.0,30.71,2.39505386352539,77045,0.0,28.02182960510254,1,94460.0,8.799812,0,3.77691650390625,3.77691650390625,0.0,0,3.77691650390625
1778782193.859868,77045003,1,3.75347900390625,587.8434448242188,94459.0,30.7,2.39505386352539,77045,0.0,28.02182960510254,1,94459.0,8.799812,0,3.75347900390625,3.75347900390625,0.0,0,3.75347900390625
1778782193.959828,77144963,0,4.0240478515625,588.114013671875,94457.203125,30.71,2.4686813354492188,77144,0.0,28.02182960510254,1,94457.203125,8.899772,0,4.0240478515625,4.0240478515625,0.0,0,4.0240478515625
1778782193.959828,77144963,1,3.79156494140625,587.8815307617188,94458.5703125,30.71,2.4686813354492188,77144,0.0,28.02182960510254,1,94458.5703125,8.899772,0,3.79156494140625,3.79156494140625,0.0,0,3.79156494140625
1778782194.0597882,77244923,0,4.2886962890625,588.378662109375,94454.1953125,30.71,2.5056276321411133,77244,0.0,28.02182960510254,1,94454.1953125,8.999732,0,4.2886962890625,4.2886962890625,0.0,0,4.2886962890625
1778782194.0597882,77244923,1,4.1768798828125,588.266845703125,94454.1953125,30.71,2.5056276321411133,77244,0.0,28.02182960510254,1,94454.1953125,8.999732,0,4.1768798828125,4.1768798828125,0.0,0,4.1768798828125
1778782194.159748,77344883,0,4.53582763671875,588.6257934570312,94451.390625,30.71,2.524998188018799,77344,0.0,28.02182960510254,1,94451.390625,9.099692,0,4.53582763671875,4.53582763671875,0.0,0,4.53582763671875
1778782194.159748,77344883,1,4.3267822265625,588.416748046875,94452.4921875,30.71,2.524998188018799,77344,0.0,28.02182960510254,1,94452.4921875,9.099692,0,4.3267822265625,4.3267822265625,0.0,0,4.3267822265625
1778782194.259708,77444843,0,4.785888671875,588.8758544921875,94448.5625,30.71,2.541193962097168,77444,0.0,28.02182960510254,1,94448.5625,9.199652,0,4.785888671875,4.785888671875,0.0,0,4.785888671875
1778782194.259708,77444843,1,4.48553466796875,588.5755004882812,94450.6875,30.71,2.541193962097168,77444,0.0,28.02182960510254,1,94450.6875,9.199652,0,4.48553466796875,4.48553466796875,0.0,0,4.48553466796875
1778782194.359668,77544803,0,5.03594970703125,589.1259155273438,94445.71875,30.71,2.5364110469818115,77544,0.0,28.02182960510254,1,94445.71875,9.299612,0,5.03594970703125,5.03594970703125,0.0,0,5.03594970703125
1778782194.359668,77544803,1,5.106201171875,589.1961669921875,94443.6484375,30.7,2.5364110469818115,77544,0.0,28.02182960510254,1,94443.6484375,9.299612,0,5.106201171875,5.106201171875,0.0,0,5.106201171875
1778782194.459628,77644763,0,5.2830810546875,589.373046875,94442.9140625,30.71,2.513202667236328,77644,0.0,28.02182960510254,1,94442.9140625,9.399572,0,5.2830810546875,5.2830810546875,0.0,0,5.2830810546875
1778782194.459628,77644763,1,5.00616455078125,589.0961303710938,94444.78125,30.71,2.513202667236328,77644,0.0,28.02182960510254,1,94444.78125,9.399572,0,5.00616455078125,5.00616455078125,0.0,0,5.00616455078125
1778782194.559588,77744723,0,5.5355224609375,589.62548828125,94440.046875,30.71,2.4967575073242188,77744,0.0,28.02182960510254,1,94440.046875,9.499532,0,5.5355224609375,5.5355224609375,0.0,0,5.5355224609375
1778782194.559588,77744723,1,5.3328857421875,589.4228515625,94441.0859375,30.71,2.4967575073242188,77744,0.0,28.02182960510254,1,94441.0859375,9.499532,0,5.3328857421875,5.3328857421875,0.0,0,5.3328857421875
1778782194.659548,77844683,0,5.78558349609375,589.8755493164062,94437.203125,30.71,2.4942588806152344,77844,0.0,28.02182960510254,1,94437.203125,9.599492,0,5.78558349609375,5.78558349609375,0.0,0,5.78558349609375
1778782194.659548,77844683,1,5.5560302734375,589.64599609375,94438.5390625,30.71,2.4942588806152344,77844,0.0,28.02182960510254,1,94438.5390625,9.599492,0,5.5560302734375,5.5560302734375,0.0,0,5.5560302734375
1778782194.759508,77944643,0,6.03564453125,590.1256103515625,94434.375,30.71,2.4988934993743896,77944,0.0,28.02182960510254,1,94434.375,9.699452,0,6.03564453125,6.03564453125,0.0,0,6.03564453125
1778782194.759508,77944643,1,6.02685546875,590.1168212890625,94433.203125,30.71,2.4988934993743896,77944,0.0,28.02182960510254,1,94433.203125,9.699452,0,6.02685546875,6.02685546875,0.0,0,6.02685546875
1778782194.8594682,78044603,0,6.28857421875,590.3785400390625,94431.5078125,30.71,2.504367589950561,78044,0.0,28.02182960510254,1,94431.5078125,9.799412,0,6.28857421875,6.28857421875,0.0,0,6.28857421875
1778782194.8594682,78044603,1,6.33258056640625,590.4225463867188,94429.7421875,30.7,2.504367589950561,78044,0.0,28.02182960510254,1,94429.7421875,9.799412,0,6.33258056640625,6.33258056640625,0.0,0,6.33258056640625
1778782194.959428,78144563,0,6.52398681640625,590.6139526367188,94428.8359375,30.71,2.503319025039673,78144,0.0,28.02182960510254,1,94428.8359375,9.899372,0,6.52398681640625,6.52398681640625,0.0,0,6.52398681640625
1778782194.959428,78144563,1,6.55621337890625,590.6461791992188,94427.1953125,30.71,2.503319025039673,78144,0.0,28.02182960510254,1,94427.1953125,9.899372,0,6.55621337890625,6.55621337890625,0.0,0,6.55621337890625
1778782195.059388,78244523,0,6.7769775390625,590.866943359375,94425.96875,30.71,2.488346099853516,78244,0.0,28.02182960510254,1,94425.96875,9.999332,0,6.7769775390625,6.7769775390625,0.0,0,6.7769775390625
1778782195.059388,78244523,1,6.6119384765625,590.701904296875,94426.5625,30.71,2.488346099853516,78244,0.0,28.02182960510254,1,94426.5625,9.999332,0,6.6119384765625,6.6119384765625,0.0,0,6.6119384765625
1778782195.159348,78344483,0,7.0147705078125,591.104736328125,94423.265625,30.71,2.464542388916016,78344,0.0,28.02182960510254,1,94423.265625,10.099292,1,12.0147705078125,7.0147705078125,5.0,1,7.0147705078125
1778782195.159348,78344483,1,6.8853759765625,590.975341796875,94423.4609375,30.71,2.464542388916016,78344,0.0,28.02182960510254,1,94423.4609375,10.099292,1,11.8853759765625,6.8853759765625,5.0,1,6.8853759765625
1778782195.259308,78444443,0,7.26483154296875,591.3547973632812,94420.4296875,30.71,2.449302673339844,78444,0.0,28.02182960510254,1,94420.4296875,10.199252,1,12.26483154296875,7.26483154296875,5.0,1,7.26483154296875
1778782195.259308,78444443,1,6.97381591796875,591.0637817382812,94422.4609375,30.71,2.449302673339844,78444,0.0,28.02182960510254,1,94422.4609375,10.199252,1,11.97381591796875,6.97381591796875,5.0,1,6.97381591796875
1778782195.359268,78544403,0,7.503173828125,591.5931396484375,94417.7265625,30.71,2.4457740783691406,78544,0.0,28.02182960510254,1,94417.7265625,10.299212,1,12.503173828125,7.503173828125,5.0,1,7.503173828125
1778782195.359268,78544403,1,7.350341796875,591.4403076171875,94418.1953125,30.71,2.4457740783691406,78544,0.0,28.02182960510254,1,94418.1953125,10.299212,1,12.350341796875,7.350341796875,5.0,1,7.350341796875
1778782195.459228,78644363,0,7.75323486328125,591.8432006835938,94414.890625,30.71,2.4439620971679688,78644,0.0,28.02182960510254,1,94414.890625,10.399172,1,12.75323486328125,7.75323486328125,5.0,1,7.75323486328125
1778782195.459228,78644363,1,7.538330078125,591.6282958984375,94416.0546875,30.71,2.4439620971679688,78644,0.0,28.02182960510254,1,94416.0546875,10.399172,1,12.538330078125,7.538330078125,5.0,1,7.538330078125
1778782195.5600212,78745156,0,7.99737548828125,592.0873413085938,94412.125,30.71,2.443119764328003,78745,0.0,28.02182960510254,1,94412.125,10.499965,1,12.99737548828125,7.99737548828125,5.0,1,7.99737548828125
1778782195.5600212,78745156,1,7.82940673828125,591.9193725585938,94412.75,30.71,2.443119764328003,78745,0.0,28.02182960510254,1,94412.75,10.499965,1,12.82940673828125,7.82940673828125,5.0,1,7.82940673828125
1778782195.659981,78845116,0,8.24700927734375,592.3369750976562,94409.2890625,30.71,2.446943998336792,78845,0.0,28.02182960510254,1,94409.2890625,10.599925,1,13.24700927734375,8.24700927734375,5.0,1,8.24700927734375
1778782195.659981,78845116,1,8.05889892578125,592.1488647460938,94410.15625,30.71,2.446943998336792,78845,0.0,28.02182960510254,1,94410.15625,10.599925,1,13.05889892578125,8.05889892578125,5.0,1,8.05889892578125
1778782195.759941,78945076,0,8.48529052734375,592.5752563476562,94406.5859375,30.71,2.451781749725342,78945,0.0,28.02182960510254,1,94406.5859375,10.699885,1,13.48529052734375,8.48529052734375,5.0,1,8.48529052734375
1778782195.759941,78945076,1,8.52337646484375,592.6133422851562,94404.8828125,30.71,2.451781749725342,78945,0.0,28.02182960510254,1,94404.8828125,10.699885,1,13.52337646484375,8.52337646484375,5.0,1,8.52337646484375
1778782195.8599012,79045036,0,8.7353515625,592.8253173828125,94403.75,30.71,2.4510412216186523,79045,0.0,28.02182960510254,1,94403.75,10.799845,1,13.7353515625,8.7353515625,5.0,1,8.7353515625
1778782195.8599012,79045036,1,8.7177734375,592.8077392578125,94402.6796875,30.71,2.4510412216186523,79045,0.0,28.02182960510254,1,94402.6796875,10.799845,1,13.7177734375,8.7177734375,5.0,1,8.7177734375
1778782195.959861,79144996,0,8.982421875,593.0723876953125,94400.9453125,30.71,2.449216604232788,79144,0.0,28.02182960510254,1,94400.9453125,10.899805,1,13.982421875,8.982421875,5.0,1,8.982421875
1778782195.959861,79144996,1,9.0,593.0899658203125,94399.484375,30.71,2.449216604232788,79144,0.0,28.02182960510254,1,94399.484375,10.899805,1,14.0,9.0,5.0,1,9.0
1778782196.0598211,79244956,0,9.2266845703125,593.316650390625,94398.1796875,30.71,2.4578819274902344,79244,0.0,28.02182960510254,1,94398.1796875,10.999765,1,14.2266845703125,9.2266845703125,5.0,1,9.2266845703125
1778782196.0598211,79244956,1,8.96484375,593.0548095703125,94399.8828125,30.71,2.4578819274902344,79244,0.0,28.02182960510254,1,94399.8828125,10.999765,1,13.96484375,8.96484375,5.0,1,8.96484375
1778782196.1597812,79344916,0,9.4766845703125,593.566650390625,94395.3359375,30.71,2.4713902473449707,79344,0.0,28.02182960510254,1,94395.3359375,11.099725,1,14.4766845703125,9.4766845703125,5.0,1,9.4766845703125
1778782196.1597812,79344916,1,9.4913330078125,593.581298828125,94393.90625,30.71,2.4713902473449707,79344,0.0,28.02182960510254,1,94393.90625,11.099725,1,14.4913330078125,9.4913330078125,5.0,1,9.4913330078125
1778782196.259741,79444876,0,9.7174072265625,593.807373046875,94392.609375,30.71,2.4741804599761963,79444,0.0,28.02182960510254,1,94392.609375,11.199685,1,14.7174072265625,9.7174072265625,5.0,1,9.7174072265625
1778782196.259741,79444876,1,9.4351806640625,593.525146484375,94394.546875,30.71,2.4741804599761963,79444,0.0,28.02182960510254,1,94394.546875,11.199685,1,14.4351806640625,9.4351806640625,5.0,1,9.4351806640625
1778782196.3597012,79544836,0,9.964599609375,594.0545654296875,94389.8125,30.71,2.4659876823425293,79544,0.0,28.02182960510254,1,94389.8125,11.299645,1,14.964599609375,9.964599609375,5.0,1,9.964599609375
1778782196.3597012,79544836,1,9.71160888671875,593.8015747070312,94391.4140625,30.71,2.4659876823425293,79544,0.0,28.02182960510254,1,94391.4140625,11.299645,1,14.71160888671875,9.71160888671875,5.0,1,9.71160888671875
1778782196.459661,79644796,0,10.214599609375,594.3045654296875,94386.9765625,30.71,2.4575130939483643,79644,0.0,28.02182960510254,1,94386.9765625,11.399605,1,15.214599609375,10.214599609375,5.0,1,10.214599609375
1778782196.459661,79644796,1,10.11163330078125,594.2015991210938,94386.8671875,30.71,2.4575130939483643,79644,0.0,28.02182960510254,1,94386.8671875,11.399605,1,15.11163330078125,10.11163330078125,5.0,1,10.11163330078125
1778782196.559621,79744756,0,10.46759033203125,594.5575561523438,94384.1015625,30.71,2.461376190185547,79744,0.0,28.02182960510254,1,94384.1015625,11.499565,1,15.46759033203125,10.46759033203125,5.0,1,10.46759033203125
1778782196.559621,79744756,1,10.31768798828125,594.4076538085938,94384.5390625,30.71,2.461376190185547,79744,0.0,28.02182960510254,1,94384.5390625,11.499565,1,15.31768798828125,10.31768798828125,5.0,1,10.31768798828125
1778782196.6595812,79844716,0,10.70587158203125,594.7958374023438,94381.3984375,30.71,2.477741003036499,79844,0.0,28.02182960510254,1,94381.3984375,11.599525,1,15.70587158203125,10.70587158203125,5.0,1,10.70587158203125
1778782196.6595812,79844716,1,10.6234130859375,594.71337890625,94381.0703125,30.71,2.477741003036499,79844,0.0,28.02182960510254,1,94381.0703125,11.599525,1,15.6234130859375,10.6234130859375,5.0,1,10.6234130859375
1778782196.759541,79944676,0,10.95599365234375,595.0459594726562,94378.5625,30.71,2.4837875366210938,79944,0.0,28.02182960510254,1,94378.5625,11.699485,1,15.95599365234375,10.95599365234375,5.0,1,10.95599365234375
1778782196.759541,79944676,1,10.7410888671875,594.8310546875,94379.7421875,30.71,2.4837875366210938,79944,0.0,28.02182960510254,1,94379.7421875,11.699485,1,15.7410888671875,10.7410888671875,5.0,1,10.7410888671875
1778782196.8595011,80044636,0,11.20550537109375,595.2954711914062,94375.734375,30.71,2.471885681152344,80044,0.0,28.02182960510254,1,94375.734375,11.799445,1,16.20550537109375,11.20550537109375,5.0,1,11.20550537109375
1778782196.8595011,80044636,1,11.04095458984375,595.1309204101562,94376.328125,30.71,2.471885681152344,80044,0.0,28.02182960510254,1,94376.328125,11.799445,1,16.04095458984375,11.04095458984375,5.0,1,11.04095458984375
1778782196.9594612,80144596,0,11.44384765625,595.5338134765625,94373.03125,30.71,2.464027404785156,80144,0.0,28.02182960510254,1,94373.03125,11.899405,1,16.44384765625,11.44384765625,5.0,1,11.44384765625
1778782196.9594612,80144596,1,11.2763671875,595.3663330078125,94373.671875,30.71,2.464027404785156,80144,0.0,28.02182960510254,1,94373.671875,11.899405,1,16.2763671875,11.2763671875,5.0,1,11.2763671875
1778782197.059421,80244556,0,11.69683837890625,595.7868041992188,94370.1640625,30.71,2.4641990661621094,80244,0.0,28.02182960510254,1,94370.1640625,11.999365,1,16.69683837890625,11.69683837890625,5.0,1,11.69683837890625
1778782197.059421,80244556,1,11.39990234375,595.4898681640625,94372.265625,30.71,2.4641990661621094,80244,0.0,28.02182960510254,1,94372.265625,11.999365,1,16.39990234375,11.39990234375,5.0,1,11.39990234375
1778782197.1593812,80344516,0,11.94683837890625,596.0368041992188,94367.328125,30.71,2.463245391845703,80344,0.0,28.02182960510254,1,94367.328125,12.099325,1,16.94683837890625,11.94683837890625,5.0,1,11.94683837890625
1778782197.1593812,80344516,1,11.83502197265625,595.9249877929688,94367.328125,30.71,2.463245391845703,80344,0.0,28.02182960510254,1,94367.328125,12.099325,1,16.83502197265625,11.83502197265625,5.0,1,11.83502197265625
1778782197.259341,80444476,0,12.1968994140625,596.286865234375,94364.5,30.71,2.472209930419922,80444,0.0,28.02182960510254,1,94364.5,12.199285,1,17.1968994140625,12.1968994140625,5.0,1,12.1968994140625
1778782197.259341,80444476,1,12.11151123046875,596.2014770507812,94364.1953125,30.71,2.472209930419922,80444,0.0,28.02182960510254,1,94364.1953125,12.199285,1,17.11151123046875,12.11151123046875,5.0,1,12.11151123046875
1778782197.359301,80544436,0,12.44403076171875,596.5339965820312,94361.6953125,30.71,2.4901773929595947,80544,0.0,28.02182960510254,1,94361.6953125,12.299245,1,17.44403076171875,12.44403076171875,5.0,1,12.44403076171875
1778782197.359301,80544436,1,12.34100341796875,596.4309692382812,94361.59375,30.71,2.4901773929595947,80544,0.0,28.02182960510254,1,94361.59375,12.299245,1,17.34100341796875,12.34100341796875,5.0,1,12.34100341796875
1778782197.4592612,80644396,0,12.684814453125,596.7747802734375,94358.9609375,30.71,2.493858337402344,80644,0.0,28.02182960510254,1,94358.9609375,12.399205,1,17.684814453125,12.684814453125,5.0,1,12.684814453125
1778782197.4592612,80644396,1,12.684814453125,596.7747802734375,94357.6875,30.7,2.493858337402344,80644,0.0,28.02182960510254,1,94357.6875,12.399205,1,17.684814453125,12.684814453125,5.0,1,12.684814453125
1778782197.560054,80745189,0,12.937744140625,597.0277099609375,94356.0859375,30.7,2.477899074554444,80745,0.0,28.02182960510254,1,94356.0859375,12.499998,1,17.937744140625,12.937744140625,5.0,1,12.937744140625
1778782197.560054,80745189,1,12.834716796875,596.9246826171875,94355.9921875,30.7,2.477899074554444,80745,0.0,28.02182960510254,1,94355.9921875,12.499998,1,17.834716796875,12.834716796875,5.0,1,12.834716796875
1778782197.660014,80845149,0,13.18780517578125,597.2777709960938,94353.265625,30.7,2.463062524795532,80845,0.0,28.02182960510254,1,94353.265625,12.599958,1,18.18780517578125,13.18780517578125,5.0,1,13.18780517578125
1778782197.660014,80845149,1,13.2586669921875,597.3486328125,94351.1953125,30.7,2.463062524795532,80845,0.0,28.02182960510254,1,94351.1953125,12.599958,1,18.2586669921875,13.2586669921875,5.0,1,13.2586669921875
1778782197.759974,80945109,0,13.4349365234375,597.52490234375,94350.453125,30.7,2.4673893451690674,80945,0.0,28.02182960510254,1,94350.453125,12.699918,1,18.4349365234375,13.4349365234375,5.0,1,13.4349365234375
1778782197.759974,80945109,1,13.1497802734375,597.23974609375,94352.421875,30.71,2.4673893451690674,80945,0.0,28.02182960510254,1,94352.421875,12.699918,1,18.1497802734375,13.1497802734375,5.0,1,13.1497802734375
1778782197.859934,81045069,0,13.68499755859375,597.7749633789062,94347.625,30.7,2.4818131923675537,81045,0.0,28.02182960510254,1,94347.625,12.799878,1,18.68499755859375,13.68499755859375,5.0,1,13.68499755859375
1778782197.859934,81045069,1,13.62884521484375,597.7188110351562,94346.9921875,30.7,2.4818131923675537,81045,0.0,28.02182960510254,1,94346.9921875,12.799878,1,18.62884521484375,13.62884521484375,5.0,1,13.62884521484375
1778782197.959894,81145029,0,13.93212890625,598.0220947265625,94344.8203125,30.7,2.4882309436798096,81145,0.0,28.02182960510254,1,94344.8203125,12.899838,1,18.93212890625,13.93212890625,5.0,1,13.93212890625
1778782197.959894,81145029,1,13.74072265625,597.8306884765625,94345.71875,30.7,2.4882309436798096,81145,0.0,28.02182960510254,1,94345.71875,12.899838,1,18.74072265625,13.74072265625,5.0,1,13.74072265625
1778782198.059854,81244989,0,14.18798828125,598.2779541015625,94341.921875,30.7,2.489585876464844,81244,0.0,28.02182960510254,1,94341.921875,12.999798,1,19.18798828125,14.18798828125,5.0,1,14.18798828125
1778782198.059854,81244989,1,14.03173828125,598.1217041015625,94342.4296875,30.7,2.489585876464844,81244,0.0,28.02182960510254,1,94342.4296875,12.999798,1,19.03173828125,14.03173828125,5.0,1,14.03173828125
1778782198.159814,81344949,0,14.43463134765625,598.5245971679688,94339.125,30.7,2.498783588409424,81344,0.0,28.02182960510254,1,94339.125,13.099758,1,19.43463134765625,14.43463134765625,5.0,1,14.43463134765625
1778782198.159814,81344949,1,14.13189697265625,598.2218627929688,94341.296875,30.71,2.498783588409424,81344,0.0,28.02182960510254,1,94341.296875,13.099758,1,19.13189697265625,14.13189697265625,5.0,1,14.13189697265625
1778782198.2597742,81444909,0,14.6846923828125,598.774658203125,94336.28125,30.7,2.511180877685547,81444,0.0,28.02182960510254,1,94336.28125,13.199718,1,19.6846923828125,14.6846923828125,5.0,1,14.6846923828125
1778782198.2597742,81444909,1,14.40826416015625,598.4982299804688,94338.15625,30.7,2.511180877685547,81444,0.0,28.02182960510254,1,94338.15625,13.199718,1,19.40826416015625,14.40826416015625,5.0,1,14.40826416015625
1778782198.359734,81544869,0,14.93475341796875,599.0247192382812,94333.453125,30.7,2.51133131980896,81544,0.0,28.02182960510254,1,94333.453125,13.299678,1,19.93475341796875,14.93475341796875,5.0,1,14.93475341796875
1778782198.359734,81544869,1,14.98455810546875,599.0745239257812,94331.625,30.7,2.51133131980896,81544,0.0,28.02182960510254,1,94331.625,13.299678,1,19.98455810546875,14.98455810546875,5.0,1,14.98455810546875
1778782198.459694,81644829,0,15.18768310546875,599.2776489257812,94330.5859375,30.7,2.502894878387451,81644,0.0,28.02182960510254,1,94330.5859375,13.399638,1,20.18768310546875,15.18768310546875,5.0,1,15.18768310546875
1778782198.459694,81644829,1,15.149658203125,599.2396240234375,94329.7578125,30.7,2.502894878387451,81644,0.0,28.02182960510254,1,94329.7578125,13.399638,1,20.149658203125,15.149658203125,5.0,1,15.149658203125
1778782198.559654,81744789,0,15.434814453125,599.5247802734375,94327.7890625,30.7,2.501432418823242,81744,0.0,28.02182960510254,1,94327.7890625,13.499598,1,20.434814453125,15.434814453125,5.0,1,15.434814453125
1778782198.559654,81744789,1,15.275634765625,599.3656005859375,94328.3203125,30.7,2.501432418823242,81744,0.0,28.02182960510254,1,94328.3203125,13.499598,1,20.275634765625,15.275634765625,5.0,1,15.275634765625
1778782198.659614,81844749,0,15.68487548828125,599.7748413085938,94324.953125,30.7,2.5039291381835938,81844,0.0,28.02182960510254,1,94324.953125,13.599558,1,20.68487548828125,15.68487548828125,5.0,1,15.68487548828125
1778782198.659614,81844749,1,15.393310546875,599.4832763671875,94326.984375,30.7,2.5039291381835938,81844,0.0,28.02182960510254,1,94326.984375,13.599558,1,20.393310546875,15.393310546875,5.0,1,15.393310546875
1778782198.759574,81944709,0,15.9349365234375,600.02490234375,94322.125,30.7,2.5004196166992188,81944,0.0,28.02182960510254,1,94322.125,13.699518,1,20.9349365234375,15.9349365234375,5.0,1,15.9349365234375
1778782198.759574,81944709,1,15.7523193359375,599.84228515625,94322.921875,30.7,2.5004196166992188,81944,0.0,28.02182960510254,1,94322.921875,13.699518,1,20.7523193359375,15.7523193359375,5.0,1,15.7523193359375
1778782198.859534,82044669,0,16.1873779296875,600.27734375,94319.2578125,30.7,2.4966812133789062,82044,0.0,28.02182960510254,1,94319.2578125,13.799478,1,21.1873779296875,16.1873779296875,5.0,1,16.1873779296875
1778782198.859534,82044669,1,15.9730224609375,600.06298828125,94320.421875,30.7,2.4966812133789062,82044,0.0,28.02182960510254,1,94320.421875,13.799478,1,20.9730224609375,15.9730224609375,5.0,1,15.9730224609375
1778782198.959494,82144629,0,16.4375,600.5274658203125,94316.4296875,30.7,2.5006675720214844,82144,0.0,28.02182960510254,1,94316.4296875,13.899438,1,21.4375,16.4375,5.0,1,16.4375
1778782198.959494,82144629,1,16.3994140625,600.4893798828125,94315.5859375,30.7,2.5006675720214844,82144,0.0,28.02182960510254,1,94315.5859375,13.899438,1,21.3994140625,16.3994140625,5.0,1,16.3994140625
1778782199.0594542,82244589,0,16.6845703125,600.7745361328125,94313.6171875,30.7,2.506294250488281,82244,0.0,28.02182960510254,1,94313.6171875,13.999398,1,21.6845703125,16.6845703125,5.0,1,16.6845703125
1778782199.0594542,82244589,1,16.3759765625,600.4659423828125,94315.8515625,30.7,2.506294250488281,82244,0.0,28.02182960510254,1,94315.8515625,13.999398,1,21.3759765625,16.3759765625,5.0,1,16.3759765625
1778782199.159414,82344549,0,16.93463134765625,601.0245971679688,94310.7890625,30.7,2.50356674194336,82344,0.0,28.02182960510254,1,94310.7890625,14.099358,1,21.93463134765625,16.93463134765625,5.0,1,16.93463134765625
1778782199.159414,82344549,1,16.94927978515625,601.0392456054688,94309.3515625,30.7,2.50356674194336,82344,0.0,28.02182960510254,1,94309.3515625,14.099358,1,21.94927978515625,16.94927978515625,5.0,1,16.94927978515625
1778782199.259374,82444509,0,17.1817626953125,601.271728515625,94307.984375,30.7,2.4942588806152344,82444,0.0,28.02182960510254,1,94307.984375,14.199318,1,22.1817626953125,17.1817626953125,5.0,1,17.1817626953125
1778782199.259374,82444509,1,17.21112060546875,601.3010864257812,94306.3828125,30.7,2.4942588806152344,82444,0.0,28.02182960510254,1,94306.3828125,14.199318,1,22.21112060546875,17.21112060546875,5.0,1,17.21112060546875
1778782199.3593342,82544469,0,17.43768310546875,601.5276489257812,94305.09375,30.7,2.489356756210327,82544,0.0,28.02182960510254,1,94305.09375,14.299278,1,22.43768310546875,17.43768310546875,5.0,1,17.43768310546875
1778782199.3593342,82544469,1,17.37274169921875,601.4627075195312,94304.5546875,30.7,2.489356756210327,82544,0.0,28.02182960510254,1,94304.5546875,14.299278,1,22.37274169921875,17.37274169921875,5.0,1,17.37274169921875
1778782199.459294,82644429,0,17.68475341796875,601.7747192382812,94302.2890625,30.7,2.49502182006836,82644,0.0,28.02182960510254,1,94302.2890625,14.399238,1,22.68475341796875,17.68475341796875,5.0,1,17.68475341796875
1778782199.459294,82644429,1,17.58172607421875,601.6716918945312,94302.1953125,30.7,2.49502182006836,82644,0.0,28.02182960510254,1,94302.1953125,14.399238,1,22.58172607421875,17.58172607421875,5.0,1,17.58172607421875
1778782199.559254,82744389,0,17.934326171875,602.0242919921875,94299.4609375,30.7,2.5040054321289062,82744,0.0,28.02182960510254,1,94299.4609375,14.499198,1,22.934326171875,17.934326171875,5.0,1,17.934326171875
