timestamp,TimeUS,I,Alt,AltAMSL,Press,Temp,CRt,SMS,Offset,GndTemp,H,CPress,TimeSec,AttackActive_BARO,Alt_attacked,SoftwareSensor_Alt,Residual_Alt,DetectionFlag_Alt,Recovered_Alt
1778627314.439984,54645633,0,0.00372314453125,584.0936889648438,94502.828125,30.2,0.0,54645,0.0,28.02182960510254,1,94502.828125,0.0,0,0.00372314453125,0.00372314453125,0.0,0,0.00372314453125
1778627314.439984,54645633,1,0.0540771484375,584.14404296875,94500.984375,30.2,0.0,54645,0.0,28.02182960510254,1,94500.984375,0.0,0,0.0540771484375,0.0540771484375,0.0,0,0.0540771484375
1778627314.539944,54745593,0,0.00372314453125,584.0936889648438,94502.828125,30.2,0.0,54745,0.0,28.02182960510254,1,94502.828125,0.09996,0,0.00372314453125,0.00372314453125,0.0,0,0.00372314453125
1778627314.539944,54745593,1,-0.29022216796875,583.7997436523438,94504.890625,30.2,0.0,54745,0.0,28.02182960510254,1,94504.890625,0.09996,0,-0.29022216796875,-0.29022216796875,0.0,0,-0.29022216796875
1778627314.639904,54845553,0,0.00372314453125,584.0936889648438,94502.828125,30.21,0.0,54845,0.0,28.02182960510254,1,94502.828125,0.19992,0,0.00372314453125,0.00372314453125,0.0,0,0.00372314453125
1778627314.639904,54845553,1,0.02130126953125,584.1112670898438,94501.3515625,30.21,0.0,54845,0.0,28.02182960510254,1,94501.3515625,0.19992,0,0.02130126953125,0.02130126953125,0.0,0,0.02130126953125
1778627314.739864,54945513,0,0.00372314453125,584.0936889648438,94502.828125,30.21,0.0,54945,0.0,28.02182960510254,1,94502.828125,0.29988,0,0.00372314453125,0.00372314453125,0.0,0,0.00372314453125
1778627314.739864,54945513,1,0.05694580078125,584.1469116210938,94500.953125,30.21,0.0,54945,0.0,28.02182960510254,1,94500.953125,0.29988,0,0.05694580078125,0.05694580078125,0.0,0,0.05694580078125
1778627314.8398242,55045473,0,0.00372314453125,584.0936889648438,94502.828125,30.21,0.0,55045,0.0,28.02182960510254,1,94502.828125,0.39984,0,0.00372314453125,0.00372314453125,0.0,0,0.00372314453125
1778627314.8398242,55045473,1,-0.11102294921875,583.9789428710938,94502.859375,30.21,0.0,55045,0.0,28.02182960510254,1,94502.859375,0.39984,0,-0.11102294921875,-0.11102294921875,0.0,0,-0.11102294921875
1778627314.939784,55145433,0,0.00372314453125,584.0936889648438,94502.828125,30.22,0.0,55145,0.0,28.02182960510254,1,94502.828125,0.4998,0,0.00372314453125,0.00372314453125,0.0,0,0.00372314453125
1778627314.939784,55145433,1,-0.08758544921875,584.0023803710938,94502.59375,30.22,0.0,55145,0.0,28.02182960510254,1,94502.59375,0.4998,0,-0.08758544921875,-0.08758544921875,0.0,0,-0.08758544921875
1778627315.039744,55245393,0,0.00372314453125,584.0936889648438,94502.828125,30.22,0.0,55245,0.0,28.02182960510254,1,94502.828125,0.59976,0,0.00372314453125,0.00372314453125,0.0,0,0.00372314453125
1778627315.039744,55245393,1,-0.22283935546875,583.8671264648438,94504.1328125,30.22,0.0,55245,0.0,28.02182960510254,1,94504.1328125,0.59976,0,-0.22283935546875,-0.22283935546875,0.0,0,-0.22283935546875
1778627315.139704,55345353,0,0.00372314453125,584.0936889648438,94502.828125,30.22,0.0,55345,0.0,28.02182960510254,1,94502.828125,0.69972,0,0.00372314453125,0.00372314453125,0.0,0,0.00372314453125
1778627315.139704,55345353,1,-0.25213623046875,583.8378295898438,94504.4609375,30.22,0.0,55345,0.0,28.02182960510254,1,94504.4609375,0.69972,0,-0.25213623046875,-0.25213623046875,0.0,0,-0.25213623046875
1778627315.239664,55445313,0,0.00372314453125,584.0936889648438,94502.828125,30.23,0.0,55445,0.0,28.02182960510254,1,94502.828125,0.79968,0,0.00372314453125,0.00372314453125,0.0,0,0.00372314453125
1778627315.239664,55445313,1,-0.10809326171875,583.9818725585938,94502.828125,30.23,0.0,55445,0.0,28.02182960510254,1,94502.828125,0.79968,0,-0.10809326171875,-0.10809326171875,0.0,0,-0.10809326171875
1778627315.339624,55545273,0,0.00372314453125,584.0936889648438,94502.828125,30.23,0.0,55545,0.0,28.02182960510254,1,94502.828125,0.89964,0,0.00372314453125,0.00372314453125,0.0,0,0.00372314453125
1778627315.339624,55545273,1,0.0628662109375,584.15283203125,94500.890625,30.23,0.0,55545,0.0,28.02182960510254,1,94500.890625,0.89964,0,0.0628662109375,0.0628662109375,0.0,0,0.0628662109375
1778627315.439584,55645233,0,0.00372314453125,584.0936889648438,94502.828125,30.23,0.0,55645,0.0,28.02182960510254,1,94502.828125,0.9996,0,0.00372314453125,0.00372314453125,0.0,0,0.00372314453125
1778627315.439584,55645233,1,-0.21356201171875,583.8764038085938,94504.0234375,30.23,0.0,55645,0.0,28.02182960510254,1,94504.0234375,0.9996,0,-0.21356201171875,-0.21356201171875,0.0,0,-0.21356201171875
1778627315.539544,55745193,0,0.00372314453125,584.0936889648438,94502.828125,30.24,0.0,55745,0.0,28.02182960510254,1,94502.828125,1.09956,0,0.00372314453125,0.00372314453125,0.0,0,0.00372314453125
1778627315.539544,55745193,1,-0.28143310546875,583.8085327148438,94504.796875,30.24,0.0,55745,0.0,28.02182960510254,1,94504.796875,1.09956,0,-0.28143310546875,-0.28143310546875,0.0,0,-0.28143310546875
1778627315.639504,55845153,0,0.00372314453125,584.0936889648438,94502.828125,30.24,0.0,55845,0.0,28.02182960510254,1,94502.828125,1.19952,0,0.00372314453125,0.00372314453125,0.0,0,0.00372314453125
1778627315.639504,55845153,1,0.04766845703125,584.1376342773438,94501.0625,30.24,0.0,55845,0.0,28.02182960510254,1,94501.0625,1.19952,0,0.04766845703125,0.04766845703125,0.0,0,0.04766845703125
1778627315.739464,55945113,0,0.00372314453125,584.0936889648438,94502.828125,30.24,0.0,55945,0.0,28.02182960510254,1,94502.828125,1.29948,0,0.00372314453125,0.00372314453125,0.0,0,0.00372314453125
1778627315.739464,55945113,1,-0.02264404296875,584.0673217773438,94501.8515625,30.24,0.0,55945,0.0,28.02182960510254,1,94501.8515625,1.29948,0,-0.02264404296875,-0.02264404296875,0.0,0,-0.02264404296875
1778627315.839424,56045073,0,0.00372314453125,584.0936889648438,94502.828125,30.25,0.0,56045,0.0,28.02182960510254,1,94502.828125,1.39944,0,0.00372314453125,0.00372314453125,0.0,0,0.00372314453125
1778627315.839424,56045073,1,-0.04608154296875,584.0438842773438,94502.125,30.25,0.0,56045,0.0,28.02182960510254,1,94502.125,1.39944,0,-0.04608154296875,-0.04608154296875,0.0,0,-0.04608154296875
1778627315.939384,56145033,0,0.00372314453125,584.0936889648438,94502.828125,30.25,0.0,56145,0.0,28.02182960510254,1,94502.828125,1.4994,0,0.00372314453125,0.00372314453125,0.0,0,0.00372314453125
1778627315.939384,56145033,1,-0.03143310546875,584.0585327148438,94501.9609375,30.25,0.0,56145,0.0,28.02182960510254,1,94501.9609375,1.4994,0,-0.03143310546875,-0.03143310546875,0.0,0,-0.03143310546875
1778627316.039344,56244993,0,0.00372314453125,584.0936889648438,94502.828125,30.25,0.0,56244,0.0,28.02182960510254,1,94502.828125,1.59936,0,0.00372314453125,0.00372314453125,0.0,0,0.00372314453125
1778627316.039344,56244993,1,0.0628662109375,584.15283203125,94500.890625,30.25,0.0,56244,0.0,28.02182960510254,1,94500.890625,1.59936,0,0.0628662109375,0.0628662109375,0.0,0,0.0628662109375
1778627316.139304,56344953,0,0.00372314453125,584.0936889648438,94502.828125,30.26,0.0,56344,0.0,28.02182960510254,1,94502.828125,1.69932,0,0.00372314453125,0.00372314453125,0.0,0,0.00372314453125
1778627316.139304,56344953,1,0.0155029296875,584.10546875,94501.421875,30.25,0.0,56344,0.0,28.02182960510254,1,94501.421875,1.69932,0,0.0155029296875,0.0155029296875,0.0,0,0.0155029296875
1778627316.239264,56444913,0,0.00372314453125,584.0936889648438,94502.828125,30.26,0.0,56444,0.0,28.02182960510254,1,94502.828125,1.79928,0,0.00372314453125,0.00372314453125,0.0,0,0.00372314453125
1778627316.239264,56444913,1,-0.22283935546875,583.8671264648438,94504.1328125,30.26,0.0,56444,0.0,28.02182960510254,1,94504.1328125,1.79928,0,-0.22283935546875,-0.22283935546875,0.0,0,-0.22283935546875
1778627316.339224,56544873,0,0.00372314453125,584.0936889648438,94502.828125,30.26,0.0,56544,0.0,28.02182960510254,1,94502.828125,1.89924,0,0.00372314453125,0.00372314453125,0.0,0,0.00372314453125
1778627316.339224,56544873,1,0.0389404296875,584.12890625,94501.15625,30.26,0.0,56544,0.0,28.02182960510254,1,94501.15625,1.89924,0,0.0389404296875,0.0389404296875,0.0,0,0.0389404296875
1778627316.439184,56644833,0,0.00372314453125,584.0936889648438,94502.828125,30.26,0.0,56644,0.0,28.02182960510254,1,94502.828125,1.9992,0,0.00372314453125,0.00372314453125,0.0,0,0.00372314453125
1778627316.439184,56644833,1,-0.23455810546875,583.8554077148438,94504.2578125,30.27,0.0,56644,0.0,28.02182960510254,1,94504.2578125,1.9992,0,-0.23455810546875,-0.23455810546875,0.0,0,-0.23455810546875
1778627316.539977,56745626,0,0.00372314453125,584.0936889648438,94502.828125,30.27,0.0,56745,0.0,28.02182960510254,1,94502.828125,2.099993,0,0.00372314453125,0.00372314453125,0.0,0,0.00372314453125
1778627316.539977,56745626,1,0.02130126953125,584.1112670898438,94501.3515625,30.27,0.0,56745,0.0,28.02182960510254,1,94501.3515625,2.099993,0,0.02130126953125,0.02130126953125,0.0,0,0.02130126953125
1778627316.6399372,56845586,0,0.00372314453125,584.0936889648438,94502.828125,30.27,0.0,56845,0.0,28.02182960510254,1,94502.828125,2.199953,0,0.00372314453125,0.00372314453125,0.0,0,0.00372314453125
1778627316.6399372,56845586,1,-0.02264404296875,584.0673217773438,94501.8515625,30.27,0.0,56845,0.0,28.02182960510254,1,94501.8515625,2.199953,0,-0.02264404296875,-0.02264404296875,0.0,0,-0.02264404296875
1778627316.739897,56945546,0,0.00372314453125,584.0936889648438,94502.828125,30.27,0.0,56945,0.0,28.02182960510254,1,94502.828125,2.299913,0,0.00372314453125,0.00372314453125,0.0,0,0.00372314453125
1778627316.739897,56945546,1,-0.21063232421875,583.8793334960938,94503.9921875,30.27,0.0,56945,0.0,28.02182960510254,1,94503.9921875,2.299913,0,-0.21063232421875,-0.21063232421875,0.0,0,-0.21063232421875
1778627316.839857,57045506,0,0.00372314453125,584.0936889648438,94502.828125,30.28,0.0,57045,0.0,28.02182960510254,1,94502.828125,2.399873,0,0.00372314453125,0.00372314453125,0.0,0,0.00372314453125
1778627316.839857,57045506,1,-0.28436279296875,583.8056030273438,94504.828125,30.28,0.0,57045,0.0,28.02182960510254,1,94504.828125,2.399873,0,-0.28436279296875,-0.28436279296875,0.0,0,-0.28436279296875
1778627316.9398172,57145466,0,0.00372314453125,584.0936889648438,94502.828125,30.28,0.0,57145,0.0,28.02182960510254,1,94502.828125,2.499833,0,0.00372314453125,0.00372314453125,0.0,0,0.00372314453125
1778627316.9398172,57145466,1,-0.21063232421875,583.8793334960938,94503.9921875,30.28,0.0,57145,0.0,28.02182960510254,1,94503.9921875,2.499833,0,-0.21063232421875,-0.21063232421875,0.0,0,-0.21063232421875
1778627317.039777,57245426,0,0.00372314453125,584.0936889648438,94502.828125,30.28,0.0,57245,0.0,28.02182960510254,1,94502.828125,2.599793,0,0.00372314453125,0.00372314453125,0.0,0,0.00372314453125
1778627317.039777,57245426,1,-0.00213623046875,584.0878295898438,94501.6171875,30.28,0.0,57245,0.0,28.02182960510254,1,94501.6171875,2.599793,0,-0.00213623046875,-0.00213623046875,0.0,0,-0.00213623046875
1778627317.1397371,57345386,0,0.00372314453125,584.0936889648438,94502.828125,30.29,0.0,57345,0.0,28.02182960510254,1,94502.828125,2.699753,0,0.00372314453125,0.00372314453125,0.0,0,0.00372314453125
1778627317.1397371,57345386,1,0.07159423828125,584.1615600585938,94500.78125,30.29,0.0,57345,0.0,28.02182960510254,1,94500.78125,2.699753,0,0.07159423828125,0.07159423828125,0.0,0,0.07159423828125
1778627317.2396972,57445346,0,0.00372314453125,584.0936889648438,94502.828125,30.29,0.0,57445,0.0,28.02182960510254,1,94502.828125,2.799713,0,0.00372314453125,0.00372314453125,0.0,0,0.00372314453125
1778627317.2396972,57445346,1,-0.25213623046875,583.8378295898438,94504.4609375,30.29,0.0,57445,0.0,28.02182960510254,1,94504.4609375,2.799713,0,-0.25213623046875,-0.25213623046875,0.0,0,-0.25213623046875
1778627317.339657,57545306,0,0.00372314453125,584.0936889648438,94502.828125,30.29,0.0,57545,0.0,28.02182960510254,1,94502.828125,2.899673,0,0.00372314453125,0.00372314453125,0.0,0,0.00372314453125
1778627317.339657,57545306,1,0.07159423828125,584.1615600585938,94500.78125,30.29,0.0,57545,0.0,28.02182960510254,1,94500.78125,2.899673,0,0.07159423828125,0.07159423828125,0.0,0,0.07159423828125
1778627317.4396172,57645266,0,0.00372314453125,584.0936889648438,94502.828125,30.3,0.0,57645,0.0,28.02182960510254,1,94502.828125,2.999633,0,0.00372314453125,0.00372314453125,0.0,0,0.00372314453125
1778627317.4396172,57645266,1,-0.14324951171875,583.9467163085938,94503.2265625,30.3,0.0,57645,0.0,28.02182960510254,1,94503.2265625,2.999633,0,-0.14324951171875,-0.14324951171875,0.0,0,-0.14324951171875
1778627317.539577,57745226,0,0.00372314453125,584.0936889648438,94502.828125,30.3,0.0,57745,0.0,28.02182960510254,1,94502.828125,3.099593,0,0.00372314453125,0.00372314453125,0.0,0,0.00372314453125
1778627317.539577,57745226,1,0.00665283203125,584.0966186523438,94501.5234375,30.3,0.0,57745,0.0,28.02182960510254,1,94501.5234375,3.099593,0,0.00665283203125,0.00665283203125,0.0,0,0.00665283203125
1778627317.639537,57845186,0,0.00372314453125,584.0936889648438,94502.828125,30.3,0.0,57845,0.0,28.02182960510254,1,94502.828125,3.199553,0,0.00372314453125,0.00372314453125,0.0,0,0.00372314453125
1778627317.639537,57845186,1,-0.21356201171875,583.8764038085938,94504.0234375,30.3,0.0,57845,0.0,28.02182960510254,1,94504.0234375,3.199553,0,-0.21356201171875,-0.21356201171875,0.0,0,-0.21356201171875
1778627317.7394972,57945146,0,0.00372314453125,584.0936889648438,94502.828125,30.3,0.0,57945,0.0,28.02182960510254,1,94502.828125,3.299513,0,0.00372314453125,0.00372314453125,0.0,0,0.00372314453125
1778627317.7394972,57945146,1,-0.04608154296875,584.0438842773438,94502.125,30.3,0.0,57945,0.0,28.02182960510254,1,94502.125,3.299513,0,-0.04608154296875,-0.04608154296875,0.0,0,-0.04608154296875
1778627317.839457,58045106,0,0.00372314453125,584.0936889648438,94502.828125,30.31,0.0,58045,0.0,28.02182960510254,1,94502.828125,3.399473,0,0.00372314453125,0.00372314453125,0.0,0,0.00372314453125
1778627317.839457,58045106,1,-0.14910888671875,583.9408569335938,94503.296875,30.31,0.0,58045,0.0,28.02182960510254,1,94503.296875,3.399473,0,-0.14910888671875,-0.14910888671875,0.0,0,-0.14910888671875
1778627317.9394171,58145066,0,0.00372314453125,584.0936889648438,94502.828125,30.31,0.0,58145,0.0,28.02182960510254,1,94502.828125,3.499433,0,0.00372314453125,0.00372314453125,0.0,0,0.00372314453125
1778627317.9394171,58145066,1,0.07745361328125,584.1674194335938,94500.71875,30.31,0.0,58145,0.0,28.02182960510254,1,94500.71875,3.499433,0,0.07745361328125,0.07745361328125,0.0,0,0.07745361328125
1778627318.0393772,58245026,0,0.00372314453125,584.0936889648438,94502.828125,30.31,0.0,58245,0.0,28.02182960510254,1,94502.828125,3.599393,0,0.00372314453125,0.00372314453125,0.0,0,0.00372314453125
1778627318.0393772,58245026,1,-0.21063232421875,583.8793334960938,94503.9921875,30.31,0.0,58245,0.0,28.02182960510254,1,94503.9921875,3.599393,0,-0.21063232421875,-0.21063232421875,0.0,0,-0.21063232421875
1778627318.139337,58344986,0,0.00372314453125,584.0936889648438,94502.828125,30.32,0.0,58344,0.0,28.02182960510254,1,94502.828125,3.699353,0,0.00372314453125,0.00372314453125,0.0,0,0.00372314453125
1778627318.139337,58344986,1,-0.06365966796875,584.0263061523438,94502.3203125,30.32,0.0,58344,0.0,28.02182960510254,1,94502.3203125,3.699353,0,-0.06365966796875,-0.06365966796875,0.0,0,-0.06365966796875
1778627318.2392972,58444946,0,0.00372314453125,584.0936889648438,94502.828125,30.32,0.0,58444,0.0,28.02182960510254,1,94502.828125,3.799313,0,0.00372314453125,0.00372314453125,0.0,0,0.00372314453125
1778627318.2392972,58444946,1,-0.27557373046875,583.8143920898438,94504.7265625,30.32,0.0,58444,0.0,28.02182960510254,1,94504.7265625,3.799313,0,-0.27557373046875,-0.27557373046875,0.0,0,-0.27557373046875
1778627318.339257,58544906,0,0.00372314453125,584.0936889648438,94502.828125,30.32,0.0,58544,0.0,28.02182960510254,1,94502.828125,3.899273,0,0.00372314453125,0.00372314453125,0.0,0,0.00372314453125
1778627318.339257,58544906,1,-0.16375732421875,583.9262084960938,94503.4609375,30.32,0.0,58544,0.0,28.02182960510254,1,94503.4609375,3.899273,0,-0.16375732421875,-0.16375732421875,0.0,0,-0.16375732421875
1778627318.439217,58644866,0,0.00372314453125,584.0936889648438,94502.828125,30.33,0.0,58644,0.0,28.02182960510254,1,94502.828125,3.999233,0,0.00372314453125,0.00372314453125,0.0,0,0.00372314453125
1778627318.439217,58644866,1,0.09210205078125,584.1820678710938,94500.546875,30.32,0.0,58644,0.0,28.02182960510254,1,94500.546875,3.999233,0,0.09210205078125,0.09210205078125,0.0,0,0.09210205078125
1778627318.5391772,58744826,0,0.00372314453125,584.0936889648438,94502.828125,30.33,0.0,58744,0.0,28.02182960510254,1,94502.828125,4.099193,0,0.00372314453125,0.00372314453125,0.0,0,0.00372314453125
1778627318.5391772,58744826,1,-0.06072998046875,584.0292358398438,94502.2890625,30.33,0.0,58744,0.0,28.02182960510254,1,94502.2890625,4.099193,0,-0.06072998046875,-0.06072998046875,0.0,0,-0.06072998046875
1778627318.63997,58845619,0,0.00372314453125,584.0936889648438,94502.828125,30.33,0.0,58845,0.0,28.02182960510254,1,94502.828125,4.199986,0,0.00372314453125,0.00372314453125,0.0,0,0.00372314453125
1778627318.63997,58845619,1,0.05694580078125,584.1469116210938,94500.953125,30.33,0.0,58845,0.0,28.02182960510254,1,94500.953125,4.199986,0,0.05694580078125,0.05694580078125,0.0,0,0.05694580078125
1778627318.73993,58945579,0,0.00372314453125,584.0936889648438,94502.828125,30.33,0.0,58945,0.0,28.02182960510254,1,94502.828125,4.299946,0,0.00372314453125,0.00372314453125,0.0,0,0.00372314453125
1778627318.73993,58945579,1,-0.03729248046875,584.0526733398438,94502.0234375,30.33,0.0,58945,0.0,28.02182960510254,1,94502.0234375,4.299946,0,-0.03729248046875,-0.03729248046875,0.0,0,-0.03729248046875
1778627318.83989,59045539,0,0.00372314453125,584.0936889648438,94502.828125,30.34,0.0,59045,0.0,28.02182960510254,1,94502.828125,4.399906,0,0.00372314453125,0.00372314453125,0.0,0,0.00372314453125
1778627318.83989,59045539,1,-0.22283935546875,583.8671264648438,94504.1328125,30.34,0.0,59045,0.0,28.02182960510254,1,94504.1328125,4.399906,0,-0.22283935546875,-0.22283935546875,0.0,0,-0.22283935546875
1778627318.93985,59145499,0,0.00372314453125,584.0936889648438,94502.828125,30.34,0.0,59145,0.0,28.02182960510254,1,94502.828125,4.499866,0,0.00372314453125,0.00372314453125,0.0,0,0.00372314453125
1778627318.93985,59145499,1,-0.26678466796875,583.8231811523438,94504.625,30.34,0.0,59145,0.0,28.02182960510254,1,94504.625,4.499866,0,-0.26678466796875,-0.26678466796875,0.0,0,-0.26678466796875
1778627319.03981,59245459,0,0.00372314453125,584.0936889648438,94502.828125,30.34,0.0,59245,0.0,28.02182960510254,1,94502.828125,4.599826,0,0.00372314453125,0.00372314453125,0.0,0,0.00372314453125
1778627319.03981,59245459,1,-0.18719482421875,583.9027709960938,94503.7265625,30.34,0.0,59245,0.0,28.02182960510254,1,94503.7265625,4.599826,0,-0.18719482421875,-0.18719482421875,0.0,0,-0.18719482421875
1778627319.13977,59345419,0,0.00372314453125,584.0936889648438,94502.828125,30.35,0.0,59345,0.0,28.02182960510254,1,94502.828125,4.699786,0,0.00372314453125,0.00372314453125,0.0,0,0.00372314453125
1778627319.13977,59345419,1,0.09210205078125,584.1820678710938,94500.546875,30.34,0.0,59345,0.0,28.02182960510254,1,94500.546875,4.699786,0,0.09210205078125,0.09210205078125,0.0,0,0.09210205078125
1778627319.23973,59445379,0,0.00372314453125,584.0936889648438,94502.828125,30.35,0.0,59445,0.0,28.02182960510254,1,94502.828125,4.799746,0,0.00372314453125,0.00372314453125,0.0,0,0.00372314453125
1778627319.23973,59445379,1,0.00958251953125,584.0995483398438,94501.4921875,30.35,0.0,59445,0.0,28.02182960510254,1,94501.4921875,4.799746,0,0.00958251953125,0.00958251953125,0.0,0,0.00958251953125
1778627319.3396902,59545339,0,0.00372314453125,584.0936889648438,94502.828125,30.35,0.0,59545,0.0,28.02182960510254,1,94502.828125,4.899706,0,0.00372314453125,0.00372314453125,0.0,0,0.00372314453125
1778627319.3396902,59545339,1,-0.19891357421875,583.8910522460938,94503.8515625,30.35,0.0,59545,0.0,28.02182960510254,1,94503.8515625,4.899706,0,-0.19891357421875,-0.19891357421875,0.0,0,-0.19891357421875
1778627319.43965,59645299,0,0.00372314453125,584.0936889648438,94502.828125,30.35,0.0,59645,0.0,28.02182960510254,1,94502.828125,4.999666,0,0.00372314453125,0.00372314453125,0.0,0,0.00372314453125
1778627319.43965,59645299,1,-0.22283935546875,583.8671264648438,94504.1328125,30.35,0.0,59645,0.0,28.02182960510254,1,94504.1328125,4.999666,0,-0.22283935546875,-0.22283935546875,0.0,0,-0.22283935546875
1778627319.53961,59745259,0,0.00372314453125,584.0936889648438,94502.828125,30.36,0.0,59745,0.0,28.02182960510254,1,94502.828125,5.099626,0,0.00372314453125,0.00372314453125,0.0,0,0.00372314453125
1778627319.53961,59745259,1,-0.18719482421875,583.9027709960938,94503.7265625,30.36,0.0,59745,0.0,28.02182960510254,1,94503.7265625,5.099626,0,-0.18719482421875,-0.18719482421875,0.0,0,-0.18719482421875
1778627319.63957,59845219,0,0.00372314453125,584.0936889648438,94502.828125,30.36,0.0,59845,0.0,28.02182960510254,1,94502.828125,5.199586,0,0.00372314453125,0.00372314453125,0.0,0,0.00372314453125
1778627319.63957,59845219,1,-0.07830810546875,584.0116577148438,94502.4921875,30.36,0.0,59845,0.0,28.02182960510254,1,94502.4921875,5.199586,0,-0.07830810546875,-0.07830810546875,0.0,0,-0.07830810546875
1778627319.73953,59945179,0,0.00372314453125,584.0936889648438,94502.828125,30.36,0.0,59945,0.0,28.02182960510254,1,94502.828125,5.299546,0,0.00372314453125,0.00372314453125,0.0,0,0.00372314453125
1778627319.73953,59945179,1,-0.28436279296875,583.8056030273438,94504.828125,30.36,0.0,59945,0.0,28.02182960510254,1,94504.828125,5.299546,0,-0.28436279296875,-0.28436279296875,0.0,0,-0.28436279296875
1778627319.83949,60045139,0,0.00372314453125,584.0936889648438,94502.828125,30.37,0.0,60045,0.0,28.02182960510254,1,94502.828125,5.399506,0,0.00372314453125,0.00372314453125,0.0,0,0.00372314453125
1778627319.83949,60045139,1,-0.28143310546875,583.8085327148438,94504.796875,30.37,0.0,60045,0.0,28.02182960510254,1,94504.796875,5.399506,0,-0.28143310546875,-0.28143310546875,0.0,0,-0.28143310546875
1778627319.93945,60145099,0,0.00372314453125,584.0936889648438,94502.828125,30.37,0.0,60145,0.0,28.02182960510254,1,94502.828125,5.499466,0,0.00372314453125,0.00372314453125,0.0,0,0.00372314453125
1778627319.93945,60145099,1,-0.03143310546875,584.0585327148438,94501.9609375,30.37,0.0,60145,0.0,28.02182960510254,1,94501.9609375,5.499466,0,-0.03143310546875,-0.03143310546875,0.0,0,-0.03143310546875
1778627320.03941,60245059,0,0.00372314453125,584.0936889648438,94502.828125,30.37,0.0,60245,0.0,28.02182960510254,1,94502.828125,5.599426,0,0.00372314453125,0.00372314453125,0.0,0,0.00372314453125
1778627320.03941,60245059,1,-0.00213623046875,584.0878295898438,94501.6171875,30.37,0.0,60245,0.0,28.02182960510254,1,94501.6171875,5.599426,0,-0.00213623046875,-0.00213623046875,0.0,0,-0.00213623046875
1778627320.1393702,60345019,0,0.00372314453125,584.0936889648438,94502.828125,30.37,0.0,60345,0.0,28.02182960510254,1,94502.828125,5.699386,0,0.00372314453125,0.00372314453125,0.0,0,0.00372314453125
1778627320.1393702,60345019,1,-0.03143310546875,584.0585327148438,94501.9609375,30.37,0.0,60345,0.0,28.02182960510254,1,94501.9609375,5.699386,0,-0.03143310546875,-0.03143310546875,0.0,0,-0.03143310546875
1778627320.23933,60444979,0,0.00372314453125,584.0936889648438,94502.828125,30.38,0.0,60444,0.0,28.02182960510254,1,94502.828125,5.799346,0,0.00372314453125,0.00372314453125,0.0,0,0.00372314453125
1778627320.23933,60444979,1,0.0863037109375,584.17626953125,94500.625,30.38,0.0,60444,0.0,28.02182960510254,1,94500.625,5.799346,0,0.0863037109375,0.0863037109375,0.0,0,0.0863037109375
1778627320.33929,60544939,0,0.00372314453125,584.0936889648438,94502.828125,30.38,0.0,60544,0.0,28.02182960510254,1,94502.828125,5.899306,0,0.00372314453125,0.00372314453125,0.0,0,0.00372314453125
1778627320.33929,60544939,1,-0.12567138671875,583.9642944335938,94503.03125,30.38,0.0,60544,0.0,28.02182960510254,1,94503.03125,5.899306,0,-0.12567138671875,-0.12567138671875,0.0,0,-0.12567138671875
1778627320.43925,60644899,0,0.00372314453125,584.0936889648438,94502.828125,30.38,0.0,60644,0.0,28.02182960510254,1,94502.828125,5.999266,0,0.00372314453125,0.00372314453125,0.0,0,0.00372314453125
1778627320.43925,60644899,1,0.03302001953125,584.1229858398438,94501.21875,30.38,0.0,60644,0.0,28.02182960510254,1,94501.21875,5.999266,0,0.03302001953125,0.03302001953125,0.0,0,0.03302001953125
1778627320.53921,60744859,0,0.00372314453125,584.0936889648438,94502.828125,30.38,0.0,60744,0.0,28.02182960510254,1,94502.828125,6.099226,0,0.00372314453125,0.00372314453125,0.0,0,0.00372314453125
1778627320.53921,60744859,1,-0.17547607421875,583.9144897460938,94503.59375,30.39,0.0,60744,0.0,28.02182960510254,1,94503.59375,6.099226,0,-0.17547607421875,-0.17547607421875,0.0,0,-0.17547607421875
1778627320.6400032,60845652,0,0.00372314453125,584.0936889648438,94502.828125,30.39,0.0,60845,0.0,28.02182960510254,1,94502.828125,6.200019,0,0.00372314453125,0.00372314453125,0.0,0,0.00372314453125
1778627320.6400032,60845652,1,0.02423095703125,584.1141967773438,94501.3203125,30.39,0.0,60845,0.0,28.02182960510254,1,94501.3203125,6.200019,0,0.02423095703125,0.02423095703125,0.0,0,0.02423095703125
1778627320.739963,60945612,0,0.00372314453125,584.0936889648438,94502.828125,30.39,0.0,60945,0.0,28.02182960510254,1,94502.828125,6.299979,0,0.00372314453125,0.00372314453125,0.0,0,0.00372314453125
1778627320.739963,60945612,1,-0.26678466796875,583.8231811523438,94504.625,30.39,0.0,60945,0.0,28.02182960510254,1,94504.625,6.299979,0,-0.26678466796875,-0.26678466796875,0.0,0,-0.26678466796875
1778627320.8399231,61045572,0,0.00372314453125,584.0936889648438,94502.828125,30.39,0.0,61045,0.0,28.02182960510254,1,94502.828125,6.399939,0,0.00372314453125,0.00372314453125,0.0,0,0.00372314453125
1778627320.8399231,61045572,1,-0.06072998046875,584.0292358398438,94502.2890625,30.39,0.0,61045,0.0,28.02182960510254,1,94502.2890625,6.399939,0,-0.06072998046875,-0.06072998046875,0.0,0,-0.06072998046875
1778627320.9398828,61145532,0,0.00372314453125,584.0936889648438,94502.828125,30.4,0.0,61145,0.0,28.02182960510254,1,94502.828125,6.499899,0,0.00372314453125,0.00372314453125,0.0,0,0.00372314453125
1778627320.9398828,61145532,1,0.00665283203125,584.0966186523438,94501.5234375,30.39,0.0,61145,0.0,28.02182960510254,1,94501.5234375,6.499899,0,0.00665283203125,0.00665283203125,0.0,0,0.00665283203125
1778627321.039843,61245492,0,0.00372314453125,584.0936889648438,94502.828125,30.4,0.0,61245,0.0,28.02182960510254,1,94502.828125,6.599859,0,0.00372314453125,0.00372314453125,0.0,0,0.00372314453125
1778627321.039843,61245492,1,-0.07244873046875,584.0175170898438,94502.421875,30.4,0.0,61245,0.0,28.02182960510254,1,94502.421875,6.599859,0,-0.07244873046875,-0.07244873046875,0.0,0,-0.07244873046875
1778627321.1398032,61345452,0,0.00372314453125,584.0936889648438,94502.828125,30.4,0.0,61345,0.0,28.02182960510254,1,94502.828125,6.699819,0,0.00372314453125,0.00372314453125,0.0,0,0.00372314453125
1778627321.1398032,61345452,1,0.0540771484375,584.14404296875,94500.984375,30.4,0.0,61345,0.0,28.02182960510254,1,94500.984375,6.699819,0,0.0540771484375,0.0540771484375,0.0,0,0.0540771484375
1778627321.239763,61445412,0,0.00372314453125,584.0936889648438,94502.828125,30.4,0.0,61445,0.0,28.02182960510254,1,94502.828125,6.799779,0,0.00372314453125,0.00372314453125,0.0,0,0.00372314453125
1778627321.239763,61445412,1,-0.14324951171875,583.9467163085938,94503.2265625,30.4,0.0,61445,0.0,28.02182960510254,1,94503.2265625,6.799779,0,-0.14324951171875,-0.14324951171875,0.0,0,-0.14324951171875
1778627321.339723,61545372,0,0.00372314453125,584.0936889648438,94502.828125,30.41,0.0,61545,0.0,28.02182960510254,1,94502.828125,6.899739,0,0.00372314453125,0.00372314453125,0.0,0,0.00372314453125
1778627321.339723,61545372,1,0.06866455078125,584.1586303710938,94500.828125,30.41,0.0,61545,0.0,28.02182960510254,1,94500.828125,6.899739,0,0.06866455078125,0.06866455078125,0.0,0,0.06866455078125
1778627321.4396832,61645332,0,0.00372314453125,584.0936889648438,94502.828125,30.41,0.0,61645,0.0,28.02182960510254,1,94502.828125,6.999699,0,0.00372314453125,0.00372314453125,0.0,0,0.00372314453125
1778627321.4396832,61645332,1,0.0155029296875,584.10546875,94501.421875,30.41,0.0,61645,0.0,28.02182960510254,1,94501.421875,6.999699,0,0.0155029296875,0.0155029296875,0.0,0,0.0155029296875
1778627321.539643,61745292,0,0.00372314453125,584.0936889648438,94502.828125,30.41,0.0,61745,0.0,28.02182960510254,1,94502.828125,7.099659,0,0.00372314453125,0.00372314453125,0.0,0,0.00372314453125
1778627321.539643,61745292,1,-0.03143310546875,584.0585327148438,94501.9609375,30.41,0.0,61745,0.0,28.02182960510254,1,94501.9609375,7.099659,0,-0.03143310546875,-0.03143310546875,0.0,0,-0.03143310546875
1778627321.6396031,61845252,0,0.00372314453125,584.0936889648438,94502.828125,30.41,0.0,61845,0.0,28.02182960510254,1,94502.828125,7.199619,0,0.00372314453125,0.00372314453125,0.0,0,0.00372314453125
1778627321.6396031,61845252,1,0.04473876953125,584.1347045898438,94501.09375,30.41,0.0,61845,0.0,28.02182960510254,1,94501.09375,7.199619,0,0.04473876953125,0.04473876953125,0.0,0,0.04473876953125
1778627321.7395627,61945212,0,0.00372314453125,584.0936889648438,94502.828125,30.42,0.0,61945,0.0,28.02182960510254,1,94502.828125,7.299579,0,0.00372314453125,0.00372314453125,0.0,0,0.00372314453125
1778627321.7395627,61945212,1,0.02423095703125,584.1141967773438,94501.3203125,30.42,0.0,61945,0.0,28.02182960510254,1,94501.3203125,7.299579,0,0.02423095703125,0.02423095703125,0.0,0,0.02423095703125
1778627321.839523,62045172,0,0.00372314453125,584.0936889648438,94502.828125,30.42,0.0,62045,0.0,28.02182960510254,1,94502.828125,7.399539,0,0.00372314453125,0.00372314453125,0.0,0,0.00372314453125
1778627321.839523,62045172,1,0.08038330078125,584.1703491210938,94500.6875,30.42,0.0,62045,0.0,28.02182960510254,1,94500.6875,7.399539,0,0.08038330078125,0.08038330078125,0.0,0,0.08038330078125
1778627321.9394832,62145132,0,0.00372314453125,584.0936889648438,94502.828125,30.42,0.0,62145,0.0,28.02182960510254,1,94502.828125,7.499499,0,0.00372314453125,0.00372314453125,0.0,0,0.00372314453125
1778627321.9394832,62145132,1,-0.0079345703125,584.08203125,94501.6953125,30.42,0.0,62145,0.0,28.02182960510254,1,94501.6953125,7.499499,0,-0.0079345703125,-0.0079345703125,0.0,0,-0.0079345703125
1778627322.039443,62245092,0,0.00372314453125,584.0936889648438,94502.828125,30.42,0.0,62245,0.0,28.02182960510254,1,94502.828125,7.599459,0,0.00372314453125,0.00372314453125,0.0,0,0.00372314453125
1778627322.039443,62245092,1,-0.21356201171875,583.8764038085938,94504.0234375,30.43,0.0,62245,0.0,28.02182960510254,1,94504.0234375,7.599459,0,-0.21356201171875,-0.21356201171875,0.0,0,-0.21356201171875
1778627322.139403,62345052,0,0.01544189453125,584.1054077148438,94502.6875,30.43,0.003662109375,62345,0.0,28.02182960510254,1,94502.6875,7.699419,0,0.01544189453125,0.01544189453125,0.0,0,0.01544189453125
1778627322.139403,62345052,1,-0.01385498046875,584.0761108398438,94501.7578125,30.43,0.003662109375,62345,0.0,28.02182960510254,1,94501.7578125,7.699419,0,-0.01385498046875,-0.01385498046875,0.0,0,-0.01385498046875
1778627322.2393632,62445012,0,0.01544189453125,584.1054077148438,94502.6875,30.43,0.0183105450123548,62445,0.0,28.02182960510254,1,94502.6875,7.799379,0,0.01544189453125,0.01544189453125,0.0,0,0.01544189453125
1778627322.2393632,62445012,1,-0.06072998046875,584.0292358398438,94502.2890625,30.43,0.0183105450123548,62445,0.0,28.02182960510254,1,94502.2890625,7.799379,0,-0.06072998046875,-0.06072998046875,0.0,0,-0.06072998046875
1778627322.339323,62544972,0,0.02423095703125,584.1141967773438,94502.59375,30.43,0.0393783785402774,62544,0.0,28.02182960510254,1,94502.59375,7.899339,0,0.02423095703125,0.02423095703125,0.0,0,0.02423095703125
1778627322.339323,62544972,1,-0.20477294921875,583.8851928710938,94503.9296875,30.43,0.0393783785402774,62544,0.0,28.02182960510254,1,94503.9296875,7.899339,0,-0.20477294921875,-0.20477294921875,0.0,0,-0.20477294921875
1778627322.4392831,62644932,0,0.03350830078125,584.1234741210938,94502.4921875,30.43,0.0533329620957374,62644,0.0,28.02182960510254,1,94502.4921875,7.999299,0,0.03350830078125,0.03350830078125,0.0,0,0.03350830078125
1778627322.4392831,62644932,1,-0.02264404296875,584.0673217773438,94501.8515625,30.43,0.0533329620957374,62644,0.0,28.02182960510254,1,94501.8515625,7.999299,0,-0.02264404296875,-0.02264404296875,0.0,0,-0.02264404296875
1778627322.5392427,62744892,0,0.05694580078125,584.1469116210938,94502.2265625,30.44,0.0677865222096443,62744,0.0,28.02182960510254,1,94502.2265625,8.099259,0,0.05694580078125,0.05694580078125,0.0,0,0.05694580078125
1778627322.5392427,62744892,1,-0.24627685546875,583.8436889648438,94504.3984375,30.44,0.0677865222096443,62744,0.0,28.02182960510254,1,94504.3984375,8.099259,0,-0.24627685546875,-0.24627685546875,0.0,0,-0.24627685546875
1778627322.639203,62844852,0,0.08624267578125,584.1762084960938,94501.8828125,30.44,0.1062109321355819,62844,0.0,28.02182960510254,1,94501.8828125,8.199219,0,0.08624267578125,0.08624267578125,0.0,0,0.08624267578125
1778627322.639203,62844852,1,-0.19891357421875,583.8910522460938,94503.8515625,30.44,0.1062109321355819,62844,0.0,28.02182960510254,1,94503.8515625,8.199219,0,-0.19891357421875,-0.19891357421875,0.0,0,-0.19891357421875
1778627322.739996,62945645,0,0.11846923828125,584.2084350585938,94501.5234375,30.44,0.1720357686281204,62945,0.0,28.02182960510254,1,94501.5234375,8.300012,0,0.11846923828125,0.11846923828125,0.0,0,0.11846923828125
1778627322.739996,62945645,1,-0.01385498046875,584.0761108398438,94501.7578125,30.44,0.1720357686281204,62945,0.0,28.02182960510254,1,94501.7578125,8.300012,0,-0.01385498046875,-0.01385498046875,0.0,0,-0.01385498046875
1778627322.839956,63045605,0,0.15655517578125,584.2465209960938,94501.09375,30.44,0.2439994513988495,63045,0.0,28.02182960510254,1,94501.09375,8.399972,0,0.15655517578125,0.15655517578125,0.0,0,0.15655517578125
1778627322.839956,63045605,1,0.1829833984375,584.27294921875,94499.5234375,30.44,0.2439994513988495,63045,0.0,28.02182960510254,1,94499.5234375,8.399972,0,0.1829833984375,0.1829833984375,0.0,0,0.1829833984375
1778627322.939916,63145565,0,0.2449951171875,584.3349609375,94500.0859375,30.45,0.3179511725902557,63145,0.0,28.02182960510254,1,94500.0859375,8.499932,0,0.2449951171875,0.2449951171875,0.0,0,0.2449951171875
1778627322.939916,63145565,1,0.25970458984375,584.3496704101562,94498.65625,30.45,0.3179511725902557,63145,0.0,28.02182960510254,1,94498.65625,8.499932,0,0.25970458984375,0.25970458984375,0.0,0,0.25970458984375
1778627323.039876,63245525,0,0.3656005859375,584.45556640625,94498.71875,30.45,0.4473983347415924,63245,0.0,28.02182960510254,1,94498.71875,8.599892,0,0.3656005859375,0.3656005859375,0.0,0,0.3656005859375
1778627323.039876,63245525,1,0.41546630859375,584.5054321289062,94496.8828125,30.45,0.4473983347415924,63245,0.0,28.02182960510254,1,94496.8828125,8.599892,0,0.41546630859375,0.41546630859375,0.0,0,0.41546630859375
1778627323.139836,63345485,0,0.4832763671875,584.5732421875,94497.3828125,30.45,0.6790298223495483,63345,0.0,28.02182960510254,1,94497.3828125,8.699852,0,0.4832763671875,0.4832763671875,0.0,0,0.4832763671875
1778627323.139836,63345485,1,0.3597412109375,584.44970703125,94497.5234375,30.45,0.6790298223495483,63345,0.0,28.02182960510254,1,94497.5234375,8.699852,0,0.3597412109375,0.3597412109375,0.0,0,0.3597412109375
1778627323.239796,63445445,0,0.60687255859375,584.6968383789062,94495.984375,30.45,0.9450685381889344,63445,0.0,28.02182960510254,1,94495.984375,8.799812,0,0.60687255859375,0.60687255859375,0.0,0,0.60687255859375
1778627323.239796,63445445,1,0.61279296875,584.7027587890625,94494.640625,30.45,0.9450685381889344,63445,0.0,28.02182960510254,1,94494.640625,8.799812,0,0.61279296875,0.61279296875,0.0,0,0.61279296875
1778627323.339756,63545405,0,0.7275390625,584.8175048828125,94494.609375,30.45,1.1255455017089844,63545,0.0,28.02182960510254,1,94494.609375,8.899772,0,0.7275390625,0.7275390625,0.0,0,0.7275390625
1778627323.339756,63545405,1,0.43304443359375,584.5230102539062,94496.6875,30.45,1.1255455017089844,63545,0.0,28.02182960510254,1,94496.6875,8.899772,0,0.43304443359375,0.43304443359375,0.0,0,0.43304443359375
1778627323.439716,63645365,0,0.84521484375,584.9351806640625,94493.2734375,30.46,1.1953736543655396,63645,0.0,28.02182960510254,1,94493.2734375,8.999732,0,0.84521484375,0.84521484375,0.0,0,0.84521484375
1778627323.439716,63645365,1,0.8564453125,584.9464111328125,94491.875,30.45,1.1953736543655396,63645,0.0,28.02182960510254,1,94491.875,8.999732,0,0.8564453125,0.8564453125,0.0,0,0.8564453125
1778627323.539676,63745325,0,0.9775390625,585.0675048828125,94491.7734375,30.46,1.210098385810852,63745,0.0,28.02182960510254,1,94491.7734375,9.099692,0,0.9775390625,0.9775390625,0.0,0,0.9775390625
1778627323.539676,63745325,1,0.92724609375,585.0172119140625,94491.0703125,30.46,1.210098385810852,63745,0.0,28.02182960510254,1,94491.0703125,9.099692,0,0.92724609375,0.92724609375,0.0,0,0.92724609375
1778627323.639636,63845285,0,1.10357666015625,585.1935424804688,94490.34375,30.46,1.2208558320999146,63845,0.0,28.02182960510254,1,94490.34375,9.199652,0,1.10357666015625,1.10357666015625,0.0,0,1.10357666015625
1778627323.639636,63845285,1,0.84765625,584.9376220703125,94491.96875,30.46,1.2208558320999146,63845,0.0,28.02182960510254,1,94491.96875,9.199652,0,0.84765625,0.84765625,0.0,0,0.84765625
1778627323.739596,63945245,0,1.25396728515625,585.3439331054688,94488.6328125,30.46,1.2523460388183594,63945,0.0,28.02182960510254,1,94488.6328125,9.299612,0,1.25396728515625,1.25396728515625,0.0,0,1.25396728515625
1778627323.739596,63945245,1,1.0009765625,585.0909423828125,94490.234375,30.46,1.2523460388183594,63945,0.0,28.02182960510254,1,94490.234375,9.299612,0,1.0009765625,1.0009765625,0.0,0,1.0009765625
1778627323.8395562,64045205,0,1.4127197265625,585.502685546875,94486.8359375,30.46,1.313552975654602,64045,0.0,28.02182960510254,1,94486.8359375,9.399572,0,1.4127197265625,1.4127197265625,0.0,0,1.4127197265625
1778627323.8395562,64045205,1,1.25640869140625,585.3463745117188,94487.3359375,30.46,1.313552975654602,64045,0.0,28.02182960510254,1,94487.3359375,9.399572,0,1.25640869140625,1.25640869140625,0.0,0,1.25640869140625
1778627323.939516,64145165,0,1.5889892578125,585.678955078125,94484.8359375,30.46,1.410503387451172,64145,0.0,28.02182960510254,1,94484.8359375,9.499532,0,1.5889892578125,1.5889892578125,0.0,0,1.5889892578125
1778627323.939516,64145165,1,1.5977783203125,585.687744140625,94483.46875,30.46,1.410503387451172,64145,0.0,28.02182960510254,1,94483.46875,9.499532,0,1.5977783203125,1.5977783203125,0.0,0,1.5977783203125
1778627324.039476,64245125,0,1.75653076171875,585.8464965820312,94482.9296875,30.46,1.5321348905563354,64245,0.0,28.02182960510254,1,94482.9296875,9.599492,0,1.75653076171875,1.75653076171875,0.0,0,1.75653076171875
1778627324.039476,64245125,1,1.84197998046875,585.9319458007812,94480.6953125,30.46,1.5321348905563354,64245,0.0,28.02182960510254,1,94480.6953125,9.599492,0,1.84197998046875,1.84197998046875,0.0,0,1.84197998046875
1778627324.139436,64345085,0,1.94500732421875,586.0349731445312,94480.7890625,30.47,1.641998291015625,64345,0.0,28.02182960510254,1,94480.7890625,9.699452,0,1.94500732421875,1.94500732421875,0.0,0,1.94500732421875
1778627324.139436,64345085,1,1.67449951171875,585.7644653320312,94482.6015625,30.47,1.641998291015625,64345,0.0,28.02182960510254,1,94482.6015625,9.699452,0,1.67449951171875,1.67449951171875,0.0,0,1.67449951171875
1778627324.239396,64445045,0,2.14764404296875,586.2376098632812,94478.4921875,30.47,1.727275848388672,64445,0.0,28.02182960510254,1,94478.4921875,9.799412,0,2.14764404296875,2.14764404296875,0.0,0,2.14764404296875
1778627324.239396,64445045,1,1.99774169921875,586.0877075195312,94478.921875,30.47,1.727275848388672,64445,0.0,28.02182960510254,1,94478.921875,9.799412,0,1.99774169921875,1.99774169921875,0.0,0,1.99774169921875
1778627324.339356,64545005,0,2.35382080078125,586.4437866210938,94476.1484375,30.47,1.81863796710968,64545,0.0,28.02182960510254,1,94476.1484375,9.899372,0,2.35382080078125,2.35382080078125,0.0,0,2.35382080078125
1778627324.339356,64545005,1,2.15655517578125,586.2465209960938,94477.125,30.47,1.81863796710968,64545,0.0,28.02182960510254,1,94477.125,9.899372,0,2.15655517578125,2.15655517578125,0.0,0,2.15655517578125
1778627324.439316,64644965,0,2.57403564453125,586.6640014648438,94473.6484375,30.47,1.9306710958480835,64644,0.0,28.02182960510254,1,94473.6484375,9.999332,0,2.57403564453125,2.57403564453125,0.0,0,2.57403564453125
1778627324.439316,64644965,1,2.59747314453125,586.6874389648438,94472.1171875,30.47,1.9306710958480835,64644,0.0,28.02182960510254,1,94472.1171875,9.999332,0,2.59747314453125,2.59747314453125,0.0,0,2.59747314453125
1778627324.539276,64744925,0,2.8035888671875,586.8935546875,94471.046875,30.47,2.04340934753418,64744,0.0,28.02182960510254,1,94471.046875,10.099292,1,7.8035888671875,2.8035888671875,5.0,1,2.8035888671875
1778627324.539276,64744925,1,2.8328857421875,586.9228515625,94469.4453125,30.47,2.04340934753418,64744,0.0,28.02182960510254,1,94469.4453125,10.099292,1,7.8328857421875,2.8328857421875,5.0,1,2.8328857421875
1778627324.6392362,64844885,0,3.0330810546875,587.123046875,94468.4375,30.47,2.1450893878936768,64844,0.0,28.02182960510254,1,94468.4375,10.199252,1,8.0330810546875,3.0330810546875,5.0,1,3.0330810546875
1778627324.6392362,64844885,1,2.8504638671875,586.9404296875,94469.2421875,30.47,2.1450893878936768,64844,0.0,28.02182960510254,1,94469.2421875,10.199252,1,7.8504638671875,2.8504638671875,5.0,1,2.8504638671875
1778627324.739196,64944845,0,3.28900146484375,587.3789672851562,94465.5390625,30.47,2.236563444137573,64944,0.0,28.02182960510254,1,94465.5390625,10.299212,1,8.28900146484375,3.28900146484375,5.0,1,3.28900146484375
1778627324.739196,64944845,1,3.27972412109375,587.3696899414062,94464.375,30.47,2.236563444137573,64944,0.0,28.02182960510254,1,94464.375,10.299212,1,8.27972412109375,3.27972412109375,5.0,1,3.27972412109375
1778627324.8399892,65045638,0,3.5361328125,587.6260986328125,94462.7421875,30.47,2.323066711425781,65045,0.0,28.02182960510254,1,94462.7421875,10.400005,1,8.5361328125,3.5361328125,5.0,1,3.5361328125
1778627324.8399892,65045638,1,3.3916015625,587.4815673828125,94463.1015625,30.47,2.323066711425781,65045,0.0,28.02182960510254,1,94463.1015625,10.400005,1,8.3916015625,3.3916015625,5.0,1,3.3916015625
1778627324.939949,65145598,0,3.78570556640625,587.8756713867188,94459.8984375,30.47,2.405543565750122,65145,0.0,28.02182960510254,1,94459.8984375,10.499965,1,8.78570556640625,3.78570556640625,5.0,1,3.78570556640625
1778627324.939949,65145598,1,3.83892822265625,587.9288940429688,94458.03125,30.47,2.405543565750122,65145,0.0,28.02182960510254,1,94458.03125,10.499965,1,8.83892822265625,3.83892822265625,5.0,1,3.83892822265625
1778627325.0399091,65245558,0,4.03277587890625,588.1227416992188,94457.09375,30.48,2.461790084838867,65245,0.0,28.02182960510254,1,94457.09375,10.599925,1,9.03277587890625,4.03277587890625,5.0,1,4.03277587890625
1778627325.0399091,65245558,1,4.1094970703125,588.199462890625,94454.953125,30.47,2.461790084838867,65245,0.0,28.02182960510254,1,94454.953125,10.599925,1,9.1094970703125,4.1094970703125,5.0,1,4.1094970703125
1778627325.1398692,65345518,0,4.2886962890625,588.378662109375,94454.1953125,30.48,2.482065200805664,65345,0.0,28.02182960510254,1,94454.1953125,10.699885,1,9.2886962890625,4.2886962890625,5.0,1,4.2886962890625
1778627325.1398692,65345518,1,4.34149169921875,588.4314575195312,94452.328125,30.48,2.482065200805664,65345,0.0,28.02182960510254,1,94452.328125,10.699885,1,9.34149169921875,4.34149169921875,5.0,1,4.34149169921875
1778627325.239829,65445478,0,4.54754638671875,588.6375122070312,94451.2578125,30.48,2.494990110397339,65445,0.0,28.02182960510254,1,94451.2578125,10.799845,1,9.54754638671875,4.54754638671875,5.0,1,4.54754638671875
1778627325.239829,65445478,1,4.36541748046875,588.4553833007812,94452.0546875,30.48,2.494990110397339,65445,0.0,28.02182960510254,1,94452.0546875,10.799845,1,9.36541748046875,4.36541748046875,5.0,1,4.36541748046875
1778627325.3397892,65545438,0,4.794677734375,588.8846435546875,94448.453125,30.48,2.519930839538574,65545,0.0,28.02182960510254,1,94448.453125,10.899805,1,9.794677734375,4.794677734375,5.0,1,4.794677734375
1778627325.3397892,65545438,1,4.823974609375,588.9139404296875,94446.8515625,30.48,2.519930839538574,65545,0.0,28.02182960510254,1,94446.8515625,10.899805,1,9.823974609375,4.823974609375,5.0,1,4.823974609375
1778627325.439749,65645398,0,5.044677734375,589.1346435546875,94445.6171875,30.48,2.5369644165039062,65645,0.0,28.02182960510254,1,94445.6171875,10.999765,1,10.044677734375,5.044677734375,5.0,1,5.044677734375
1778627325.439749,65645398,1,4.856201171875,588.9461669921875,94446.484375,30.48,2.5369644165039062,65645,0.0,28.02182960510254,1,94446.484375,10.999765,1,9.856201171875,4.856201171875,5.0,1,4.856201171875
1778627325.539709,65745358,0,5.29766845703125,589.3876342773438,94442.7421875,30.48,2.527961492538452,65745,0.0,28.02182960510254,1,94442.7421875,11.099725,1,10.29766845703125,5.29766845703125,5.0,1,5.29766845703125
1778627325.539709,65745358,1,5.2620849609375,589.35205078125,94441.875,30.48,2.527961492538452,65745,0.0,28.02182960510254,1,94441.875,11.099725,1,10.2620849609375,5.2620849609375,5.0,1,5.2620849609375
1778627325.6396692,65845318,0,5.5472412109375,589.63720703125,94439.9140625,30.48,2.5112533569335938,65845,0.0,28.02182960510254,1,94439.9140625,11.199685,1,10.5472412109375,5.5472412109375,5.0,1,5.5472412109375
1778627325.6396692,65845318,1,5.2738037109375,589.36376953125,94441.75,30.48,2.5112533569335938,65845,0.0,28.02182960510254,1,94441.75,11.199685,1,10.2738037109375,5.2738037109375,5.0,1,5.2738037109375
1778627325.739629,65945278,0,5.79437255859375,589.8843383789062,94437.109375,30.48,2.5060651302337646,65945,0.0,28.02182960510254,1,94437.109375,11.299645,1,10.79437255859375,5.79437255859375,5.0,1,5.79437255859375
1778627325.739629,65945278,1,5.79144287109375,589.8814086914062,94435.875,30.48,2.5060651302337646,65945,0.0,28.02182960510254,1,94435.875,11.299645,1,10.79144287109375,5.79144287109375,5.0,1,5.79144287109375
1778627325.839589,66045238,0,6.03564453125,590.1256103515625,94434.375,30.48,2.4999043941497803,66045,0.0,28.02182960510254,1,94434.375,11.399605,1,11.03564453125,6.03564453125,5.0,1,6.03564453125
1778627325.839589,66045238,1,6.11529541015625,590.2052612304688,94432.203125,30.48,2.4999043941497803,66045,0.0,28.02182960510254,1,94432.203125,11.399605,1,11.11529541015625,6.11529541015625,5.0,1,6.11529541015625
1778627325.9395492,66145198,0,6.28857421875,590.3785400390625,94431.5078125,30.48,2.481651306152344,66145,0.0,28.02182960510254,1,94431.5078125,11.499565,1,11.28857421875,6.28857421875,5.0,1,6.28857421875
1778627325.9395492,66145198,1,6.2001953125,590.2901611328125,94431.234375,30.48,2.481651306152344,66145,0.0,28.02182960510254,1,94431.234375,11.499565,1,11.2001953125,6.2001953125,5.0,1,6.2001953125
1778627326.039509,66245158,0,6.53863525390625,590.6286010742188,94428.671875,30.48,2.4686241149902344,66245,0.0,28.02182960510254,1,94428.671875,11.599525,1,11.53863525390625,6.53863525390625,5.0,1,6.53863525390625
1778627326.039509,66245158,1,6.52398681640625,590.6139526367188,94427.5703125,30.48,2.4686241149902344,66245,0.0,28.02182960510254,1,94427.5703125,11.599525,1,11.52398681640625,6.52398681640625,5.0,1,6.52398681640625
1778627326.1394691,66345118,0,6.7769775390625,590.866943359375,94425.96875,30.48,2.473716735839844,66345,0.0,28.02182960510254,1,94425.96875,11.699485,1,11.7769775390625,6.7769775390625,5.0,1,6.7769775390625
1778627326.1394691,66345118,1,6.7501220703125,590.840087890625,94424.9921875,30.48,2.473716735839844,66345,0.0,28.02182960510254,1,94424.9921875,11.699485,1,11.7501220703125,6.7501220703125,5.0,1,6.7501220703125
1778627326.239429,66445078,0,7.0264892578125,591.116455078125,94423.1328125,30.49,2.4764442443847656,66445,0.0,28.02182960510254,1,94423.1328125,11.799445,1,12.0264892578125,7.0264892578125,5.0,1,7.0264892578125
1778627326.239429,66445078,1,7.10614013671875,591.1961059570312,94420.9609375,30.48,2.4764442443847656,66445,0.0,28.02182960510254,1,94420.9609375,11.799445,1,12.10614013671875,7.10614013671875,5.0,1,7.10614013671875
1778627326.339389,66545038,0,7.26483154296875,591.3547973632812,94420.4296875,30.49,2.4612045288085938,66545,0.0,28.02182960510254,1,94420.4296875,11.899405,1,12.26483154296875,7.26483154296875,5.0,1,7.26483154296875
1778627326.339389,66545038,1,7.20037841796875,591.2903442382812,94419.890625,30.49,2.4612045288085938,66545,0.0,28.02182960510254,1,94419.890625,11.899405,1,12.20037841796875,7.20037841796875,5.0,1,7.20037841796875
1778627326.4393492,66644998,0,7.514892578125,591.6048583984375,94417.59375,30.49,2.4456303119659424,66644,0.0,28.02182960510254,1,94417.59375,11.999365,1,12.514892578125,7.514892578125,5.0,1,7.514892578125
1778627326.4393492,66644998,1,7.411865234375,591.5018310546875,94417.4921875,30.49,2.4456303119659424,66644,0.0,28.02182960510254,1,94417.4921875,11.999365,1,12.411865234375,7.411865234375,5.0,1,7.411865234375
1778627326.539309,66744958,0,7.76788330078125,591.8578491210938,94414.71875,30.49,2.4487078189849854,66744,0.0,28.02182960510254,1,94414.71875,12.099325,1,12.76788330078125,7.76788330078125,5.0,1,7.76788330078125
1778627326.539309,66744958,1,7.68829345703125,591.7782592773438,94414.359375,30.49,2.4487078189849854,66744,0.0,28.02182960510254,1,94414.359375,12.099325,1,12.68829345703125,7.68829345703125,5.0,1,7.68829345703125
1778627326.639269,66844918,0,8.00616455078125,592.0961303710938,94412.0234375,30.49,2.468070268630981,66844,0.0,28.02182960510254,1,94412.0234375,12.199285,1,13.00616455078125,8.00616455078125,5.0,1,8.00616455078125
1778627326.639269,66844918,1,7.75323486328125,591.8432006835938,94413.6171875,30.49,2.468070268630981,66844,0.0,28.02182960510254,1,94413.6171875,12.199285,1,12.75323486328125,7.75323486328125,5.0,1,7.75323486328125
1778627326.7392292,66944878,0,8.2562255859375,592.34619140625,94409.1796875,30.49,2.480668306350708,66944,0.0,28.02182960510254,1,94409.1796875,12.299245,1,13.2562255859375,8.2562255859375,5.0,1,8.2562255859375
1778627326.7392292,66944878,1,8.1444091796875,592.234375,94409.1796875,30.49,2.480668306350708,66944,0.0,28.02182960510254,1,94409.1796875,12.299245,1,13.1444091796875,8.1444091796875,5.0,1,8.1444091796875
1778627326.839189,67044838,0,8.49407958984375,592.5840454101562,94406.484375,30.49,2.469348430633545,67044,0.0,28.02182960510254,1,94406.484375,12.399205,1,13.49407958984375,8.49407958984375,5.0,1,8.49407958984375
1778627326.839189,67044838,1,8.32659912109375,592.4165649414062,94407.1171875,30.49,2.469348430633545,67044,0.0,28.02182960510254,1,94407.1171875,12.399205,1,13.32659912109375,8.32659912109375,5.0,1,8.32659912109375
1778627326.939982,67145631,0,8.744140625,592.8341064453125,94403.65625,30.49,2.449302673339844,67145,0.0,28.02182960510254,1,94403.65625,12.499998,1,13.744140625,8.744140625,5.0,1,8.744140625
1778627326.939982,67145631,1,8.685546875,592.7755126953125,94403.046875,30.49,2.449302673339844,67145,0.0,28.02182960510254,1,94403.046875,12.499998,1,13.685546875,8.685546875,5.0,1,8.685546875
1778627327.039942,67245591,0,8.994140625,593.0841064453125,94400.8125,30.49,2.4411418437957764,67245,0.0,28.02182960510254,1,94400.8125,12.599958,1,13.994140625,8.994140625,5.0,1,8.994140625
1778627327.039942,67245591,1,9.07037353515625,593.1603393554688,94398.6796875,30.49,2.4411418437957764,67245,0.0,28.02182960510254,1,94398.6796875,12.599958,1,14.07037353515625,9.07037353515625,5.0,1,9.07037353515625
1778627327.139902,67345551,0,9.2384033203125,593.328369140625,94398.0390625,30.49,2.449237823486328,67345,0.0,28.02182960510254,1,94398.0390625,12.699918,1,14.2384033203125,9.2384033203125,5.0,1,9.2384033203125
1778627327.139902,67345551,1,8.97955322265625,593.0695190429688,94399.7109375,30.49,2.449237823486328,67345,0.0,28.02182960510254,1,94399.7109375,12.699918,1,13.97955322265625,8.97955322265625,5.0,1,8.97955322265625
1778627327.2398622,67445511,0,9.4854736328125,593.575439453125,94395.2421875,30.49,2.4636335372924805,67445,0.0,28.02182960510254,1,94395.2421875,12.799878,1,14.4854736328125,9.4854736328125,5.0,1,9.4854736328125
1778627327.2398622,67445511,1,9.2940673828125,593.384033203125,94396.1484375,30.49,2.4636335372924805,67445,0.0,28.02182960510254,1,94396.1484375,12.799878,1,14.2940673828125,9.2940673828125,5.0,1,9.2940673828125
1778627327.339822,67545471,0,9.73553466796875,593.8255004882812,94392.40625,30.49,2.469952344894409,67545,0.0,28.02182960510254,1,94392.40625,12.899838,1,14.73553466796875,9.73553466796875,5.0,1,9.73553466796875
1778627327.339822,67545471,1,9.820556640625,593.9105224609375,94390.171875,30.49,2.469952344894409,67545,0.0,28.02182960510254,1,94390.171875,12.899838,1,14.820556640625,9.820556640625,5.0,1,9.820556640625
1778627327.439782,67645431,0,9.98504638671875,594.0750122070312,94389.578125,30.49,2.472102165222168,67645,0.0,28.02182960510254,1,94389.578125,12.999798,1,14.98504638671875,9.98504638671875,5.0,1,9.98504638671875
1778627327.439782,67645431,1,9.76483154296875,593.8547973632812,94390.8046875,30.5,2.472102165222168,67645,0.0,28.02182960510254,1,94390.8046875,12.999798,1,14.76483154296875,9.76483154296875,5.0,1,9.76483154296875
1778627327.539742,67745391,0,10.22344970703125,594.3134155273438,94386.8671875,30.5,2.4776840209960938,67745,0.0,28.02182960510254,1,94386.8671875,13.099758,1,15.22344970703125,10.22344970703125,5.0,1,10.22344970703125
1778627327.539742,67745391,1,10.102783203125,594.1927490234375,94386.9765625,30.5,2.4776840209960938,67745,0.0,28.02182960510254,1,94386.9765625,13.099758,1,15.102783203125,10.102783203125,5.0,1,10.102783203125
1778627327.639702,67845351,0,10.47637939453125,594.5663452148438,94384.0078125,30.5,2.4750900268554688,67845,0.0,28.02182960510254,1,94384.0078125,13.199718,1,15.47637939453125,10.47637939453125,5.0,1,10.47637939453125
1778627327.639702,67845351,1,10.27032470703125,594.3602905273438,94385.0703125,30.5,2.4750900268554688,67845,0.0,28.02182960510254,1,94385.0703125,13.199718,1,15.27032470703125,10.27032470703125,5.0,1,10.27032470703125
1778627327.739662,67945311,0,10.7264404296875,594.81640625,94381.171875,30.5,2.4660112857818604,67945,0.0,28.02182960510254,1,94381.171875,13.299678,1,15.7264404296875,10.7264404296875,5.0,1,10.7264404296875
1778627327.739662,67945311,1,10.5262451171875,594.6162109375,94382.1640625,30.5,2.4660112857818604,67945,0.0,28.02182960510254,1,94382.1640625,13.299678,1,15.5262451171875,10.5262451171875,5.0,1,10.5262451171875
1778627327.839622,68045271,0,10.9735107421875,595.0634765625,94378.359375,30.5,2.471351861953736,68045,0.0,28.02182960510254,1,94378.359375,13.399638,1,15.9735107421875,10.9735107421875,5.0,1,10.9735107421875
1778627327.839622,68045271,1,10.9764404296875,595.06640625,94377.0703125,30.5,2.471351861953736,68045,0.0,28.02182960510254,1,94377.0703125,13.399638,1,15.9764404296875,10.9764404296875,5.0,1,10.9764404296875
1778627327.939582,68145231,0,11.22943115234375,595.3193969726562,94375.46875,30.5,2.488346099853516,68145,0.0,28.02182960510254,1,94375.46875,13.499598,1,16.22943115234375,11.22943115234375,5.0,1,11.22943115234375
1778627327.939582,68145231,1,11.14404296875,595.2340087890625,94375.1640625,30.5,2.488346099853516,68145,0.0,28.02182960510254,1,94375.1640625,13.499598,1,16.14404296875,11.14404296875,5.0,1,11.14404296875
1778627328.0395422,68245191,0,11.47607421875,595.5660400390625,94372.6640625,30.5,2.5001909732818604,68245,0.0,28.02182960510254,1,94372.6640625,13.599558,1,16.47607421875,11.47607421875,5.0,1,11.47607421875
1778627328.0395422,68245191,1,11.3232421875,595.4132080078125,94373.1328125,30.5,2.5001909732818604,68245,0.0,28.02182960510254,1,94373.1328125,13.599558,1,16.3232421875,11.3232421875,5.0,1,11.3232421875
1778627328.139502,68345151,0,11.71734619140625,595.8073120117188,94369.9296875,30.5,2.502384185791016,68345,0.0,28.02182960510254,1,94369.9296875,13.699518,1,16.71734619140625,11.71734619140625,5.0,1,11.71734619140625
1778627328.139502,68345151,1,11.53515625,595.6251220703125,94370.7265625,30.5,2.502384185791016,68345,0.0,28.02182960510254,1,94370.7265625,13.699518,1,16.53515625,11.53515625,5.0,1,11.53515625
1778627328.239462,68445111,0,11.9644775390625,596.054443359375,94367.125,30.5,2.4889185428619385,68445,0.0,28.02182960510254,1,94367.125,13.799478,1,16.9644775390625,11.9644775390625,5.0,1,11.9644775390625
1778627328.239462,68445111,1,11.88189697265625,595.9718627929688,94366.796875,30.5,2.4889185428619385,68445,0.0,28.02182960510254,1,94366.796875,13.799478,1,16.88189697265625,11.88189697265625,5.0,1,11.88189697265625
1778627328.339422,68545071,0,12.2056884765625,596.295654296875,94364.390625,30.5,2.463340759277344,68545,0.0,28.02182960510254,1,94364.390625,13.899438,1,17.2056884765625,12.2056884765625,5.0,1,12.2056884765625
1778627328.339422,68545071,1,12.15545654296875,596.2454223632812,94363.6953125,30.5,2.463340759277344,68545,0.0,28.02182960510254,1,94363.6953125,13.899438,1,17.15545654296875,12.15545654296875,5.0,1,12.15545654296875
1778627328.439382,68645031,0,12.43524169921875,596.5252075195312,94361.796875,30.5,2.4402427673339844,68645,0.0,28.02182960510254,1,94361.796875,13.999398,1,17.43524169921875,12.43524169921875,5.0,1,12.43524169921875
1778627328.439382,68645031,1,12.458740234375,596.5487060546875,94360.265625,30.5,2.4402427673339844,68645,0.0,28.02182960510254,1,94360.265625,13.999398,1,17.458740234375,12.458740234375,5.0,1,12.458740234375
1778627328.539342,68744991,0,12.65545654296875,596.7454223632812,94359.296875,30.5,2.4083707332611084,68744,0.0,28.02182960510254,1,94359.296875,14.099358,1,17.65545654296875,12.65545654296875,5.0,1,12.65545654296875
1778627328.539342,68744991,1,12.708251953125,596.7982177734375,94357.421875,30.5,2.4083707332611084,68744,0.0,28.02182960510254,1,94357.421875,14.099358,1,17.708251953125,12.708251953125,5.0,1,12.708251953125
1778627328.639302,68844951,0,12.867431640625,596.9573974609375,94356.890625,30.5,2.346670866012573,68844,0.0,28.02182960510254,1,94356.890625,14.199318,1,17.867431640625,12.867431640625,5.0,1,12.867431640625
1778627328.639302,68844951,1,12.56414794921875,596.6541137695312,94359.0546875,30.5,2.346670866012573,68844,0.0,28.02182960510254,1,94359.0546875,14.199318,1,17.56414794921875,12.56414794921875,5.0,1,12.56414794921875
1778627328.739262,68944911,0,13.07305908203125,597.1630249023438,94354.5546875,30.5,2.2621829509735107,68944,0.0,28.02182960510254,1,94354.5546875,14.299278,1,18.07305908203125,13.07305908203125,5.0,1,13.07305908203125
1778627328.739262,68944911,1,12.84063720703125,596.9306030273438,94355.9296875,30.5,2.2621829509735107,68944,0.0,28.02182960510254,1,94355.9296875,14.299278,1,17.84063720703125,12.84063720703125,5.0,1,12.84063720703125
1778627328.839222,69044871,0,13.2674560546875,597.357421875,94352.359375,30.51,2.1734814643859863,69044,0.0,28.02182960510254,1,94352.359375,14.399238,1,18.2674560546875,13.2674560546875,5.0,1,13.2674560546875
1778627328.839222,69044871,1,13.1497802734375,597.23974609375,94352.421875,30.51,2.1734814643859863,69044,0.0,28.02182960510254,1,94352.421875,14.399238,1,18.1497802734375,13.1497802734375,5.0,1,13.1497802734375
1778627328.939182,69144831,0,13.4437255859375,597.53369140625,94350.359375,30.51,2.082911491394043,69144,0.0,28.02182960510254,1,94350.359375,14.499198,1,18.4437255859375,13.4437255859375,5.0,1,13.4437255859375
1778627328.939182,69144831,1,13.3231201171875,597.4130859375,94350.453125,30.51,2.082911491394043,69144,0.0,28.02182960510254,1,94350.453125,14.499198,1,18.3231201171875,13.3231201171875,5.0,1,13.3231201171875
