timestamp,TimeUS,I,Status,GMS,GWk,NSats,HDop,Lat,Lng,Alt,Spd,GCrs,VZ,Yaw,U,TimeSec,AttackActive_GPS,Lat_attacked,Lng_attacked,SoftwareSensor_Lat,Residual_Lat,DetectionFlag_Lat,Recovered_Lat,SoftwareSensor_Lng,Residual_Lng,DetectionFlag_Lng,Recovered_Lng
1778782185.2,68385135,0,6,411003200,2418,10,1.21,-35.3632621,149.1652374,584.09,0.0,0.0,0.0,0.0,1,0.0,0,-35.3632621,149.1652374,-35.3632621,0.0,0,-35.3632621,149.1652374,0.0,0,149.1652374
1778782185.3999202,68585055,0,6,411003400,2418,10,1.21,-35.3632621,149.1652374,584.09,0.0,0.0,0.0,0.0,1,0.19992,0,-35.3632621,149.1652374,-35.3632621,0.0,0,-35.3632621,149.1652374,0.0,0,149.1652374
1778782185.59984,68784975,0,6,411003600,2418,10,1.21,-35.3632621,149.1652374,584.09,0.0,0.0,0.0,0.0,1,0.39984,0,-35.3632621,149.1652374,-35.3632621,0.0,0,-35.3632621,149.1652374,0.0,0,149.1652374
1778782185.79976,68984895,0,6,411003800,2418,10,1.21,-35.3632621,149.1652374,584.09,0.0,0.0,0.0,0.0,1,0.59976,0,-35.3632621,149.1652374,-35.3632621,0.0,0,-35.3632621,149.1652374,0.0,0,149.1652374
1778782185.99968,69184815,0,6,411004000,2418,10,1.21,-35.3632621,149.1652374,584.09,0.0,0.0,0.0,0.0,1,0.79968,0,-35.3632621,149.1652374,-35.3632621,0.0,0,-35.3632621,149.1652374,0.0,0,149.1652374
1778782186.1996002,69384735,0,6,411004200,2418,10,1.21,-35.3632621,149.1652374,584.09,0.0,0.0,0.0,0.0,1,0.9996,0,-35.3632621,149.1652374,-35.3632621,0.0,0,-35.3632621,149.1652374,0.0,0,149.1652374
1778782186.39952,69584655,0,6,411004400,2418,10,1.21,-35.3632621,149.1652374,584.09,0.0,0.0,0.0,0.0,1,1.19952,0,-35.3632621,149.1652374,-35.3632621,0.0,0,-35.3632621,149.1652374,0.0,0,149.1652374
1778782186.59944,69784575,0,6,411004600,2418,10,1.21,-35.3632621,149.1652374,584.09,0.0,0.0,0.0,0.0,1,1.39944,0,-35.3632621,149.1652374,-35.3632621,0.0,0,-35.3632621,149.1652374,0.0,0,149.1652374
1778782186.79936,69984495,0,6,411004800,2418,10,1.21,-35.3632621,149.1652374,584.09,0.0,0.0,0.0,0.0,1,1.59936,0,-35.3632621,149.1652374,-35.3632621,0.0,0,-35.3632621,149.1652374,0.0,0,149.1652374
1778782186.9992802,70184415,0,6,411005000,2418,10,1.21,-35.3632621,149.1652374,584.09,0.0,0.0,0.0,0.0,1,1.79928,0,-35.3632621,149.1652374,-35.3632621,0.0,0,-35.3632621,149.1652374,0.0,0,149.1652374
1778782187.2000332,70385168,0,6,411005200,2418,10,1.21,-35.3632621,149.1652374,584.09,0.0,0.0,0.0,0.0,1,2.000033,0,-35.3632621,149.1652374,-35.3632621,0.0,0,-35.3632621,149.1652374,0.0,0,149.1652374
1778782187.3999531,70585088,0,6,411005400,2418,10,1.21,-35.3632621,149.1652374,584.09,0.0,0.0,0.0,0.0,1,2.199953,0,-35.3632621,149.1652374,-35.3632621,0.0,0,-35.3632621,149.1652374,0.0,0,149.1652374
1778782187.599873,70785008,0,6,411005600,2418,10,1.21,-35.3632621,149.1652374,584.09,0.0,0.0,0.0,0.0,1,2.399873,0,-35.3632621,149.1652374,-35.3632621,0.0,0,-35.3632621,149.1652374,0.0,0,149.1652374
1778782187.799793,70984928,0,6,411005800,2418,10,1.21,-35.3632621,149.1652374,584.09,0.0,0.0,0.0,0.0,1,2.599793,0,-35.3632621,149.1652374,-35.3632621,0.0,0,-35.3632621,149.1652374,0.0,0,149.1652374
1778782187.9997132,71184848,0,6,411006000,2418,10,1.21,-35.3632621,149.1652374,584.09,0.0,0.0,0.0,0.0,1,2.799713,0,-35.3632621,149.1652374,-35.3632621,0.0,0,-35.3632621,149.1652374,0.0,0,149.1652374
1778782188.1996331,71384768,0,6,411006200,2418,10,1.21,-35.3632621,149.1652374,584.09,0.0,0.0,0.0,0.0,1,2.999633,0,-35.3632621,149.1652374,-35.3632621,0.0,0,-35.3632621,149.1652374,0.0,0,149.1652374
1778782188.399553,71584688,0,6,411006400,2418,10,1.21,-35.3632621,149.1652374,584.09,0.0,0.0,0.0,0.0,1,3.199553,0,-35.3632621,149.1652374,-35.3632621,0.0,0,-35.3632621,149.1652374,0.0,0,149.1652374
1778782188.599473,71784608,0,6,411006600,2418,10,1.21,-35.3632621,149.1652374,584.09,0.0,0.0,0.0,0.0,1,3.399473,0,-35.3632621,149.1652374,-35.3632621,0.0,0,-35.3632621,149.1652374,0.0,0,149.1652374
1778782188.7993932,71984528,0,6,411006800,2418,10,1.21,-35.3632621,149.1652374,584.09,0.0,0.0,0.0,0.0,1,3.599393,0,-35.3632621,149.1652374,-35.3632621,0.0,0,-35.3632621,149.1652374,0.0,0,149.1652374
1778782188.999313,72184448,0,6,411007000,2418,10,1.21,-35.3632621,149.1652374,584.09,0.0,0.0,0.0,0.0,1,3.799313,0,-35.3632621,149.1652374,-35.3632621,0.0,0,-35.3632621,149.1652374,0.0,0,149.1652374
1778782189.199233,72384368,0,6,411007200,2418,10,1.21,-35.3632621,149.1652374,584.09,0.0,0.0,0.0,0.0,1,3.999233,0,-35.3632621,149.1652374,-35.3632621,0.0,0,-35.3632621,149.1652374,0.0,0,149.1652374
1778782189.399986,72585121,0,6,411007400,2418,10,1.21,-35.3632621,149.1652374,584.09,0.0,0.0,0.0,0.0,1,4.199986,0,-35.3632621,149.1652374,-35.3632621,0.0,0,-35.3632621,149.1652374,0.0,0,149.1652374
1778782189.5999062,72785041,0,6,411007600,2418,10,1.21,-35.3632621,149.1652374,584.09,0.0,0.0,0.0,0.0,1,4.399906,0,-35.3632621,149.1652374,-35.3632621,0.0,0,-35.3632621,149.1652374,0.0,0,149.1652374
1778782189.799826,72984961,0,6,411007800,2418,10,1.21,-35.3632621,149.1652374,584.09,0.0,0.0,0.0,0.0,1,4.599826,0,-35.3632621,149.1652374,-35.3632621,0.0,0,-35.3632621,149.1652374,0.0,0,149.1652374
1778782189.999746,73184881,0,6,411008000,2418,10,1.21,-35.3632621,149.1652374,584.09,0.0,0.0,0.0,0.0,1,4.799746,0,-35.3632621,149.1652374,-35.3632621,0.0,0,-35.3632621,149.1652374,0.0,0,149.1652374
1778782190.199666,73384801,0,6,411008200,2418,10,1.21,-35.3632621,149.1652374,584.09,0.0,0.0,0.0,0.0,1,4.999666,0,-35.3632621,149.1652374,-35.3632621,0.0,0,-35.3632621,149.1652374,0.0,0,149.1652374
1778782190.3995862,73584721,0,6,411008400,2418,10,1.21,-35.3632621,149.1652374,584.09,0.0,126.75405883789062,0.0,0.0,1,5.199586,0,-35.3632621,149.1652374,-35.3632621,0.0,0,-35.3632621,149.1652374,0.0,0,149.1652374
1778782190.599506,73784641,0,6,411008600,2418,10,1.21,-35.3632621,149.1652374,584.09,0.0,128.85446166992188,0.0,0.0,1,5.399506,0,-35.3632621,149.1652374,-35.3632621,0.0,0,-35.3632621,149.1652374,0.0,0,149.1652374
1778782190.799426,73984561,0,6,411008800,2418,10,1.21,-35.3632621,149.1652374,584.09,0.0,301.5785217285156,0.0,0.0,1,5.599426,0,-35.3632621,149.1652374,-35.3632621,0.0,0,-35.3632621,149.1652374,0.0,0,149.1652374
1778782190.999346,74184481,0,6,411009000,2418,10,1.21,-35.3632621,149.1652374,584.09,0.0,305.9856872558594,0.0,0.0,1,5.799346,0,-35.3632621,149.1652374,-35.3632621,0.0,0,-35.3632621,149.1652374,0.0,0,149.1652374
1778782191.1992662,74384401,0,6,411009200,2418,10,1.21,-35.3632621,149.1652374,584.09,0.0,306.8766784667969,-0.0460000038146972,0.0,1,5.999266,0,-35.3632621,149.1652374,-35.3632621,0.0,0,-35.3632621,149.1652374,0.0,0,149.1652374
1778782191.4000192,74585154,0,6,411009400,2418,10,1.21,-35.3632621,149.1652374,584.11,0.0,307.5263061523437,-0.1469999998807907,0.0,1,6.200019,0,-35.3632621,149.1652374,-35.3632621,0.0,0,-35.3632621,149.1652374,0.0,0,149.1652374
1778782191.599939,74785074,0,6,411009600,2418,10,1.21,-35.3632621,149.1652374,584.15,0.0,306.34259033203125,-0.2580000162124634,0.0,1,6.399939,0,-35.3632621,149.1652374,-35.3632621,0.0,0,-35.3632621,149.1652374,0.0,0,149.1652374
1778782191.799859,74984994,0,6,411009800,2418,10,1.21,-35.3632621,149.1652374,584.23,0.0010000000474974,306.4402160644531,-0.5910000205039978,0.0,1,6.599859,0,-35.3632621,149.1652374,-35.3632621,0.0,0,-35.3632621,149.1652374,0.0,0,149.1652374
1778782191.9997792,75184914,0,6,411010000,2418,10,1.21,-35.3632621,149.1652374,584.39,0.0080000003799796,307.03009033203125,-1.055999994277954,0.0,1,6.799779,0,-35.3632621,149.1652374,-35.3632621,0.0,0,-35.3632621,149.1652374,0.0,0,149.1652374
1778782192.1996992,75384834,0,6,411010200,2418,10,1.21,-35.3632621,149.1652374,584.63,0.021000001579523,307.125732421875,-1.1950000524520874,0.0,1,6.999699,0,-35.3632621,149.1652374,-35.3632621,0.0,0,-35.3632621,149.1652374,0.0,0,149.1652374
1778782192.399619,75584754,0,6,411010400,2418,10,1.21,-35.3632621,149.1652373,584.86,0.0340000018477439,307.03759765625,-1.1970000267028809,0.0,1,7.199619,0,-35.3632621,149.1652373,-35.3632621,0.0,0,-35.3632621,149.1652373,0.0,0,149.1652373
1778782192.599539,75784674,0,6,411010600,2418,10,1.21,-35.363262,149.1652373,585.11,0.0420000031590461,306.9924621582031,-1.3480000495910645,0.0,1,7.399539,0,-35.363262,149.1652373,-35.363262,0.0,0,-35.363262,149.1652373,0.0,0,149.1652373
1778782192.7994592,75984594,0,6,411010800,2418,10,1.21,-35.363262,149.1652372,585.4,0.0410000011324882,307.2059326171875,-1.5470000505447388,0.0,1,7.599459,0,-35.363262,149.1652372,-35.363262,0.0,0,-35.363262,149.1652372,0.0,0,149.1652372
1778782192.9993792,76184514,0,6,411011000,2418,10,1.21,-35.3632619,149.1652371,585.73,0.0360000021755695,307.8650817871094,-1.749000072479248,0.0,1,7.799379,0,-35.3632619,149.1652371,-35.3632619,0.0,0,-35.3632619,149.1652371,0.0,0,149.1652371
1778782193.199299,76384434,0,6,411011200,2418,10,1.21,-35.3632619,149.165237,586.1,0.0290000010281801,309.1060791015625,-1.9580000638961792,0.0,1,7.999299,0,-35.3632619,149.165237,-35.3632619,0.0,0,-35.3632619,149.165237,0.0,0,149.165237
1778782193.400052,76585187,0,6,411011400,2418,10,1.21,-35.3632619,149.165237,586.52,0.021000001579523,311.1820983886719,-2.1700000762939453,0.0,1,8.200052,0,-35.3632619,149.165237,-35.3632619,0.0,0,-35.3632619,149.165237,0.0,0,149.165237
1778782193.599972,76785107,0,6,411011600,2418,10,1.21,-35.3632619,149.165237,586.97,0.0140000004321336,314.88824462890625,-2.3570001125335693,0.0,1,8.399972,0,-35.3632619,149.165237,-35.3632619,0.0,0,-35.3632619,149.165237,0.0,0,149.165237
1778782193.799892,76985027,0,6,411011800,2418,10,1.21,-35.3632619,149.165237,587.46,0.0080000003799796,322.0221252441406,-2.4750001430511475,0.0,1,8.599892,0,-35.3632619,149.165237,-35.3632619,0.0,0,-35.3632619,149.165237,0.0,0,149.165237
1778782193.999812,77184947,0,6,411012000,2418,10,1.21,-35.3632619,149.165237,587.96,0.003000000026077,340.2110900878906,-2.5230000019073486,0.0,1,8.799812,0,-35.3632619,149.165237,-35.3632619,0.0,0,-35.3632619,149.165237,0.0,0,149.165237
1778782194.199732,77384867,0,6,411012200,2418,10,1.21,-35.3632618,149.165237,588.46,0.0020000000949949,39.08324813842773,-2.5290000438690186,0.0,1,8.999732,0,-35.3632618,149.165237,-35.3632618,0.0,0,-35.3632618,149.165237,0.0,0,149.165237
1778782194.399652,77584787,0,6,411012400,2418,10,1.21,-35.3632617,149.165237,588.97,0.0020000000949949,81.31627655029297,-2.5160000324249268,0.0,1,9.199652,0,-35.3632617,149.165237,-35.3632617,0.0,0,-35.3632617,149.165237,0.0,0,149.165237
1778782194.599572,77784707,0,6,411012600,2418,10,1.21,-35.3632617,149.165237,589.47,0.003000000026077,95.1524658203125,-2.496000051498413,0.0,1,9.399572,0,-35.3632617,149.165237,-35.3632617,0.0,0,-35.3632617,149.165237,0.0,0,149.165237
1778782194.799492,77984627,0,6,411012800,2418,10,1.21,-35.3632618,149.165237,589.97,0.0040000001899898,106.44910430908205,-2.4770002365112305,0.0,1,9.599492,0,-35.3632618,149.165237,-35.3632618,0.0,0,-35.3632618,149.165237,0.0,0,149.165237
1778782194.999412,78184547,0,6,411013000,2418,10,1.21,-35.3632619,149.165237,590.46,0.006000000052154,118.06448364257812,-2.463000059127808,0.0,1,9.799412,0,-35.3632619,149.165237,-35.3632619,0.0,0,-35.3632619,149.165237,0.0,0,149.165237
1778782195.199332,78384467,0,6,411013200,2418,10,1.21,-35.3632619,149.165237,590.95,0.0070000002160668,128.99606323242188,-2.454000234603882,0.0,1,9.999332,0,-35.3632619,149.165237,-35.3632619,0.0,0,-35.3632619,149.165237,0.0,0,149.165237
1778782195.399252,78584387,0,6,411013400,2418,10,1.21,-35.3632619,149.165237,591.44,0.0090000005438923,137.61354064941406,-2.450000047683716,0.0,1,10.199252,1,-35.363141899999995,149.16511699999998,-35.3632619,0.0001200000000025625,1,-35.3632619,149.165237,0.00012000000000966793,1,149.165237
1778782195.6000051,78785140,0,6,411013600,2418,10,1.21,-35.3632619,149.165237,591.93,0.0110000008717179,141.37701416015625,-2.450000047683716,0.0,1,10.400005,1,-35.363141899999995,149.16511699999998,-35.3632619,0.0001200000000025625,1,-35.3632619,149.165237,0.00012000000000966793,1,149.165237
1778782195.799925,78985060,0,6,411013800,2418,10,1.21,-35.3632619,149.165237,592.42,0.0130000002682209,139.67564392089844,-2.453000068664551,0.0,1,10.599925,1,-35.363141899999995,149.16511699999998,-35.3632619,0.0001200000000025625,1,-35.3632619,149.165237,0.00012000000000966793,1,149.165237
1778782195.999845,79184980,0,6,411014000,2418,10,1.21,-35.3632619,149.165237,592.91,0.0150000005960464,135.6314697265625,-2.4570000171661377,0.0,1,10.799845,1,-35.363141899999995,149.16511699999998,-35.3632619,0.0001200000000025625,1,-35.3632619,149.165237,0.00012000000000966793,1,149.165237
1778782196.1997652,79384900,0,6,411014200,2418,10,1.21,-35.3632619,149.165237,593.4,0.0160000007599592,131.5244140625,-2.461000204086304,0.0,1,10.999765,1,-35.363141899999995,149.16511699999998,-35.3632619,0.0001200000000025625,1,-35.3632619,149.165237,0.00012000000000966793,1,149.165237
1778782196.3996851,79584820,0,6,411014400,2418,10,1.21,-35.3632619,149.165237,593.9,0.0180000010877847,127.94429779052734,-2.4660000801086426,0.0,1,11.199685,1,-35.363141899999995,149.16511699999998,-35.3632619,0.0001200000000025625,1,-35.3632619,149.165237,0.00012000000000966793,1,149.165237
1778782196.599605,79784740,0,6,411014600,2418,10,1.21,-35.3632619,149.165237,594.39,0.0190000012516975,125.052490234375,-2.470000028610229,0.0,1,11.399605,1,-35.363141899999995,149.16511699999998,-35.3632619,0.0001200000000025625,1,-35.3632619,149.165237,0.00012000000000966793,1,149.165237
1778782196.799525,79984660,0,6,411014800,2418,10,1.21,-35.3632619,149.1652371,594.89,0.0190000012516975,122.89008331298828,-2.4730000495910645,0.0,1,11.599525,1,-35.363141899999995,149.1651171,-35.3632619,0.0001200000000025625,1,-35.3632619,149.1652371,0.00012000000000966793,1,149.1652371
1778782196.9994452,80184580,0,6,411015000,2418,10,1.21,-35.3632619,149.1652372,595.38,0.0200000014156103,121.33781433105467,-2.4770002365112305,0.0,1,11.799445,1,-35.363141899999995,149.1651172,-35.3632619,0.0001200000000025625,1,-35.3632619,149.1652372,0.00012000000000966793,1,149.1652372
1778782197.1993651,80384500,0,6,411015200,2418,10,1.21,-35.3632619,149.1652372,595.88,0.0200000014156103,120.46573638916016,-2.4790000915527344,0.0,1,11.999365,1,-35.363141899999995,149.1651172,-35.3632619,0.0001200000000025625,1,-35.3632619,149.1652372,0.00012000000000966793,1,149.1652372
1778782197.399285,80584420,0,6,411015400,2418,10,1.21,-35.3632619,149.1652372,596.38,0.0190000012516975,120.72415924072266,-2.4810001850128174,0.0,1,12.199285,1,-35.363141899999995,149.1651172,-35.3632619,0.0001200000000025625,1,-35.3632619,149.1652372,0.00012000000000966793,1,149.1652372
1778782197.600038,80785173,0,6,411015600,2418,10,1.21,-35.363262,149.1652373,596.87,0.0180000010877847,122.52302551269533,-2.4830000400543213,0.0,1,12.400038,1,-35.363142,149.1651173,-35.363262,0.00011999999999545707,1,-35.363262,149.1652373,0.00012000000000966793,1,149.1652373
1778782197.7999582,80985093,0,6,411015800,2418,10,1.21,-35.363262,149.1652373,597.37,0.0150000005960464,126.00794982910156,-2.486000061035156,0.0,1,12.599958,1,-35.363142,149.1651173,-35.363262,0.00011999999999545707,1,-35.363262,149.1652373,0.00012000000000966793,1,149.1652373
1778782197.999878,81185013,0,6,411016000,2418,10,1.21,-35.363262,149.1652373,597.87,0.0130000002682209,131.3397216796875,-2.491000175476074,0.0,1,12.799878,1,-35.363142,149.1651173,-35.363262,0.00011999999999545707,1,-35.363262,149.1652373,0.00012000000000966793,1,149.1652373
1778782198.199798,81384933,0,6,411016200,2418,10,1.21,-35.363262,149.1652374,598.37,0.0100000007078051,138.7085723876953,-2.495000123977661,0.0,1,12.999798,1,-35.363142,149.1651174,-35.363262,0.00011999999999545707,1,-35.363262,149.1652374,0.00011999999998124622,1,149.1652374
1778782198.399718,81584853,0,6,411016400,2418,10,1.21,-35.363262,149.1652374,598.87,0.0080000003799796,148.41441345214844,-2.498000144958496,0.0,1,13.199718,1,-35.363142,149.1651174,-35.363262,0.00011999999999545707,1,-35.363262,149.1652374,0.00011999999998124622,1,149.1652374
1778782198.5996382,81784773,0,6,411016600,2418,10,1.21,-35.363262,149.1652374,599.37,0.0050000003539025,163.27203369140625,-2.501000165939331,0.0,1,13.399638,1,-35.363142,149.1651174,-35.363262,0.00011999999999545707,1,-35.363262,149.1652374,0.00011999999998124622,1,149.1652374
1778782198.799558,81984693,0,6,411016800,2418,10,1.21,-35.3632621,149.1652374,599.87,0.003000000026077,192.9681701660156,-2.503000020980835,0.0,1,13.599558,1,-35.3631421,149.1651174,-35.3632621,0.0001200000000025625,1,-35.3632621,149.1652374,0.00011999999998124622,1,149.1652374
1778782198.999478,82184613,0,6,411017000,2418,10,1.21,-35.3632621,149.1652374,600.37,0.0040000001899898,235.5189666748047,-2.505000114440918,0.0,1,13.799478,1,-35.3631421,149.1651174,-35.3632621,0.0001200000000025625,1,-35.3632621,149.1652374,0.00011999999998124622,1,149.1652374
1778782199.199398,82384533,0,6,411017200,2418,10,1.21,-35.3632621,149.1652374,600.87,0.006000000052154,259.99774169921875,-2.50600004196167,0.0,1,13.999398,1,-35.3631421,149.1651174,-35.3632621,0.0001200000000025625,1,-35.3632621,149.1652374,0.00011999999998124622,1,149.1652374
1778782199.3993182,82584453,0,6,411017400,2418,10,1.21,-35.3632621,149.1652374,601.37,0.0080000003799796,272.77362060546875,-2.507000207901001,0.0,1,14.199318,1,-35.3631421,149.1651174,-35.3632621,0.0001200000000025625,1,-35.3632621,149.1652374,0.00011999999998124622,1,149.1652374
1778782199.599238,82784373,0,6,411017600,2418,10,1.21,-35.3632621,149.1652374,601.87,0.0090000005438923,282.3946838378906,-2.50600004196167,0.0,1,14.399238,1,-35.3631421,149.1651174,-35.3632621,0.0001200000000025625,1,-35.3632621,149.1652374,0.00011999999998124622,1,149.1652374
1778782199.7999911,82985126,0,6,411017800,2418,10,1.21,-35.3632621,149.1652374,602.37,0.0100000007078051,289.9757995605469,-2.507000207901001,0.0,1,14.599991,1,-35.3631421,149.1651174,-35.3632621,0.0001200000000025625,1,-35.3632621,149.1652374,0.00011999999998124622,1,149.1652374
1778782199.999911,83185046,0,6,411018000,2418,10,1.21,-35.3632621,149.1652374,602.87,0.0120000001043081,295.6304016113281,-2.507000207901001,0.0,1,14.799911,1,-35.3631421,149.1651174,-35.3632621,0.0001200000000025625,1,-35.3632621,149.1652374,0.00011999999998124622,1,149.1652374
1778782200.199831,83384966,0,6,411018200,2418,10,1.21,-35.3632621,149.1652373,603.38,0.0130000002682209,299.8704833984375,-2.507000207901001,0.0,1,14.999831,1,-35.3631421,149.1651173,-35.3632621,0.0001200000000025625,1,-35.3632621,149.1652373,0.00012000000000966793,1,149.1652373
1778782200.3997512,83584886,0,6,411018400,2418,10,1.21,-35.3632621,149.1652373,603.88,0.0140000004321336,303.3065795898437,-2.507000207901001,0.0,1,15.199751,1,-35.3631421,149.1651173,-35.3632621,0.0001200000000025625,1,-35.3632621,149.1652373,0.00012000000000966793,1,149.1652373
1778782200.5996711,83784806,0,6,411018600,2418,10,1.21,-35.3632621,149.1652373,604.38,0.0150000005960464,306.22882080078125,-2.507000207901001,0.0,1,15.399671,1,-35.3631421,149.1651173,-35.3632621,0.0001200000000025625,1,-35.3632621,149.1652373,0.00012000000000966793,1,149.1652373
1778782200.799591,83984726,0,6,411018800,2418,10,1.21,-35.3632621,149.1652373,604.88,0.0160000007599592,308.9493103027344,-2.507000207901001,0.0,1,15.599591,1,-35.3631421,149.1651173,-35.3632621,0.0001200000000025625,1,-35.3632621,149.1652373,0.00012000000000966793,1,149.1652373
1778782200.999511,84184646,0,6,411019000,2418,10,1.21,-35.3632621,149.1652372,605.38,0.0160000007599592,311.667724609375,-2.502000093460083,0.0,1,15.799511,1,-35.3631421,149.1651172,-35.3632621,0.0001200000000025625,1,-35.3632621,149.1652372,0.00012000000000966793,1,149.1652372
1778782201.1994312,84384566,0,6,411019200,2418,10,1.21,-35.363262,149.1652372,605.88,0.0170000009238719,314.179443359375,-2.452000141143799,0.0,1,15.999431,1,-35.363142,149.1651172,-35.363262,0.00011999999999545707,1,-35.363262,149.1652372,0.00012000000000966793,1,149.1652372
1778782201.3993511,84584486,0,6,411019400,2418,10,1.21,-35.363262,149.1652372,606.36,0.0160000007599592,316.4222106933594,-2.328000068664551,0.0,1,16.199351,1,-35.363142,149.1651172,-35.363262,0.00011999999999545707,1,-35.363262,149.1652372,0.00012000000000966793,1,149.1652372
1778782201.599271,84784406,0,6,411019600,2418,10,1.21,-35.363262,149.1652372,606.8,0.0160000007599592,318.6010131835937,-2.150000095367432,0.0,1,16.399271,1,-35.363142,149.1651172,-35.363262,0.00011999999999545707,1,-35.363262,149.1652372,0.00012000000000966793,1,149.1652372
1778782201.800024,84985159,0,6,411019800,2418,10,1.21,-35.363262,149.1652371,607.21,0.0140000004321336,320.63934326171875,-1.943000078201294,0.0,1,16.600024,1,-35.363142,149.1651171,-35.363262,0.00011999999999545707,1,-35.363262,149.1652371,0.00012000000000966793,1,149.1652371
1778782201.9999442,85185079,0,6,411020000,2418,10,1.21,-35.363262,149.165237,607.58,0.0120000001043081,322.3037109375,-1.724000096321106,0.0,1,16.799944,1,-35.363142,149.16511699999998,-35.363262,0.00011999999999545707,1,-35.363262,149.165237,0.00012000000000966793,1,149.165237
1778782202.199864,85384999,0,6,411020200,2418,10,1.21,-35.3632619,149.165237,607.91,0.0110000008717179,323.4873046875,-1.503000020980835,0.0,1,16.999864,1,-35.363141899999995,149.16511699999998,-35.3632619,0.0001200000000025625,1,-35.3632619,149.165237,0.00012000000000966793,1,149.165237
1778782202.399784,85584919,0,6,411020400,2418,10,1.21,-35.3632619,149.165237,608.18,0.0090000005438923,325.1558532714844,-1.2850000858306885,0.0,1,17.199784,1,-35.363141899999995,149.16511699999998,-35.3632619,0.0001200000000025625,1,-35.3632619,149.165237,0.00012000000000966793,1,149.165237
1778782202.599704,85784839,0,6,411020600,2418,10,1.21,-35.3632619,149.165237,608.42,0.006000000052154,331.5394592285156,-1.0720000267028809,0.0,1,17.399704,1,-35.363141899999995,149.16511699999998,-35.3632619,0.0001200000000025625,1,-35.3632619,149.165237,0.00012000000000966793,1,149.165237
1778782202.7996242,85984759,0,6,411020800,2418,10,1.21,-35.3632619,149.165237,608.61,0.0040000001899898,351.2100524902344,-0.8650000691413879,0.0,1,17.599624,1,-35.363141899999995,149.16511699999998,-35.3632619,0.0001200000000025625,1,-35.3632619,149.165237,0.00012000000000966793,1,149.165237
1778782202.999544,86184679,0,6,411021000,2418,10,1.21,-35.3632619,149.165237,608.76,0.0040000001899898,26.714609146118164,-0.6630000472068787,0.0,1,17.799544,1,-35.363141899999995,149.16511699999998,-35.3632619,0.0001200000000025625,1,-35.3632619,149.165237,0.00012000000000966793,1,149.165237
1778782203.199464,86384599,0,6,411021200,2418,10,1.21,-35.3632619,149.165237,608.88,0.0040000001899898,52.187618255615234,-0.4650000333786011,0.0,1,17.999464,1,-35.363141899999995,149.16511699999998,-35.3632619,0.0001200000000025625,1,-35.3632619,149.165237,0.00012000000000966793,1,149.165237
1778782203.399384,86584519,0,6,411021400,2418,10,1.21,-35.3632619,149.165237,608.95,0.0050000003539025,65.95459747314453,-0.2680000066757202,0.0,1,18.199384,1,-35.363141899999995,149.16511699999998,-35.3632619,0.0001200000000025625,1,-35.3632619,149.165237,0.00012000000000966793,1,149.165237
1778782203.5993042,86784439,0,6,411021600,2418,10,1.21,-35.3632619,149.165237,608.99,0.006000000052154,76.13811492919922,-0.096000000834465,0.0,1,18.399304,1,-35.363141899999995,149.16511699999998,-35.3632619,0.0001200000000025625,1,-35.3632619,149.165237,0.00012000000000966793,1,149.165237
1778782203.799224,86984359,0,6,411021800,2418,10,1.21,-35.3632619,149.165237,608.99,0.006000000052154,82.9830551147461,0.0090000005438923,0.0,1,18.599224,1,-35.363141899999995,149.16511699999998,-35.3632619,0.0001200000000025625,1,-35.3632619,149.165237,0.00012000000000966793,1,149.165237
1778782203.999977,87185112,0,6,411022000,2418,10,1.21,-35.3632619,149.165237,608.98,0.0050000003539025,84.38330841064453,0.0460000038146972,0.0,1,18.799977,1,-35.363141899999995,149.16511699999998,-35.3632619,0.0001200000000025625,1,-35.3632619,149.165237,0.00012000000000966793,1,149.165237
1778782204.199897,87385032,0,6,411022200,2418,10,1.21,-35.3632619,149.165237,608.97,0.0040000001899898,79.74479675292969,0.0440000034868717,0.0,1,18.999897,1,-35.363141899999995,149.16511699999998,-35.3632619,0.0001200000000025625,1,-35.3632619,149.165237,0.00012000000000966793,1,149.165237
1778782204.3998172,87584952,0,6,411022400,2418,10,1.21,-35.3632619,149.165237,608.97,0.003000000026077,67.07162475585938,0.0240000002086162,0.0,1,19.199817,1,-35.363141899999995,149.16511699999998,-35.3632619,0.0001200000000025625,1,-35.3632619,149.165237,0.00012000000000966793,1,149.165237
1778782204.5997372,87784872,0,6,411022600,2418,10,1.21,-35.3632619,149.165237,608.97,0.003000000026077,45.95840835571289,0.0010000000474974,0.0,1,19.399737,1,-35.363141899999995,149.16511699999998,-35.3632619,0.0001200000000025625,1,-35.3632619,149.165237,0.00012000000000966793,1,149.165237
1778782204.799657,87984792,0,6,411022800,2418,10,1.21,-35.3632619,149.165237,608.97,0.003000000026077,26.53349876403809,-0.0190000012516975,0.0,1,19.599657,1,-35.363141899999995,149.16511699999998,-35.3632619,0.0001200000000025625,1,-35.3632619,149.165237,0.00012000000000966793,1,149.165237
1778782204.999577,88184712,0,6,411023000,2418,10,1.21,-35.3632619,149.165237,608.97,0.0040000001899898,17.569080352783203,-0.0340000018477439,0.0,1,19.799577,1,-35.363141899999995,149.16511699999998,-35.3632619,0.0001200000000025625,1,-35.3632619,149.165237,0.00012000000000966793,1,149.165237
1778782205.1994972,88384632,0,6,411023200,2418,10,1.21,-35.3632619,149.165237,608.98,0.0040000001899898,16.112659454345703,-0.0420000031590461,0.0,1,19.999497,1,-35.363141899999995,149.16511699999998,-35.3632619,0.0001200000000025625,1,-35.3632619,149.165237,0.00012000000000966793,1,149.165237
1778782205.3994172,88584552,0,6,411023400,2418,10,1.21,-35.3632619,149.165237,608.99,0.0050000003539025,15.880779266357422,-0.0450000017881393,0.0,1,20.199417,0,-35.3632619,149.165237,-35.3632619,0.0,0,-35.3632619,149.165237,0.0,0,149.165237
1778782205.599337,88784472,0,6,411023600,2418,10,1.21,-35.3632618,149.165237,609.0,0.0050000003539025,18.381568908691406,-0.0440000034868717,0.0,1,20.399337,0,-35.3632618,149.165237,-35.3632618,0.0,0,-35.3632618,149.165237,0.0,0,149.165237
1778782205.799257,88984392,0,6,411023800,2418,10,1.21,-35.3632617,149.165237,609.01,0.0050000003539025,24.670259475708008,-0.0400000028312206,0.0,1,20.599257,0,-35.3632617,149.165237,-35.3632617,0.0,0,-35.3632617,149.165237,0.0,0,149.165237
1778782206.00001,89185145,0,6,411024000,2418,10,1.21,-35.3632617,149.165237,609.02,0.0050000003539025,31.6747989654541,-0.0340000018477439,0.0,1,20.80001,0,-35.3632617,149.165237,-35.3632617,0.0,0,-35.3632617,149.165237,0.0,0,149.165237
1778782206.19993,89385065,0,6,411024200,2418,10,1.21,-35.3632617,149.165237,609.02,0.0040000001899898,43.15945816040039,-0.0280000008642673,0.0,1,20.99993,0,-35.3632617,149.165237,-35.3632617,0.0,0,-35.3632617,149.165237,0.0,0,149.165237
1778782206.39985,89584985,0,6,411024400,2418,10,1.21,-35.3632617,149.165237,609.03,0.003000000026077,68.64894104003906,-0.0230000019073486,0.0,1,21.19985,0,-35.3632617,149.165237,-35.3632617,0.0,0,-35.3632617,149.165237,0.0,0,149.165237
1778782206.59977,89784905,0,6,411024600,2418,10,1.21,-35.3632617,149.165237,609.03,0.0040000001899898,109.2290267944336,-0.0200000014156103,0.0,1,21.39977,0,-35.3632617,149.165237,-35.3632617,0.0,0,-35.3632617,149.165237,0.0,0,149.165237
1778782206.79969,89984825,0,6,411024800,2418,10,1.21,-35.3632617,149.165237,609.04,0.006000000052154,136.08807373046875,-0.0180000010877847,0.0,1,21.59969,0,-35.3632617,149.165237,-35.3632617,0.0,0,-35.3632617,149.165237,0.0,0,149.165237
1778782206.99961,90184745,0,6,411025000,2418,10,1.21,-35.3632617,149.165237,609.04,0.0090000005438923,146.8011016845703,-0.0170000009238719,0.0,1,21.79961,0,-35.3632617,149.165237,-35.3632617,0.0,0,-35.3632617,149.165237,0.0,0,149.165237
1778782207.19953,90384665,0,6,411025200,2418,10,1.21,-35.3632617,149.1652371,609.04,0.0120000001043081,150.04685974121094,-0.0160000007599592,0.0,1,21.99953,0,-35.3632617,149.1652371,-35.3632617,0.0,0,-35.3632617,149.1652371,0.0,0,149.1652371
1778782207.39945,90584585,0,6,411025400,2418,10,1.21,-35.3632617,149.1652372,609.05,0.0130000002682209,150.15196228027344,-0.0150000005960464,0.0,1,22.19945,0,-35.3632617,149.1652372,-35.3632617,0.0,0,-35.3632617,149.1652372,0.0,0,149.1652372
1778782207.59937,90784505,0,6,411025600,2418,10,1.21,-35.3632617,149.1652372,609.05,0.0130000002682209,149.13194274902344,-0.0130000002682209,0.0,1,22.39937,0,-35.3632617,149.1652372,-35.3632617,0.0,0,-35.3632617,149.1652372,0.0,0,149.1652372
1778782207.79929,90984425,0,6,411025800,2418,10,1.21,-35.3632617,149.1652372,609.05,0.0130000002682209,147.73248291015625,-0.0130000002682209,0.0,1,22.59929,0,-35.3632617,149.1652372,-35.3632617,0.0,0,-35.3632617,149.1652372,0.0,0,149.1652372
1778782208.0000432,91185178,0,6,411026000,2418,10,1.21,-35.3632617,149.1652372,609.06,0.0130000002682209,148.13783264160156,-0.0120000001043081,0.0,1,22.800043,0,-35.3632617,149.1652372,-35.3632617,0.0,0,-35.3632617,149.1652372,0.0,0,149.1652372
1778782208.199963,91385098,0,6,411026200,2418,10,1.21,-35.3632618,149.1652372,609.06,0.0120000001043081,153.96250915527344,-0.0120000001043081,0.0,1,22.999963,0,-35.3632618,149.1652372,-35.3632618,0.0,0,-35.3632618,149.1652372,0.0,0,149.1652372
1778782208.399883,91585018,0,6,411026400,2418,10,1.21,-35.3632619,149.1652372,609.06,0.0120000001043081,166.76663208007812,-0.0120000001043081,0.0,1,23.199883,0,-35.3632619,149.1652372,-35.3632619,0.0,0,-35.3632619,149.1652372,0.0,0,149.1652372
1778782208.5998032,91784938,0,6,411026600,2418,10,1.21,-35.3632619,149.1652372,609.06,0.0120000001043081,182.0137176513672,-0.0110000008717179,0.0,1,23.399803,0,-35.3632619,149.1652372,-35.3632619,0.0,0,-35.3632619,149.1652372,0.0,0,149.1652372
1778782208.7997231,91984858,0,6,411026800,2418,10,1.21,-35.3632619,149.1652372,609.07,0.0120000001043081,194.5579376220703,-0.0110000008717179,0.0,1,23.599723,0,-35.3632619,149.1652372,-35.3632619,0.0,0,-35.3632619,149.1652372,0.0,0,149.1652372
1778782208.999643,92184778,0,6,411027000,2418,10,1.21,-35.3632619,149.1652372,609.07,0.0120000001043081,205.41883850097656,-0.0090000005438923,0.0,1,23.799643,0,-35.3632619,149.1652372,-35.3632619,0.0,0,-35.3632619,149.1652372,0.0,0,149.1652372
1778782209.199563,92384698,0,6,411027200,2418,10,1.21,-35.363262,149.1652372,609.07,0.0110000008717179,214.50289916992188,-0.0090000005438923,0.0,1,23.999563,0,-35.363262,149.1652372,-35.363262,0.0,0,-35.363262,149.1652372,0.0,0,149.1652372
1778782209.3994832,92584618,0,6,411027400,2418,10,1.21,-35.363262,149.1652372,609.07,0.0100000007078051,218.7600860595703,-0.0080000003799796,0.0,1,24.199483,0,-35.363262,149.1652372,-35.363262,0.0,0,-35.363262,149.1652372,0.0,0,149.1652372
1778782209.5994031,92784538,0,6,411027600,2418,10,1.21,-35.363262,149.1652372,609.07,0.0070000002160668,217.12185668945312,-0.0080000003799796,0.0,1,24.399403,0,-35.363262,149.1652372,-35.363262,0.0,0,-35.363262,149.1652372,0.0,0,149.1652372
1778782209.799323,92984458,0,6,411027800,2418,10,1.21,-35.363262,149.1652372,609.07,0.0040000001899898,205.34127807617188,-0.0070000002160668,0.0,1,24.599323,0,-35.363262,149.1652372,-35.363262,0.0,0,-35.363262,149.1652372,0.0,0,149.1652372
1778782209.999243,93184378,0,6,411028000,2418,10,1.21,-35.363262,149.1652372,609.08,0.0010000000474974,147.97035217285156,-0.0070000002160668,0.0,1,24.799243,0,-35.363262,149.1652372,-35.363262,0.0,0,-35.363262,149.1652372,0.0,0,149.1652372
1778782210.199996,93385131,0,6,411028200,2418,10,1.21,-35.363262,149.1652372,609.08,0.0020000000949949,79.10032653808594,-0.006000000052154,0.0,1,24.999996,0,-35.363262,149.1652372,-35.363262,0.0,0,-35.363262,149.1652372,0.0,0,149.1652372
1778782210.399916,93585051,0,6,411028400,2418,10,1.21,-35.363262,149.1652372,609.08,0.003000000026077,53.50317001342773,-0.006000000052154,0.0,1,25.199916,0,-35.363262,149.1652372,-35.363262,0.0,0,-35.363262,149.1652372,0.0,0,149.1652372
1778782210.599836,93784971,0,6,411028600,2418,10,1.21,-35.363262,149.1652372,609.08,0.003000000026077,32.730247497558594,-0.006000000052154,0.0,1,25.399836,0,-35.363262,149.1652372,-35.363262,0.0,0,-35.363262,149.1652372,0.0,0,149.1652372
1778782210.799756,93984891,0,6,411028800,2418,10,1.21,-35.363262,149.1652372,609.08,0.0040000001899898,15.930789947509766,-0.0050000003539025,0.0,1,25.599756,0,-35.363262,149.1652372,-35.363262,0.0,0,-35.363262,149.1652372,0.0,0,149.1652372
1778782210.9996762,94184811,0,6,411029000,2418,10,1.21,-35.363262,149.1652372,609.08,0.0040000001899898,7.481269836425781,-0.0050000003539025,0.0,1,25.799676,0,-35.363262,149.1652372,-35.363262,0.0,0,-35.363262,149.1652372,0.0,0,149.1652372
1778782211.199596,94384731,0,6,411029200,2418,10,1.21,-35.363262,149.1652372,609.08,0.0040000001899898,4.9143900871276855,-0.0050000003539025,0.0,1,25.999596,0,-35.363262,149.1652372,-35.363262,0.0,0,-35.363262,149.1652372,0.0,0,149.1652372
1778782211.399516,94584651,0,6,411029400,2418,10,1.21,-35.363262,149.1652372,609.09,0.0040000001899898,3.99088978767395,-0.0050000003539025,0.0,1,26.199516,0,-35.363262,149.1652372,-35.363262,0.0,0,-35.363262,149.1652372,0.0,0,149.1652372
1778782211.599436,94784571,0,6,411029600,2418,10,1.21,-35.363262,149.1652372,609.09,0.0040000001899898,4.788579940795898,-0.0050000003539025,0.0,1,26.399436,0,-35.363262,149.1652372,-35.363262,0.0,0,-35.363262,149.1652372,0.0,0,149.1652372
1778782211.7993562,94984491,0,6,411029800,2418,10,1.21,-35.363262,149.1652372,609.09,0.0040000001899898,7.1655097007751465,-0.0040000001899898,0.0,1,26.599356,0,-35.363262,149.1652372,-35.363262,0.0,0,-35.363262,149.1652372,0.0,0,149.1652372
1778782211.999276,95184411,0,6,411030000,2418,10,1.21,-35.363262,149.1652372,609.09,0.003000000026077,7.8507399559021,-0.0040000001899898,0.0,1,26.799276,0,-35.363262,149.1652372,-35.363262,0.0,0,-35.363262,149.1652372,0.0,0,149.1652372
1778782212.2000291,95385164,0,6,411030200,2418,10,1.21,-35.363262,149.1652372,609.09,0.003000000026077,3.0674498081207275,-0.003000000026077,0.0,1,27.000029,0,-35.363262,149.1652372,-35.363262,0.0,0,-35.363262,149.1652372,0.0,0,149.1652372
1778782212.399949,95585084,0,6,411030400,2418,10,1.21,-35.363262,149.1652372,609.09,0.003000000026077,353.6340637207031,-0.003000000026077,0.0,1,27.199949,0,-35.363262,149.1652372,-35.363262,0.0,0,-35.363262,149.1652372,0.0,0,149.1652372
1778782212.599869,95785004,0,6,411030600,2418,10,1.21,-35.363262,149.1652372,609.09,0.003000000026077,345.7961120605469,-0.0020000000949949,0.0,1,27.399869,0,-35.363262,149.1652372,-35.363262,0.0,0,-35.363262,149.1652372,0.0,0,149.1652372
1778782212.7997892,95984924,0,6,411030800,2418,10,1.21,-35.363262,149.1652372,609.09,0.003000000026077,346.00732421875,-0.0020000000949949,0.0,1,27.599789,0,-35.363262,149.1652372,-35.363262,0.0,0,-35.363262,149.1652372,0.0,0,149.1652372
1778782212.9997091,96184844,0,6,411031000,2418,10,1.21,-35.363262,149.1652372,609.09,0.003000000026077,5.303469657897949,-0.0010000000474974,0.0,1,27.799709,0,-35.363262,149.1652372,-35.363262,0.0,0,-35.363262,149.1652372,0.0,0,149.1652372
1778782213.199629,96384764,0,6,411031200,2418,10,1.21,-35.363262,149.1652372,609.09,0.003000000026077,30.89110946655273,-0.0010000000474974,0.0,1,27.999629,0,-35.363262,149.1652372,-35.363262,0.0,0,-35.363262,149.1652372,0.0,0,149.1652372
1778782213.399549,96584684,0,6,411031400,2418,10,1.21,-35.363262,149.1652372,609.09,0.0040000001899898,42.83266067504883,-0.0010000000474974,0.0,1,28.199549,0,-35.363262,149.1652372,-35.363262,0.0,0,-35.363262,149.1652372,0.0,0,149.1652372
1778782213.5994692,96784604,0,6,411031600,2418,10,1.21,-35.363262,149.1652372,609.09,0.0050000003539025,45.9911003112793,-0.0010000000474974,0.0,1,28.399469,0,-35.363262,149.1652372,-35.363262,0.0,0,-35.363262,149.1652372,0.0,0,149.1652372
1778782213.7993891,96984524,0,6,411031800,2418,10,1.21,-35.363262,149.1652372,609.09,0.0050000003539025,44.69379806518555,-0.0010000000474974,0.0,1,28.599389,0,-35.363262,149.1652372,-35.363262,0.0,0,-35.363262,149.1652372,0.0,0,149.1652372
1778782213.999309,97184444,0,6,411032000,2418,10,1.21,-35.363262,149.1652372,609.09,0.0050000003539025,40.99498748779297,-0.0010000000474974,0.0,1,28.799309,0,-35.363262,149.1652372,-35.363262,0.0,0,-35.363262,149.1652372,0.0,0,149.1652372
1778782214.199229,97384364,0,6,411032200,2418,10,1.21,-35.363262,149.1652372,609.09,0.0050000003539025,37.66275787353516,-0.0010000000474974,0.0,1,28.999229,0,-35.363262,149.1652372,-35.363262,0.0,0,-35.363262,149.1652372,0.0,0,149.1652372
1778782214.3999822,97585117,0,6,411032400,2418,10,1.21,-35.363262,149.1652372,609.09,0.0050000003539025,36.52909851074219,-0.0010000000474974,0.0,1,29.199982,0,-35.363262,149.1652372,-35.363262,0.0,0,-35.363262,149.1652372,0.0,0,149.1652372
1778782214.599902,97785037,0,6,411032600,2418,10,1.21,-35.3632619,149.1652373,609.09,0.0050000003539025,36.29471969604492,-0.0010000000474974,0.0,1,29.399902,0,-35.3632619,149.1652373,-35.3632619,0.0,0,-35.3632619,149.1652373,0.0,0,149.1652373
1778782214.799822,97984957,0,6,411032800,2418,10,1.21,-35.3632619,149.1652373,609.09,0.0050000003539025,34.94020080566406,-0.0010000000474974,0.0,1,29.599822,0,-35.3632619,149.1652373,-35.3632619,0.0,0,-35.3632619,149.1652373,0.0,0,149.1652373
1778782214.999742,98184877,0,6,411033000,2418,10,1.21,-35.3632619,149.1652373,609.09,0.0050000003539025,32.51377868652344,-0.0010000000474974,0.0,1,29.799742,0,-35.3632619,149.1652373,-35.3632619,0.0,0,-35.3632619,149.1652373,0.0,0,149.1652373
1778782215.1996622,98384797,0,6,411033200,2418,10,1.21,-35.3632619,149.1652373,609.09,0.003000000026077,28.002559661865234,-0.0010000000474974,0.0,1,29.999662,0,-35.3632619,149.1652373,-35.3632619,0.0,0,-35.3632619,149.1652373,0.0,0,149.1652373
1778782215.399582,98584717,0,6,411033400,2418,10,1.21,-35.3632619,149.1652373,609.09,0.0010000000474974,17.505048751831055,0.0,0.0,1,30.199582,0,-35.3632619,149.1652373,-35.3632619,0.0,0,-35.3632619,149.1652373,0.0,0,149.1652373
1778782215.599502,98784637,0,6,411033600,2418,10,1.21,-35.3632619,149.1652373,609.09,0.0,294.31689453125,0.0,0.0,1,30.399502,0,-35.3632619,149.1652373,-35.3632619,0.0,0,-35.3632619,149.1652373,0.0,0,149.1652373
1778782215.799422,98984557,0,6,411033800,2418,10,1.21,-35.3632619,149.1652373,609.1,0.0010000000474974,219.45494079589844,0.0,0.0,1,30.599422,0,-35.3632619,149.1652373,-35.3632619,0.0,0,-35.3632619,149.1652373,0.0,0,149.1652373
1778782215.9993422,99184477,0,6,411034000,2418,10,1.21,-35.3632619,149.1652373,609.1,0.0020000000949949,200.4524688720703,0.0,0.0,1,30.799342,0,-35.3632619,149.1652373,-35.3632619,0.0,0,-35.3632619,149.1652373,0.0,0,149.1652373
1778782216.199262,99384397,0,6,411034200,2418,10,1.21,-35.3632619,149.1652373,609.1,0.0020000000949949,185.34835815429688,0.0,0.0,1,30.999262,0,-35.3632619,149.1652373,-35.3632619,0.0,0,-35.3632619,149.1652373,0.0,0,149.1652373
1778782216.400015,99585150,0,6,411034400,2418,10,1.21,-35.3632619,149.1652373,609.1,0.003000000026077,180.054443359375,0.0,0.0,1,31.200015,0,-35.3632619,149.1652373,-35.3632619,0.0,0,-35.3632619,149.1652373,0.0,0,149.1652373
1778782216.599935,99785070,0,6,411034600,2418,10,1.21,-35.3632619,149.1652373,609.1,0.003000000026077,184.0595703125,0.0,0.0,1,31.399935,0,-35.3632619,149.1652373,-35.3632619,0.0,0,-35.3632619,149.1652373,0.0,0,149.1652373
1778782216.7998548,99984990,0,6,411034800,2418,10,1.21,-35.3632619,149.1652373,609.1,0.003000000026077,191.5114898681641,0.0,0.0,1,31.599855,0,-35.3632619,149.1652373,-35.3632619,0.0,0,-35.3632619,149.1652373,0.0,0,149.1652373
1778782216.9997752,100184910,0,6,411035000,2418,10,1.21,-35.3632619,149.1652373,609.1,0.003000000026077,197.80300903320312,0.0,0.0,1,31.799775,0,-35.3632619,149.1652373,-35.3632619,0.0,0,-35.3632619,149.1652373,0.0,0,149.1652373
1778782217.199695,100384830,0,6,411035200,2418,10,1.21,-35.3632619,149.1652373,609.1,0.003000000026077,201.20339965820312,0.0,0.0,1,31.999695,0,-35.3632619,149.1652373,-35.3632619,0.0,0,-35.3632619,149.1652373,0.0,0,149.1652373
1778782217.399615,100584750,0,6,411035400,2418,10,1.21,-35.3632619,149.1652373,609.09,0.0040000001899898,200.18621826171875,0.0010000000474974,0.0,1,32.199615,0,-35.3632619,149.1652373,-35.3632619,0.0,0,-35.3632619,149.1652373,0.0,0,149.1652373
1778782217.5995352,100784670,0,6,411035600,2418,10,1.21,-35.3632619,149.1652373,609.09,0.0040000001899898,199.06414794921875,0.0010000000474974,0.0,1,32.399535,0,-35.3632619,149.1652373,-35.3632619,0.0,0,-35.3632619,149.1652373,0.0,0,149.1652373
1778782217.7994552,100984590,0,6,411035800,2418,10,1.21,-35.3632619,149.1652373,609.09,0.0040000001899898,200.40554809570312,0.0010000000474974,0.0,1,32.599455,0,-35.3632619,149.1652373,-35.3632619,0.0,0,-35.3632619,149.1652373,0.0,0,149.1652373
1778782217.999375,101184510,0,6,411036000,2418,10,1.21,-35.3632619,149.1652373,609.09,0.0040000001899898,203.85096740722656,0.0010000000474974,0.0,1,32.799375,0,-35.3632619,149.1652373,-35.3632619,0.0,0,-35.3632619,149.1652373,0.0,0,149.1652373
1778782218.199295,101384430,0,6,411036200,2418,10,1.21,-35.3632619,149.1652373,609.09,0.0040000001899898,207.3138885498047,0.0010000000474974,0.0,1,32.999295,0,-35.3632619,149.1652373,-35.3632619,0.0,0,-35.3632619,149.1652373,0.0,0,149.1652373
1778782218.400048,101585183,0,6,411036400,2418,10,1.21,-35.3632619,149.1652373,609.09,0.0040000001899898,207.0175170898437,0.0010000000474974,0.0,1,33.200048,0,-35.3632619,149.1652373,-35.3632619,0.0,0,-35.3632619,149.1652373,0.0,0,149.1652373
1778782218.599968,101785103,0,6,411036600,2418,10,1.21,-35.3632619,149.1652373,609.09,0.0040000001899898,205.2814178466797,0.0010000000474974,0.0,1,33.399968,0,-35.3632619,149.1652373,-35.3632619,0.0,0,-35.3632619,149.1652373,0.0,0,149.1652373
1778782218.799888,101985023,0,6,411036800,2418,10,1.21,-35.3632619,149.1652373,609.09,0.0040000001899898,207.3080291748047,0.0010000000474974,0.0,1,33.599888,0,-35.3632619,149.1652373,-35.3632619,0.0,0,-35.3632619,149.1652373,0.0,0,149.1652373
1778782218.999808,102184943,0,6,411037000,2418,10,1.21,-35.3632619,149.1652373,609.09,0.0050000003539025,210.1323089599609,0.0010000000474974,0.0,1,33.799808,0,-35.3632619,149.1652373,-35.3632619,0.0,0,-35.3632619,149.1652373,0.0,0,149.1652373
1778782219.199728,102384863,0,6,411037200,2418,10,1.21,-35.3632619,149.1652373,609.09,0.0050000003539025,209.28240966796875,0.0010000000474974,0.0,1,33.999728,0,-35.3632619,149.1652373,-35.3632619,0.0,0,-35.3632619,149.1652373,0.0,0,149.1652373
1778782219.399648,102584783,0,6,411037400,2418,10,1.21,-35.3632619,149.1652373,609.09,0.0050000003539025,203.982666015625,0.0,0.0,1,34.199648,0,-35.3632619,149.1652373,-35.3632619,0.0,0,-35.3632619,149.1652373,0.0,0,149.1652373
1778782219.599568,102784703,0,6,411037600,2418,10,1.21,-35.3632619,149.1652373,609.09,0.0050000003539025,195.6475982666016,0.0,0.0,1,34.399568,0,-35.3632619,149.1652373,-35.3632619,0.0,0,-35.3632619,149.1652373,0.0,0,149.1652373
1778782219.799488,102984623,0,6,411037800,2418,10,1.21,-35.363262,149.1652373,609.09,0.0050000003539025,190.1735382080078,0.0,0.0,1,34.599488,0,-35.363262,149.1652373,-35.363262,0.0,0,-35.363262,149.1652373,0.0,0,149.1652373
1778782219.999408,103184543,0,6,411038000,2418,10,1.21,-35.363262,149.1652373,609.09,0.0050000003539025,190.90972900390625,0.0,0.0,1,34.799408,0,-35.363262,149.1652373,-35.363262,0.0,0,-35.363262,149.1652373,0.0,0,149.1652373
1778782220.199328,103384463,0,6,411038200,2418,10,1.21,-35.363262,149.1652373,609.09,0.0050000003539025,194.17449951171875,0.0010000000474974,0.0,1,34.999328,0,-35.363262,149.1652373,-35.363262,0.0,0,-35.363262,149.1652373,0.0,0,149.1652373
1778782220.399248,103584383,0,6,411038400,2418,10,1.21,-35.363262,149.1652373,609.09,0.0050000003539025,198.00048828125,0.0010000000474974,0.0,1,35.199248,0,-35.363262,149.1652373,-35.363262,0.0,0,-35.363262,149.1652373,0.0,0,149.1652373
1778782220.600001,103785136,0,6,411038600,2418,10,1.21,-35.363262,149.1652373,609.09,0.0040000001899898,202.74221801757807,0.0010000000474974,0.0,1,35.400001,0,-35.363262,149.1652373,-35.363262,0.0,0,-35.363262,149.1652373,0.0,0,149.1652373
1778782220.799921,103985056,0,6,411038800,2418,10,1.21,-35.363262,149.1652373,609.09,0.0020000000949949,209.4686584472656,0.0010000000474974,0.0,1,35.599921,0,-35.363262,149.1652373,-35.363262,0.0,0,-35.363262,149.1652373,0.0,0,149.1652373
1778782220.9998412,104184976,0,6,411039000,2418,10,1.21,-35.363262,149.1652373,609.09,0.0010000000474974,227.38563537597656,0.0010000000474974,0.0,1,35.799841,0,-35.363262,149.1652373,-35.363262,0.0,0,-35.363262,149.1652373,0.0,0,149.1652373
1778782221.1997612,104384896,0,6,411039200,2418,10,1.21,-35.363262,149.1652373,609.09,0.0,299.0144348144531,0.0010000000474974,0.0,1,35.999761,0,-35.363262,149.1652373,-35.363262,0.0,0,-35.363262,149.1652373,0.0,0,149.1652373
1778782221.399681,104584816,0,6,411039400,2418,10,1.21,-35.363262,149.1652373,609.09,0.0010000000474974,343.1244812011719,0.0010000000474974,0.0,1,36.199681,0,-35.363262,149.1652373,-35.363262,0.0,0,-35.363262,149.1652373,0.0,0,149.1652373
1778782221.599601,104784736,0,6,411039600,2418,10,1.21,-35.363262,149.1652373,609.09,0.0020000000949949,349.7508544921875,0.0010000000474974,0.0,1,36.399601,0,-35.363262,149.1652373,-35.363262,0.0,0,-35.363262,149.1652373,0.0,0,149.1652373
1778782221.7995212,104984656,0,6,411039800,2418,10,1.21,-35.363262,149.1652373,609.09,0.0020000000949949,343.6953125,0.0010000000474974,0.0,1,36.599521,0,-35.363262,149.1652373,-35.363262,0.0,0,-35.363262,149.1652373,0.0,0,149.1652373
1778782221.9994411,105184576,0,6,411040000,2418,10,1.21,-35.363262,149.1652373,609.09,0.0020000000949949,329.6711120605469,0.0010000000474974,0.0,1,36.799441,0,-35.363262,149.1652373,-35.363262,0.0,0,-35.363262,149.1652373,0.0,0,149.1652373
1778782222.199361,105384496,0,6,411040200,2418,10,1.21,-35.363262,149.1652373,609.09,0.0020000000949949,310.9721984863281,0.0010000000474974,0.0,1,36.999361,0,-35.363262,149.1652373,-35.363262,0.0,0,-35.363262,149.1652373,0.0,0,149.1652373
1778782222.399281,105584416,0,6,411040400,2418,10,1.21,-35.363262,149.1652373,609.09,0.0010000000474974,298.7831115722656,0.0010000000474974,0.0,1,37.199281,0,-35.363262,149.1652373,-35.363262,0.0,0,-35.363262,149.1652373,0.0,0,149.1652373
1778782222.600034,105785169,0,6,411040600,2418,10,1.21,-35.363262,149.1652373,609.09,0.0010000000474974,296.4664306640625,0.0010000000474974,0.0,1,37.400034,0,-35.363262,149.1652373,-35.363262,0.0,0,-35.363262,149.1652373,0.0,0,149.1652373
1778782222.799954,105985089,0,6,411040800,2418,10,1.21,-35.363262,149.1652373,609.09,0.0010000000474974,295.6340026855469,0.0010000000474974,0.0,1,37.599954,0,-35.363262,149.1652373,-35.363262,0.0,0,-35.363262,149.1652373,0.0,0,149.1652373
1778782222.999874,106185009,0,6,411041000,2418,10,1.21,-35.363262,149.1652373,609.09,0.0010000000474974,295.2475280761719,0.0010000000474974,0.0,1,37.799874,0,-35.363262,149.1652373,-35.363262,0.0,0,-35.363262,149.1652373,0.0,0,149.1652373
1778782223.199794,106384929,0,6,411041200,2418,10,1.21,-35.363262,149.1652373,609.09,0.0010000000474974,297.622802734375,0.0010000000474974,0.0,1,37.999794,0,-35.363262,149.1652373,-35.363262,0.0,0,-35.363262,149.1652373,0.0,0,149.1652373
1778782223.3997142,106584849,0,6,411041400,2418,10,1.21,-35.363262,149.1652373,609.09,0.0020000000949949,307.86334228515625,0.0010000000474974,0.0,1,38.199714,0,-35.363262,149.1652373,-35.363262,0.0,0,-35.363262,149.1652373,0.0,0,149.1652373
1778782223.599634,106784769,0,6,411041600,2418,10,1.21,-35.363262,149.1652373,609.09,0.0020000000949949,325.2765808105469,0.0010000000474974,0.0,1,38.399634,0,-35.363262,149.1652373,-35.363262,0.0,0,-35.363262,149.1652373,0.0,0,149.1652373
1778782223.799554,106984689,0,6,411041800,2418,10,1.21,-35.363262,149.1652373,609.09,0.0020000000949949,344.9851989746094,0.0010000000474974,0.0,1,38.599554,0,-35.363262,149.1652373,-35.363262,0.0,0,-35.363262,149.1652373,0.0,0,149.1652373
1778782223.999474,107184609,0,6,411042000,2418,10,1.21,-35.363262,149.1652373,609.09,0.003000000026077,356.3502502441406,0.0010000000474974,0.0,1,38.799474,0,-35.363262,149.1652373,-35.363262,0.0,0,-35.363262,149.1652373,0.0,0,149.1652373
1778782224.1993942,107384529,0,6,411042200,2418,10,1.21,-35.363262,149.1652373,609.09,0.003000000026077,357.7669372558594,0.0010000000474974,0.0,1,38.999394,0,-35.363262,149.1652373,-35.363262,0.0,0,-35.363262,149.1652373,0.0,0,149.1652373
1778782224.399314,107584449,0,6,411042400,2418,10,1.21,-35.363262,149.1652373,609.09,0.003000000026077,353.7214660644531,0.0010000000474974,0.0,1,39.199314,0,-35.363262,149.1652373,-35.363262,0.0,0,-35.363262,149.1652373,0.0,0,149.1652373
1778782224.599234,107784369,0,6,411042600,2418,10,1.21,-35.363262,149.1652373,609.09,0.003000000026077,349.1946716308594,0.0010000000474974,0.0,1,39.399234,0,-35.363262,149.1652373,-35.363262,0.0,0,-35.363262,149.1652373,0.0,0,149.1652373
1778782224.799987,107985122,0,6,411042800,2418,10,1.21,-35.363262,149.1652373,609.09,0.003000000026077,348.9541320800781,0.0010000000474974,0.0,1,39.599987,0,-35.363262,149.1652373,-35.363262,0.0,0,-35.363262,149.1652373,0.0,0,149.1652373
1778782224.999907,108185042,0,6,411043000,2418,10,1.21,-35.363262,149.1652373,609.09,0.0020000000949949,351.63287353515625,0.0010000000474974,0.0,1,39.799907,0,-35.363262,149.1652373,-35.363262,0.0,0,-35.363262,149.1652373,0.0,0,149.1652373
1778782225.1998272,108384962,0,6,411043200,2418,10,1.21,-35.363262,149.1652373,609.09,0.0010000000474974,348.1341247558594,0.0010000000474974,0.0,1,39.999827,0,-35.363262,149.1652373,-35.363262,0.0,0,-35.363262,149.1652373,0.0,0,149.1652373
1778782225.3997471,108584882,0,6,411043400,2418,10,1.21,-35.363262,149.1652373,609.08,0.0010000000474974,331.93896484375,0.0010000000474974,0.0,1,40.199747,0,-35.363262,149.1652373,-35.363262,0.0,0,-35.363262,149.1652373,0.0,0,149.1652373
1778782225.599667,108784802,0,6,411043600,2418,10,1.21,-35.363262,149.1652373,609.08,0.0010000000474974,326.9814453125,0.0010000000474974,0.0,1,40.399667,0,-35.363262,149.1652373,-35.363262,0.0,0,-35.363262,149.1652373,0.0,0,149.1652373
1778782225.799587,108984722,0,6,411043800,2418,10,1.21,-35.363262,149.1652373,609.08,0.0020000000949949,334.8724670410156,0.0010000000474974,0.0,1,40.599587,0,-35.363262,149.1652373,-35.363262,0.0,0,-35.363262,149.1652373,0.0,0,149.1652373
1778782225.9995072,109184642,0,6,411044000,2418,10,1.21,-35.363262,149.1652373,609.08,0.0020000000949949,341.5235290527344,0.0010000000474974,0.0,1,40.799507,0,-35.363262,149.1652373,-35.363262,0.0,0,-35.363262,149.1652373,0.0,0,149.1652373
1778782226.1994271,109384562,0,6,411044200,2418,10,1.21,-35.363262,149.1652372,609.08,0.0020000000949949,342.4487609863281,0.0,0.0,1,40.999427,0,-35.363262,149.1652372,-35.363262,0.0,0,-35.363262,149.1652372,0.0,0,149.1652372
1778782226.399347,109584482,0,6,411044400,2418,10,1.21,-35.363262,149.1652372,609.08,0.003000000026077,338.77459716796875,0.0,0.0,1,41.199347,0,-35.363262,149.1652372,-35.363262,0.0,0,-35.363262,149.1652372,0.0,0,149.1652372
1778782226.599267,109784402,0,6,411044600,2418,10,1.21,-35.363262,149.1652372,609.08,0.0020000000949949,337.5181579589844,0.0,0.0,1,41.399267,0,-35.363262,149.1652372,-35.363262,0.0,0,-35.363262,149.1652372,0.0,0,149.1652372
1778782226.8000202,109985155,0,6,411044800,2418,10,1.21,-35.363262,149.1652372,609.08,0.0020000000949949,347.8778076171875,0.0,0.0,1,41.60002,0,-35.363262,149.1652372,-35.363262,0.0,0,-35.363262,149.1652372,0.0,0,149.1652372
1778782226.99994,110185075,0,6,411045000,2418,10,1.21,-35.363262,149.1652372,609.08,0.0020000000949949,13.849919319152832,0.0,0.0,1,41.79994,0,-35.363262,149.1652372,-35.363262,0.0,0,-35.363262,149.1652372,0.0,0,149.1652372
1778782227.19986,110384995,0,6,411045200,2418,10,1.21,-35.363262,149.1652372,609.08,0.003000000026077,33.62594985961914,0.0,0.0,1,41.99986,0,-35.363262,149.1652372,-35.363262,0.0,0,-35.363262,149.1652372,0.0,0,149.1652372
1778782227.39978,110584915,0,6,411045400,2418,10,1.21,-35.363262,149.1652372,609.08,0.0040000001899898,41.45859909057617,0.0,0.0,1,42.19978,0,-35.363262,149.1652372,-35.363262,0.0,0,-35.363262,149.1652372,0.0,0,149.1652372
1778782227.5997002,110784835,0,6,411045600,2418,10,1.21,-35.363262,149.1652372,609.08,0.0040000001899898,45.58786010742188,0.0,0.0,1,42.3997,0,-35.363262,149.1652372,-35.363262,0.0,0,-35.363262,149.1652372,0.0,0,149.1652372
1778782227.79962,110984755,0,6,411045800,2418,10,1.21,-35.363262,149.1652372,609.08,0.0050000003539025,50.216407775878906,0.0,0.0,1,42.59962,0,-35.363262,149.1652372,-35.363262,0.0,0,-35.363262,149.1652372,0.0,0,149.1652372
1778782227.99954,111184675,0,6,411046000,2418,10,1.21,-35.363262,149.1652372,609.08,0.0050000003539025,56.37989044189453,0.0,0.0,1,42.79954,0,-35.363262,149.1652372,-35.363262,0.0,0,-35.363262,149.1652372,0.0,0,149.1652372
1778782228.19946,111384595,0,6,411046200,2418,10,1.21,-35.363262,149.1652372,609.08,0.0050000003539025,62.44868850708008,0.0,0.0,1,42.99946,0,-35.363262,149.1652372,-35.363262,0.0,0,-35.363262,149.1652372,0.0,0,149.1652372
1778782228.3993802,111584515,0,6,411046400,2418,10,1.21,-35.363262,149.1652372,609.08,0.0050000003539025,67.44409942626953,0.0,0.0,1,43.19938,0,-35.363262,149.1652372,-35.363262,0.0,0,-35.363262,149.1652372,0.0,0,149.1652372
1778782228.5993,111784435,0,6,411046600,2418,10,1.21,-35.363262,149.1652372,609.08,0.0050000003539025,69.23054504394531,-0.0010000000474974,0.0,1,43.3993,0,-35.363262,149.1652372,-35.363262,0.0,0,-35.363262,149.1652372,0.0,0,149.1652372
1778782228.8000531,111985188,0,6,411046800,2418,10,1.21,-35.363262,149.1652372,609.08,0.006000000052154,68.6561508178711,-0.0010000000474974,0.0,1,43.600053,0,-35.363262,149.1652372,-35.363262,0.0,0,-35.363262,149.1652372,0.0,0,149.1652372
1778782228.999973,112185108,0,6,411047000,2418,10,1.21,-35.363262,149.1652372,609.08,0.006000000052154,71.02735900878906,0.0,0.0,1,43.799973,0,-35.363262,149.1652372,-35.363262,0.0,0,-35.363262,149.1652372,0.0,0,149.1652372
1778782229.199893,112385028,0,6,411047200,2418,10,1.21,-35.3632619,149.1652372,609.09,0.006000000052154,77.01258850097656,0.0,0.0,1,43.999893,0,-35.3632619,149.1652372,-35.3632619,0.0,0,-35.3632619,149.1652372,0.0,0,149.1652372
1778782229.3998132,112584948,0,6,411047400,2418,10,1.21,-35.3632619,149.1652373,609.09,0.0050000003539025,81.87590026855469,0.0,0.0,1,44.199813,0,-35.3632619,149.1652373,-35.3632619,0.0,0,-35.3632619,149.1652373,0.0,0,149.1652373
1778782229.599733,112784868,0,6,411047600,2418,10,1.21,-35.3632619,149.1652373,609.09,0.0050000003539025,80.93818664550781,0.0,0.0,1,44.399733,0,-35.3632619,149.1652373,-35.3632619,0.0,0,-35.3632619,149.1652373,0.0,0,149.1652373
1778782229.799653,112984788,0,6,411047800,2418,10,1.21,-35.3632619,149.1652373,609.09,0.0040000001899898,79.34870147705078,0.0,0.0,1,44.599653,0,-35.3632619,149.1652373,-35.3632619,0.0,0,-35.3632619,149.1652373,0.0,0,149.1652373
1778782229.9995732,113184708,0,6,411048000,2418,10,1.21,-35.3632619,149.1652373,609.09,0.0040000001899898,85.08136749267578,0.0,0.0,1,44.799573,0,-35.3632619,149.1652373,-35.3632619,0.0,0,-35.3632619,149.1652373,0.0,0,149.1652373
1778782230.1994932,113384628,0,6,411048200,2418,10,1.21,-35.3632619,149.1652373,609.09,0.003000000026077,98.5780258178711,0.0,0.0,1,44.999493,0,-35.3632619,149.1652373,-35.3632619,0.0,0,-35.3632619,149.1652373,0.0,0,149.1652373
1778782230.399413,113584548,0,6,411048400,2418,10,1.21,-35.3632619,149.1652373,609.09,0.003000000026077,122.36878967285156,0.0,0.0,1,45.199413,0,-35.3632619,149.1652373,-35.3632619,0.0,0,-35.3632619,149.1652373,0.0,0,149.1652373
1778782230.599333,113784468,0,6,411048600,2418,10,1.21,-35.3632619,149.1652373,609.09,0.003000000026077,147.59071350097656,0.0,0.0,1,45.399333,0,-35.3632619,149.1652373,-35.3632619,0.0,0,-35.3632619,149.1652373,0.0,0,149.1652373
1778782230.7992532,113984388,0,6,411048800,2418,10,1.21,-35.3632619,149.1652373,609.09,0.0040000001899898,163.88829040527344,0.0010000000474974,0.0,1,45.599253,0,-35.3632619,149.1652373,-35.3632619,0.0,0,-35.3632619,149.1652373,0.0,0,149.1652373
1778782231.0000062,114185141,0,6,411049000,2418,10,1.21,-35.3632619,149.1652373,609.08,0.0040000001899898,172.5540771484375,0.0010000000474974,0.0,1,45.800006,0,-35.3632619,149.1652373,-35.3632619,0.0,0,-35.3632619,149.1652373,0.0,0,149.1652373
1778782231.199926,114385061,0,6,411049200,2418,10,1.21,-35.3632619,149.1652373,609.08,0.0050000003539025,175.56732177734375,0.0010000000474974,0.0,1,45.999926,0,-35.3632619,149.1652373,-35.3632619,0.0,0,-35.3632619,149.1652373,0.0,0,149.1652373
1778782231.399846,114584981,0,6,411049400,2418,10,1.21,-35.3632619,149.1652373,609.08,0.0050000003539025,177.20506286621094,0.0010000000474974,0.0,1,46.199846,0,-35.3632619,149.1652373,-35.3632619,0.0,0,-35.3632619,149.1652373,0.0,0,149.1652373
1778782231.599766,114784901,0,6,411049600,2418,10,1.21,-35.3632619,149.1652373,609.08,0.0050000003539025,179.2892608642578,0.0010000000474974,0.0,1,46.399766,0,-35.3632619,149.1652373,-35.3632619,0.0,0,-35.3632619,149.1652373,0.0,0,149.1652373
1778782231.799686,114984821,0,6,411049800,2418,10,1.21,-35.3632619,149.1652373,609.08,0.0050000003539025,181.903564453125,0.0,0.0,1,46.599686,0,-35.3632619,149.1652373,-35.3632619,0.0,0,-35.3632619,149.1652373,0.0,0,149.1652373
1778782231.999606,115184741,0,6,411050000,2418,10,1.21,-35.3632619,149.1652373,609.08,0.0040000001899898,184.754638671875,0.0,0.0,1,46.799606,0,-35.3632619,149.1652373,-35.3632619,0.0,0,-35.3632619,149.1652373,0.0,0,149.1652373
1778782232.199526,115384661,0,6,411050200,2418,10,1.21,-35.3632619,149.1652373,609.08,0.0040000001899898,185.18768310546875,0.0,0.0,1,46.999526,0,-35.3632619,149.1652373,-35.3632619,0.0,0,-35.3632619,149.1652373,0.0,0,149.1652373
1778782232.399446,115584581,0,6,411050400,2418,10,1.21,-35.3632619,149.1652373,609.08,0.0040000001899898,184.72764587402344,0.0,0.0,1,47.199446,0,-35.3632619,149.1652373,-35.3632619,0.0,0,-35.3632619,149.1652373,0.0,0,149.1652373
1778782232.599366,115784501,0,6,411050600,2418,10,1.21,-35.3632619,149.1652373,609.08,0.0050000003539025,187.9428100585937,0.0,0.0,1,47.399366,0,-35.3632619,149.1652373,-35.3632619,0.0,0,-35.3632619,149.1652373,0.0,0,149.1652373
1778782232.799286,115984421,0,6,411050800,2418,10,1.21,-35.3632619,149.1652373,609.08,0.0050000003539025,193.4882354736328,0.0,0.0,1,47.599286,0,-35.3632619,149.1652373,-35.3632619,0.0,0,-35.3632619,149.1652373,0.0,0,149.1652373
1778782233.000039,116185174,0,6,411051000,2418,10,1.21,-35.363262,149.1652373,609.08,0.0050000003539025,196.8126983642578,0.0,0.0,1,47.800039,0,-35.363262,149.1652373,-35.363262,0.0,0,-35.363262,149.1652373,0.0,0,149.1652373
1778782233.199959,116385094,0,6,411051200,2418,10,1.21,-35.363262,149.1652373,609.08,0.0050000003539025,195.8043365478516,0.0,0.0,1,47.999959,0,-35.363262,149.1652373,-35.363262,0.0,0,-35.363262,149.1652373,0.0,0,149.1652373
1778782233.3998792,116585014,0,6,411051400,2418,10,1.21,-35.363262,149.1652373,609.08,0.0050000003539025,192.0703582763672,0.0,0.0,1,48.199879,0,-35.363262,149.1652373,-35.363262,0.0,0,-35.363262,149.1652373,0.0,0,149.1652373
1778782233.5997992,116784934,0,6,411051600,2418,10,1.21,-35.363262,149.1652373,609.08,0.0050000003539025,187.6122894287109,0.0,0.0,1,48.399799,0,-35.363262,149.1652373,-35.363262,0.0,0,-35.363262,149.1652373,0.0,0,149.1652373
1778782233.799719,116984854,0,6,411051800,2418,10,1.21,-35.363262,149.1652373,609.08,0.0040000001899898,184.9047698974609,0.0,0.0,1,48.599719,0,-35.363262,149.1652373,-35.363262,0.0,0,-35.363262,149.1652373,0.0,0,149.1652373
1778782233.999639,117184774,0,6,411052000,2418,10,1.21,-35.363262,149.1652373,609.08,0.0020000000949949,189.83355712890625,0.0,0.0,1,48.799639,0,-35.363262,149.1652373,-35.363262,0.0,0,-35.363262,149.1652373,0.0,0,149.1652373
1778782234.1995592,117384694,0,6,411052200,2418,10,1.21,-35.363262,149.1652373,609.08,0.0010000000474974,213.5743408203125,-0.0010000000474974,0.0,1,48.999559,0,-35.363262,149.1652373,-35.363262,0.0,0,-35.363262,149.1652373,0.0,0,149.1652373
